%  GPST                      x-ecef(m)      y-ecef(m)      z-ecef(m)   Q  ns   sdx(m)   sdy(m)   sdz(m)  sdxy(m)  sdyz(m)  sdzx(m) age(s)  ratio
2020/11/02 05:50:42.000   1112776.9459  -4341475.9071   4522955.8833   6   7   0.0001   0.0001   0.0001  -0.0000  -0.0000  -0.0000   0.00    0.0
2020/11/02 05:50:43.000   1112776.9459  -4341475.9071   4522955.8833   6   7   0.0001   0.0001   0.0001  -0.0000  -0.0000  -0.0000   0.00    0.0
2020/11/02 05:50:44.000   1112776.9459  -4341475.9071   4522955.8833   6   7   0.0001   0.0001   0.0001  -0.0000  -0.0000  -0.0000   0.00    0.0
2020/11/02 05:50:45.000   1112776.9459  -4341475.9071   4522955.8833   6   7   0.0001   0.0001   0.0001  -0.0000  -0.0000  -0.0000   0.00    0.0
2020/11/02 05:50:46.000   1112776.9459  -4341475.9071   4522955.8833   6   7   0.0001   0.0001   0.0001  -0.0000  -0.0000  -0.0000   0.00    0.0
2020/11/02 05:50:47.000   1112776.9459  -4341475.9071   4522955.8833   6   7   0.0001   0.0001   0.0001  -0.0000  -0.0000  -0.0000   0.00    0.0
2020/11/02 05:50:48.000   1112776.9459  -4341475.9071   4522955.8833   6   7   0.0001   0.0001   0.0001  -0.0000  -0.0000  -0.0000   0.00    0.0
2020/11/02 05:50:49.000   1112776.9459  -4341475.9071   4522955.8833   6   7   0.0001   0.0001   0.0001  -0.0000  -0.0000  -0.0000   0.00    0.0
2020/11/02 05:50:50.000   1112776.9459  -4341475.9071   4522955.8833   6   7   0.0001   0.0001   0.0001  -0.0000  -0.0000  -0.0000   0.00    0.0
2020/11/02 05:50:51.000   1112776.9459  -4341475.9071   4522955.8833   6   7   0.0001   0.0001   0.0001  -0.0000  -0.0000  -0.0000   0.00    0.0
2020/11/02 05:50:52.000   1112776.9459  -4341475.9071   4522955.8833   6   7   0.0001   0.0001   0.0001  -0.0000  -0.0000  -0.0000   0.00    0.0
2020/11/02 05:50:53.000   1112776.9459  -4341475.9071   4522955.8833   6   7   0.0001   0.0001   0.0001  -0.0000  -0.0000  -0.0000   0.00    0.0
2020/11/02 05:50:54.000   1112776.9459  -4341475.9071   4522955.8833   6   7   0.0001   0.0001   0.0001  -0.0000  -0.0000  -0.0000   0.00    0.0
2020/11/02 05:50:55.000   1112776.9459  -4341475.9071   4522955.8833   6   7   0.0001   0.0001   0.0001  -0.0000  -0.0000  -0.0000   0.00    0.0
2020/11/02 05:50:56.000   1112776.9459  -4341475.9071   4522955.8833   6   7   0.0001   0.0001   0.0001  -0.0000  -0.0000  -0.0000   0.00    0.0
2020/11/02 05:50:57.000   1112776.9459  -4341475.9071   4522955.8833   6   7   0.0001   0.0001   0.0001  -0.0000  -0.0000  -0.0000   0.00    0.0
2020/11/02 05:50:58.000   1112776.9459  -4341475.9071   4522955.8833   6   7   0.0001   0.0001   0.0001  -0.0000  -0.0000  -0.0000   0.00    0.0
2020/11/02 05:50:59.000   1112776.9459  -4341475.9071   4522955.8833   6   7   0.0001   0.0001   0.0001  -0.0000  -0.0000  -0.0000   0.00    0.0
2020/11/02 05:51:00.000   1112776.9459  -4341475.9071   4522955.8833   6   7   0.0001   0.0001   0.0001  -0.0000  -0.0000  -0.0000   0.00    0.0
2020/11/02 05:51:01.000   1112776.9459  -4341475.9071   4522955.8833   6   7   0.0001   0.0001   0.0001  -0.0000  -0.0000  -0.0000   0.00    0.0
2020/11/02 05:51:02.000   1112776.9459  -4341475.9071   4522955.8833   6   7   0.0001   0.0001   0.0001  -0.0000  -0.0000  -0.0000   0.00    0.0
2020/11/02 05:51:03.000   1112776.9459  -4341475.9071   4522955.8833   6   7   0.0001   0.0001   0.0001  -0.0000  -0.0000  -0.0000   0.00    0.0
2020/11/02 05:51:04.000   1112776.9459  -4341475.9071   4522955.8833   6   7   0.0001   0.0001   0.0001  -0.0000  -0.0000  -0.0000   0.00    0.0
2020/11/02 05:51:05.000   1112776.9459  -4341475.9071   4522955.8833   6   7   0.0001   0.0001   0.0001  -0.0000  -0.0000  -0.0000   0.00    0.0
2020/11/02 05:51:06.000   1112776.9459  -4341475.9071   4522955.8833   6   7   0.0001   0.0001   0.0001  -0.0000  -0.0000  -0.0000   0.00    0.0
2020/11/02 05:51:07.000   1112776.9459  -4341475.9071   4522955.8833   6   7   0.0001   0.0001   0.0001  -0.0000  -0.0000  -0.0000   0.00    0.0
2020/11/02 05:51:08.000   1112776.9459  -4341475.9071   4522955.8833   6   7   0.0001   0.0001   0.0001  -0.0000  -0.0000  -0.0000   0.00    0.0
2020/11/02 05:51:09.000   1112776.9459  -4341475.9071   4522955.8833   6   7   0.0001   0.0001   0.0001  -0.0000  -0.0000  -0.0000   0.00    0.0
2020/11/02 05:51:10.000   1112776.9459  -4341475.9071   4522955.8833   6   7   0.0001   0.0001   0.0001  -0.0000  -0.0000  -0.0000   0.00    0.0
2020/11/02 05:51:11.000   1112776.9459  -4341475.9071   4522955.8833   6   7   0.0001   0.0001   0.0001  -0.0000  -0.0000  -0.0000   0.00    0.0
2020/11/02 05:51:12.000   1112776.9459  -4341475.9071   4522955.8833   6   7   0.0001   0.0001   0.0001  -0.0000  -0.0000  -0.0000   0.00    0.0
2020/11/02 05:51:13.000   1112776.9459  -4341475.9071   4522955.8833   6   7   0.0001   0.0001   0.0001  -0.0000  -0.0000  -0.0000   0.00    0.0
2020/11/02 05:51:14.000   1112776.9674  -4341475.9080   4522955.8861   6   7   0.1036   0.2217   0.2378  -0.0611  -0.1862  -0.0271   0.00    0.0
2020/11/02 05:51:15.000   1112776.9743  -4341475.9036   4522955.8776   6   7   0.1036   0.2217   0.2378  -0.0611  -0.1861  -0.0271   0.00    0.0
2020/11/02 05:51:16.000   1112776.9753  -4341475.9104   4522955.8825   6   7   0.1036   0.2216   0.2377  -0.0612  -0.1861  -0.0271   0.00    0.0
2020/11/02 05:51:17.000   1112776.9814  -4341475.9169   4522955.8788   6   7   0.1036   0.2216   0.2376  -0.0612  -0.1860  -0.0271   0.00    0.0
2020/11/02 05:51:18.000   1112776.9760  -4341475.9151   4522955.8977   6   7   0.1036   0.2216   0.2376  -0.0612  -0.1860  -0.0271   0.00    0.0
2020/11/02 05:51:19.000   1112776.9754  -4341475.9089   4522955.8806   6   7   0.1036   0.2215   0.2375  -0.0612  -0.1859  -0.0271   0.00    0.0
2020/11/02 05:51:20.000   1112776.9816  -4341475.9284   4522955.8866   6   7   0.1036   0.2215   0.2374  -0.0613  -0.1859  -0.0271   0.00    0.0
2020/11/02 05:51:21.000   1112776.9873  -4341475.9455   4522955.8784   6   7   0.1036   0.2215   0.2374  -0.0613  -0.1858  -0.0271   0.00    0.0
2020/11/02 05:51:22.000   1112776.9838  -4341475.9467   4522955.9010   6   7   0.1036   0.2215   0.2373  -0.0613  -0.1858  -0.0271   0.00    0.0
2020/11/02 05:51:23.000   1112776.9809  -4341475.9363   4522955.8876   6   7   0.1036   0.2214   0.2373  -0.0613  -0.1857  -0.0271   0.00    0.0
2020/11/02 05:51:24.000   1112776.9870  -4341475.9604   4522955.8881   6   7   0.1036   0.2214   0.2372  -0.0614  -0.1857  -0.0271   0.00    0.0
2020/11/02 05:51:25.000   1112776.9861  -4341475.9538   4522955.8846   6   7   0.1036   0.2214   0.2371  -0.0614  -0.1856  -0.0271   0.00    0.0
2020/11/02 05:51:26.000   1112776.9856  -4341475.9644   4522955.8890   6   7   0.1036   0.2214   0.2371  -0.0614  -0.1856  -0.0270   0.00    0.0
2020/11/02 05:51:27.000   1112776.9870  -4341475.9614   4522955.8951   6   7   0.1036   0.2213   0.2370  -0.0614  -0.1855  -0.0270   0.00    0.0
2020/11/02 05:51:28.000   1112776.9823  -4341475.9551   4522955.8749   6   7   0.1036   0.2213   0.2369  -0.0615  -0.1855  -0.0270   0.00    0.0
2020/11/02 05:51:29.000   1112776.9832  -4341475.9687   4522955.8914   6   7   0.1036   0.2213   0.2369  -0.0615  -0.1854  -0.0270   0.00    0.0
2020/11/02 05:51:30.000   1112776.9839  -4341475.9716   4522955.9005   6   7   0.1036   0.2212   0.2368  -0.0615  -0.1854  -0.0270   0.00    0.0
2020/11/02 05:51:31.000   1112776.9755  -4341475.9695   4522955.8734   6   7   0.1036   0.2212   0.2368  -0.0616  -0.1853  -0.0270   0.00    0.0
2020/11/02 05:51:32.000   1112776.9734  -4341475.9623   4522955.8631   6   7   0.1036   0.2212   0.2367  -0.0616  -0.1853  -0.0270   0.00    0.0
2020/11/02 05:51:33.000   1112776.9686  -4341475.9730   4522955.8736   6   7   0.1037   0.2212   0.2366  -0.0616  -0.1852  -0.0270   0.00    0.0
2020/11/02 05:51:34.000   1112776.9769  -4341475.9673   4522955.8511   6   7   0.1037   0.2211   0.2366  -0.0616  -0.1852  -0.0270   0.00    0.0
2020/11/02 05:51:35.000   1112776.9726  -4341475.9746   4522955.8514   6   7   0.1037   0.2211   0.2365  -0.0617  -0.1851  -0.0270   0.00    0.0
2020/11/02 05:51:36.000   1112776.9719  -4341475.9747   4522955.8575   6   7   0.1037   0.2211   0.2365  -0.0617  -0.1851  -0.0270   0.00    0.0
2020/11/02 05:51:37.000   1112776.9682  -4341475.9720   4522955.8376   6   7   0.1037   0.2211   0.2364  -0.0617  -0.1850  -0.0270   0.00    0.0
2020/11/02 05:51:38.000   1112776.9679  -4341475.9604   4522955.8304   6   7   0.1037   0.2210   0.2363  -0.0617  -0.1850  -0.0270   0.00    0.0
2020/11/02 05:51:39.000   1112776.9684  -4341475.9574   4522955.8107   6   7   0.1037   0.2210   0.2363  -0.0618  -0.1849  -0.0270   0.00    0.0
2020/11/02 05:51:40.000   1112776.9695  -4341475.9683   4522955.8288   6   7   0.1037   0.2210   0.2362  -0.0618  -0.1849  -0.0270   0.00    0.0
2020/11/02 05:51:41.000   1112776.9711  -4341475.9600   4522955.8229   6   7   0.1037   0.2210   0.2361  -0.0618  -0.1848  -0.0269   0.00    0.0
2020/11/02 05:51:42.000   1112776.9729  -4341475.9601   4522955.8233   6   7   0.1037   0.2209   0.2361  -0.0618  -0.1848  -0.0269   0.00    0.0
2020/11/02 05:51:43.000   1112776.9700  -4341475.9580   4522955.8206   6   7   0.1037   0.2209   0.2360  -0.0619  -0.1847  -0.0269   0.00    0.0
2020/11/02 05:51:44.000   1112776.9640  -4341475.9395   4522955.7930   6   7   0.1037   0.2209   0.2360  -0.0619  -0.1847  -0.0269   0.00    0.0
2020/11/02 05:51:45.000   1112776.9721  -4341475.9525   4522955.8060   6   7   0.1037   0.2208   0.2359  -0.0619  -0.1846  -0.0269   0.00    0.0
2020/11/02 05:51:46.000   1112776.9715  -4341475.9353   4522955.7939   6   7   0.1037   0.2208   0.2358  -0.0620  -0.1846  -0.0269   0.00    0.0
2020/11/02 05:51:47.000   1112776.9697  -4341475.9339   4522955.8036   6   7   0.1037   0.2208   0.2358  -0.0620  -0.1845  -0.0269   0.00    0.0
2020/11/02 05:51:48.000   1112776.9664  -4341475.9366   4522955.8011   6   7   0.1037   0.2208   0.2357  -0.0620  -0.1845  -0.0269   0.00    0.0
2020/11/02 05:51:49.000   1112776.9676  -4341475.9425   4522955.8083   6   7   0.1037   0.2207   0.2357  -0.0620  -0.1844  -0.0269   0.00    0.0
2020/11/02 05:51:50.000   1112776.9648  -4341475.9454   4522955.8026   6   7   0.1037   0.2207   0.2356  -0.0621  -0.1844  -0.0269   0.00    0.0
2020/11/02 05:51:51.000   1112776.9670  -4341475.9391   4522955.7955   6   7   0.1037   0.2207   0.2355  -0.0621  -0.1843  -0.0269   0.00    0.0
2020/11/02 05:51:52.000   1112776.9637  -4341475.9418   4522955.7865   6   7   0.1038   0.2207   0.2355  -0.0621  -0.1843  -0.0269   0.00    0.0
2020/11/02 05:51:53.000   1112776.9690  -4341475.9390   4522955.7932   6   7   0.1038   0.2206   0.2354  -0.0621  -0.1842  -0.0269   0.00    0.0
2020/11/02 05:51:54.000   1112776.9653  -4341475.9346   4522955.7906   6   7   0.1038   0.2206   0.2354  -0.0622  -0.1842  -0.0269   0.00    0.0
2020/11/02 05:51:55.000   1112776.9702  -4341475.9229   4522955.7818   6   7   0.1038   0.2206   0.2353  -0.0622  -0.1841  -0.0269   0.00    0.0
2020/11/02 05:51:56.000   1112776.9701  -4341475.9269   4522955.7819   6   7   0.1038   0.2206   0.2352  -0.0622  -0.1841  -0.0268   0.00    0.0
2020/11/02 05:51:57.000   1112776.9646  -4341475.9213   4522955.8074   6   7   0.1038   0.2205   0.2352  -0.0622  -0.1840  -0.0268   0.00    0.0
2020/11/02 05:51:58.000   1112776.9623  -4341475.9210   4522955.8011   6   7   0.1038   0.2205   0.2351  -0.0623  -0.1840  -0.0268   0.00    0.0
2020/11/02 05:51:59.000   1112776.9738  -4341475.9277   4522955.8125   6   7   0.1038   0.2205   0.2351  -0.0623  -0.1839  -0.0268   0.00    0.0
2020/11/02 05:52:00.000   1112776.9734  -4341475.9304   4522955.8202   6   7   0.1038   0.2205   0.2350  -0.0623  -0.1839  -0.0268   0.00    0.0
2020/11/02 05:52:01.000   1112776.9705  -4341475.9294   4522955.8252   6   7   0.1038   0.2204   0.2349  -0.0624  -0.1838  -0.0268   0.00    0.0
2020/11/02 05:52:02.000   1112776.9706  -4341475.9353   4522955.8168   6   7   0.1038   0.2204   0.2349  -0.0624  -0.1838  -0.0268   0.00    0.0
2020/11/02 05:52:03.000   1112776.9695  -4341475.9265   4522955.8168   6   7   0.1038   0.2204   0.2348  -0.0624  -0.1837  -0.0268   0.00    0.0
2020/11/02 05:52:04.000   1112776.9689  -4341475.9457   4522955.8385   6   7   0.1038   0.2204   0.2348  -0.0624  -0.1837  -0.0268   0.00    0.0
2020/11/02 05:52:05.000   1112776.9739  -4341475.9425   4522955.8403   6   7   0.1038   0.2203   0.2347  -0.0625  -0.1836  -0.0268   0.00    0.0
2020/11/02 05:52:06.000   1112776.9742  -4341475.9375   4522955.8346   6   7   0.1038   0.2203   0.2346  -0.0625  -0.1836  -0.0268   0.00    0.0
2020/11/02 05:52:07.000   1112776.9789  -4341475.9560   4522955.8373   6   7   0.1038   0.2203   0.2346  -0.0625  -0.1835  -0.0268   0.00    0.0
2020/11/02 05:52:08.000   1112776.9781  -4341475.9704   4522955.8690   6   7   0.1038   0.2203   0.2345  -0.0625  -0.1835  -0.0268   0.00    0.0
2020/11/02 05:52:09.000   1112776.9744  -4341475.9742   4522955.8655   6   7   0.1038   0.2202   0.2345  -0.0626  -0.1834  -0.0267   0.00    0.0
2020/11/02 05:52:10.000   1112776.9687  -4341475.9885   4522955.8891   6   7   0.1039   0.2202   0.2344  -0.0626  -0.1834  -0.0267   0.00    0.0
2020/11/02 05:52:11.000   1112776.9695  -4341475.9815   4522955.8743   6   7   0.1039   0.2202   0.2343  -0.0626  -0.1834  -0.0267   0.00    0.0
2020/11/02 05:52:12.000   1112776.9695  -4341475.9862   4522955.8785   6   7   0.1039   0.2202   0.2343  -0.0626  -0.1833  -0.0267   0.00    0.0
2020/11/02 05:52:13.000   1112776.9678  -4341475.9878   4522955.8904   6   7   0.1039   0.2201   0.2342  -0.0627  -0.1833  -0.0267   0.00    0.0
2020/11/02 05:52:14.000   1112776.9622  -4341475.9923   4522955.9000   6   7   0.1039   0.2201   0.2342  -0.0627  -0.1832  -0.0267   0.00    0.0
2020/11/02 05:52:15.000   1112776.9645  -4341475.9971   4522955.8968   6   7   0.1039   0.2201   0.2341  -0.0627  -0.1832  -0.0267   0.00    0.0
2020/11/02 05:52:16.000   1112776.9719  -4341475.9953   4522955.8978   6   7   0.1039   0.2201   0.2340  -0.0628  -0.1831  -0.0267   0.00    0.0
2020/11/02 05:52:17.000   1112776.9778  -4341476.0104   4522955.9119   6   7   0.1039   0.2200   0.2340  -0.0628  -0.1831  -0.0267   0.00    0.0
2020/11/02 05:52:18.000   1112776.9715  -4341475.9938   4522955.9096   6   7   0.1039   0.2200   0.2339  -0.0628  -0.1830  -0.0267   0.00    0.0
2020/11/02 05:52:19.000   1112776.9717  -4341476.0139   4522955.9255   6   7   0.1039   0.2200   0.2339  -0.0628  -0.1830  -0.0267   0.00    0.0
2020/11/02 05:52:20.000   1112776.9820  -4341476.0011   4522955.9105   6   7   0.1039   0.2200   0.2338  -0.0629  -0.1829  -0.0267   0.00    0.0
2020/11/02 05:52:21.000   1112776.9845  -4341475.9926   4522955.9079   6   7   0.1039   0.2199   0.2337  -0.0629  -0.1829  -0.0267   0.00    0.0
2020/11/02 05:52:22.000   1112776.9821  -4341476.0057   4522955.9212   6   7   0.1039   0.2199   0.2337  -0.0629  -0.1828  -0.0266   0.00    0.0
2020/11/02 05:52:23.000   1112776.9874  -4341475.9993   4522955.9186   6   7   0.1039   0.2199   0.2336  -0.0629  -0.1828  -0.0266   0.00    0.0
2020/11/02 05:52:24.000   1112776.9874  -4341476.0023   4522955.9208   6   7   0.1039   0.2199   0.2336  -0.0630  -0.1827  -0.0266   0.00    0.0
2020/11/02 05:52:25.000   1112776.9879  -4341476.0146   4522955.9210   6   7   0.1039   0.2198   0.2335  -0.0630  -0.1827  -0.0266   0.00    0.0
2020/11/02 05:52:26.000   1112776.9909  -4341476.0131   4522955.9154   6   7   0.1039   0.2198   0.2334  -0.0630  -0.1826  -0.0266   0.00    0.0
2020/11/02 05:52:27.000   1112776.9851  -4341476.0115   4522955.9242   6   7   0.1039   0.2198   0.2334  -0.0630  -0.1826  -0.0266   0.00    0.0
2020/11/02 05:52:28.000   1112776.9877  -4341476.0193   4522955.9306   6   7   0.1040   0.2198   0.2333  -0.0631  -0.1825  -0.0266   0.00    0.0
2020/11/02 05:52:29.000   1112776.9876  -4341476.0158   4522955.9358   6   7   0.1040   0.2197   0.2333  -0.0631  -0.1825  -0.0266   0.00    0.0
2020/11/02 05:52:30.000   1112776.9833  -4341476.0351   4522955.9333   6   7   0.1040   0.2197   0.2332  -0.0631  -0.1824  -0.0266   0.00    0.0
2020/11/02 05:52:31.000   1112776.9830  -4341476.0211   4522955.9251   6   7   0.1040   0.2197   0.2332  -0.0632  -0.1824  -0.0266   0.00    0.0
2020/11/02 05:52:32.000   1112776.9818  -4341476.0626   4522955.9561   6   7   0.1040   0.2197   0.2331  -0.0632  -0.1824  -0.0266   0.00    0.0
2020/11/02 05:52:33.000   1112776.9868  -4341476.0462   4522955.9560   6   7   0.1040   0.2196   0.2330  -0.0632  -0.1823  -0.0266   0.00    0.0
2020/11/02 05:52:34.000   1112776.9893  -4341476.0334   4522955.9311   6   7   0.1040   0.2196   0.2330  -0.0632  -0.1823  -0.0265   0.00    0.0
2020/11/02 05:52:35.000   1112776.9886  -4341476.0438   4522955.9414   6   7   0.1040   0.2196   0.2329  -0.0633  -0.1822  -0.0265   0.00    0.0
2020/11/02 05:52:36.000   1112776.9834  -4341476.0512   4522955.9285   6   7   0.1040   0.2196   0.2329  -0.0633  -0.1822  -0.0265   0.00    0.0
2020/11/02 05:52:37.000   1112776.9843  -4341476.0295   4522955.9242   6   7   0.1040   0.2195   0.2328  -0.0633  -0.1821  -0.0265   0.00    0.0
2020/11/02 05:52:38.000   1112776.9810  -4341476.0322   4522955.9260   6   7   0.1040   0.2195   0.2327  -0.0633  -0.1821  -0.0265   0.00    0.0
2020/11/02 05:52:39.000   1112776.9810  -4341476.0462   4522955.9317   6   7   0.1040   0.2195   0.2327  -0.0634  -0.1820  -0.0265   0.00    0.0
2020/11/02 05:52:40.000   1112776.9827  -4341476.0461   4522955.9224   6   7   0.1040   0.2195   0.2326  -0.0634  -0.1820  -0.0265   0.00    0.0
