%  GPST                      x-ecef(m)      y-ecef(m)      z-ecef(m)   Q  ns   sdx(m)   sdy(m)   sdz(m)  sdxy(m)  sdyz(m)  sdzx(m) age(s)  ratio
2020/10/22 08:42:29.000   1112776.9459  -4341475.9071   4522955.8833   6   8   0.0001   0.0001   0.0001  -0.0000  -0.0000   0.0000   0.00    0.0
2020/10/22 08:42:30.000   1112776.9496  -4341475.8887   4522955.8679   6   8   0.1476   0.2394   0.4046  -0.1257  -0.2410   0.1255   0.00    0.0
2020/10/22 08:42:31.000   1112776.9511  -4341475.8755   4522955.8706   6   8   0.1474   0.2390   0.4037  -0.1256  -0.2405   0.1254   0.00    0.0
2020/10/22 08:42:32.000   1112776.9519  -4341475.8735   4522955.8469   6   8   0.1472   0.2387   0.4028  -0.1255  -0.2401   0.1253   0.00    0.0
2020/10/22 08:42:33.000   1112776.9541  -4341475.8666   4522955.8338   6   8   0.1471   0.2383   0.4019  -0.1254  -0.2396   0.1252   0.00    0.0
2020/10/22 08:42:34.000   1112776.8646  -4341475.7326   4522955.6859   6   8   0.1469   0.2380   0.4011  -0.1252  -0.2392   0.1251   0.00    0.0
2020/10/22 08:42:35.000   1112776.8672  -4341475.7471   4522955.6942   6   8   0.1467   0.2376   0.4002  -0.1251  -0.2388   0.1250   0.00    0.0
2020/10/22 08:42:36.000   1112776.8688  -4341475.7373   4522955.7171   6   8   0.1465   0.2373   0.3994  -0.1250  -0.2384   0.1249   0.00    0.0
2020/10/22 08:42:37.000   1112776.8683  -4341475.7333   4522955.7314   6   8   0.1464   0.2370   0.3986  -0.1249  -0.2380   0.1248   0.00    0.0
2020/10/22 08:42:38.000   1112776.8783  -4341475.7569   4522955.7571   6   8   0.1462   0.2367   0.3979  -0.1248  -0.2376   0.1247   0.00    0.0
2020/10/22 08:42:39.000   1112776.8809  -4341475.7553   4522955.7530   6   8   0.1460   0.2364   0.3971  -0.1247  -0.2372   0.1246   0.00    0.0
2020/10/22 08:42:40.000   1112776.8877  -4341475.7393   4522955.7118   6   8   0.1459   0.2361   0.3963  -0.1246  -0.2368   0.1245   0.00    0.0
2020/10/22 08:42:41.000   1112776.8784  -4341475.7493   4522955.7384   6   8   0.1457   0.2358   0.3956  -0.1245  -0.2365   0.1244   0.00    0.0
2020/10/22 08:42:42.000   1112776.8765  -4341475.7569   4522955.7712   6   8   0.1456   0.2355   0.3949  -0.1244  -0.2361   0.1243   0.00    0.0
2020/10/22 08:42:43.000   1112776.8802  -4341475.7582   4522955.7701   6   8   0.1454   0.2352   0.3942  -0.1243  -0.2358   0.1243   0.00    0.0
2020/10/22 08:42:44.000   1112776.8835  -4341475.7547   4522955.7521   6   8   0.1452   0.2350   0.3935  -0.1242  -0.2355   0.1242   0.00    0.0
2020/10/22 08:42:45.000   1112776.8933  -4341475.7618   4522955.7664   6   8   0.1451   0.2347   0.3928  -0.1242  -0.2351   0.1241   0.00    0.0
2020/10/22 08:42:46.000   1112776.8814  -4341475.7510   4522955.7371   6   8   0.1449   0.2345   0.3921  -0.1241  -0.2348   0.1240   0.00    0.0
2020/10/22 08:42:47.000   1112776.8890  -4341475.7442   4522955.7348   6   8   0.1448   0.2342   0.3915  -0.1240  -0.2345   0.1239   0.00    0.0
2020/10/22 08:42:48.000   1112776.8830  -4341475.7339   4522955.7419   6   8   0.1446   0.2340   0.3908  -0.1239  -0.2342   0.1239   0.00    0.0
2020/10/22 08:42:49.000   1112776.9112  -4341475.7542   4522955.7458   6   8   0.1445   0.2337   0.3902  -0.1238  -0.2339   0.1238   0.00    0.0
2020/10/22 08:42:50.000   1112776.9178  -4341475.7639   4522955.7533   6   8   0.1443   0.2335   0.3896  -0.1237  -0.2337   0.1237   0.00    0.0
2020/10/22 08:42:51.000   1112776.9240  -4341475.7738   4522955.7721   6   8   0.1442   0.2333   0.3890  -0.1237  -0.2334   0.1237   0.00    0.0
2020/10/22 08:42:52.000   1112776.9180  -4341475.7371   4522955.7293   6   8   0.1440   0.2331   0.3884  -0.1236  -0.2331   0.1236   0.00    0.0
2020/10/22 08:42:53.000   1112776.9356  -4341475.7455   4522955.7318   6   8   0.1439   0.2328   0.3878  -0.1235  -0.2328   0.1235   0.00    0.0
2020/10/22 08:42:54.000   1112776.9210  -4341475.7249   4522955.6985   6   8   0.1437   0.2326   0.3872  -0.1234  -0.2326   0.1235   0.00    0.0
2020/10/22 08:42:55.000   1112776.9191  -4341475.7297   4522955.7036   6   8   0.1436   0.2324   0.3866  -0.1234  -0.2323   0.1234   0.00    0.0
2020/10/22 08:42:56.000   1112776.9258  -4341475.7294   4522955.6830   6   8   0.1435   0.2322   0.3861  -0.1233  -0.2321   0.1233   0.00    0.0
2020/10/22 08:42:57.000   1112776.9263  -4341475.7352   4522955.6691   6   8   0.1433   0.2320   0.3855  -0.1232  -0.2318   0.1233   0.00    0.0
2020/10/22 08:42:58.000   1112776.9235  -4341475.7261   4522955.6743   6   8   0.1432   0.2318   0.3850  -0.1232  -0.2316   0.1232   0.00    0.0
2020/10/22 08:42:59.000   1112776.9307  -4341475.7315   4522955.6581   6   8   0.1431   0.2316   0.3844  -0.1231  -0.2314   0.1231   0.00    0.0
2020/10/22 08:43:00.000   1112776.9341  -4341475.7395   4522955.6831   6   8   0.1429   0.2314   0.3839  -0.1230  -0.2311   0.1231   0.00    0.0
2020/10/22 08:43:01.000   1112776.9455  -4341475.7316   4522955.6433   6   8   0.1428   0.2313   0.3834  -0.1230  -0.2309   0.1230   0.00    0.0
2020/10/22 08:43:02.000   1112776.9625  -4341475.7556   4522955.6619   6   8   0.1427   0.2311   0.3829  -0.1229  -0.2307   0.1230   0.00    0.0
2020/10/22 08:43:03.000   1112776.9691  -4341475.7523   4522955.6444   6   8   0.1425   0.2309   0.3824  -0.1228  -0.2305   0.1229   0.00    0.0
2020/10/22 08:43:04.000   1112777.0716  -4341475.8898   4522955.7827   6   8   0.1424   0.2307   0.3819  -0.1228  -0.2303   0.1228   0.00    0.0
2020/10/22 08:43:05.000   1112777.0839  -4341475.8970   4522955.7644   6   8   0.1423   0.2306   0.3814  -0.1227  -0.2301   0.1228   0.00    0.0
2020/10/22 08:43:06.000   1112777.0853  -4341475.8948   4522955.7728   6   8   0.1421   0.2304   0.3809  -0.1226  -0.2299   0.1227   0.00    0.0
2020/10/22 08:43:07.000   1112777.0918  -4341475.9151   4522955.7532   6   8   0.1420   0.2302   0.3805  -0.1226  -0.2297   0.1227   0.00    0.0
2020/10/22 08:43:08.000   1112777.0943  -4341475.9036   4522955.7499   6   8   0.1419   0.2301   0.3800  -0.1225  -0.2295   0.1226   0.00    0.0
2020/10/22 08:43:09.000   1112777.0934  -4341475.9068   4522955.7430   6   8   0.1418   0.2299   0.3795  -0.1225  -0.2293   0.1226   0.00    0.0
2020/10/22 08:43:10.000   1112777.0169  -4341475.8072   4522955.6037   6   8   0.1416   0.2298   0.3791  -0.1224  -0.2291   0.1225   0.00    0.0
2020/10/22 08:43:11.000   1112777.0180  -4341475.8158   4522955.6102   6   8   0.1415   0.2296   0.3786  -0.1224  -0.2289   0.1224   0.00    0.0
2020/10/22 08:43:12.000   1112777.0172  -4341475.8104   4522955.6086   6   8   0.1414   0.2295   0.3782  -0.1223  -0.2288   0.1224   0.00    0.0
2020/10/22 08:43:13.000   1112777.0205  -4341475.8042   4522955.5990   6   8   0.1413   0.2293   0.3778  -0.1223  -0.2286   0.1223   0.00    0.0
2020/10/22 08:43:14.000   1112777.0284  -4341475.8189   4522955.5738   6   8   0.1412   0.2292   0.3773  -0.1222  -0.2284   0.1223   0.00    0.0
2020/10/22 08:43:15.000   1112777.0294  -4341475.8172   4522955.5659   6   8   0.1411   0.2290   0.3769  -0.1221  -0.2282   0.1222   0.00    0.0
2020/10/22 08:43:16.000   1112777.0298  -4341475.8146   4522955.5555   6   8   0.1409   0.2289   0.3765  -0.1221  -0.2281   0.1222   0.00    0.0
2020/10/22 08:43:17.000   1112777.0383  -4341475.8195   4522955.5590   6   8   0.1408   0.2287   0.3761  -0.1220  -0.2279   0.1221   0.00    0.0
2020/10/22 08:43:18.000   1112777.0449  -4341475.8305   4522955.5553   6   8   0.1407   0.2286   0.3757  -0.1220  -0.2277   0.1221   0.00    0.0
2020/10/22 08:43:19.000   1112777.0631  -4341475.8539   4522955.5822   6   8   0.1406   0.2285   0.3753  -0.1219  -0.2276   0.1220   0.00    0.0
2020/10/22 08:43:20.000   1112777.0714  -4341475.8461   4522955.5698   6   8   0.1405   0.2283   0.3749  -0.1219  -0.2274   0.1220   0.00    0.0
2020/10/22 08:43:21.000   1112777.0752  -4341475.8651   4522955.5882   6   8   0.1404   0.2282   0.3745  -0.1218  -0.2273   0.1219   0.00    0.0
2020/10/22 08:43:22.000   1112777.0737  -4341475.8451   4522955.5638   6   8   0.1403   0.2281   0.3741  -0.1218  -0.2271   0.1219   0.00    0.0
2020/10/22 08:43:23.000   1112777.0732  -4341475.8578   4522955.5486   6   8   0.1402   0.2280   0.3738  -0.1217  -0.2270   0.1218   0.00    0.0
2020/10/22 08:43:24.000   1112777.0865  -4341475.8851   4522955.5738   6   8   0.1401   0.2278   0.3734  -0.1217  -0.2268   0.1218   0.00    0.0
2020/10/22 08:43:25.000   1112777.0870  -4341475.8807   4522955.5616   6   8   0.1399   0.2277   0.3730  -0.1216  -0.2267   0.1217   0.00    0.0
2020/10/22 08:43:26.000   1112777.0835  -4341475.8902   4522955.6059   6   8   0.1398   0.2276   0.3727  -0.1216  -0.2265   0.1217   0.00    0.0
2020/10/22 08:43:27.000   1112777.0839  -4341475.8937   4522955.6311   6   8   0.1397   0.2275   0.3723  -0.1216  -0.2264   0.1217   0.00    0.0
2020/10/22 08:43:28.000   1112777.0786  -4341475.8999   4522955.6294   6   8   0.1396   0.2273   0.3719  -0.1215  -0.2263   0.1216   0.00    0.0
2020/10/22 08:43:29.000   1112777.0824  -4341475.8990   4522955.6396   6   8   0.1395   0.2272   0.3716  -0.1215  -0.2261   0.1216   0.00    0.0
2020/10/22 08:43:30.000   1112777.0793  -4341475.9016   4522955.6557   6   8   0.1394   0.2271   0.3712  -0.1214  -0.2260   0.1215   0.00    0.0
2020/10/22 08:43:31.000   1112777.0861  -4341475.9101   4522955.6678   6   8   0.1393   0.2270   0.3709  -0.1214  -0.2259   0.1215   0.00    0.0
2020/10/22 08:43:32.000   1112777.0806  -4341475.9104   4522955.6558   6   8   0.1392   0.2269   0.3706  -0.1213  -0.2257   0.1214   0.00    0.0
2020/10/22 08:43:33.000   1112777.0848  -4341475.9201   4522955.6501   6   8   0.1391   0.2268   0.3702  -0.1213  -0.2256   0.1214   0.00    0.0
2020/10/22 08:43:34.000   1112777.0848  -4341475.9177   4522955.6560   6   8   0.1390   0.2267   0.3699  -0.1213  -0.2255   0.1213   0.00    0.0
2020/10/22 08:43:35.000   1112777.0792  -4341475.9040   4522955.6640   6   8   0.1389   0.2266   0.3696  -0.1212  -0.2254   0.1213   0.00    0.0
2020/10/22 08:43:36.000   1112777.0905  -4341475.9130   4522955.6891   6   8   0.1388   0.2265   0.3693  -0.1212  -0.2252   0.1213   0.00    0.0
2020/10/22 08:43:37.000   1112777.0885  -4341475.9146   4522955.6897   6   8   0.1387   0.2264   0.3689  -0.1211  -0.2251   0.1212   0.00    0.0
2020/10/22 08:43:38.000   1112777.0879  -4341475.9130   4522955.6851   6   8   0.1386   0.2263   0.3686  -0.1211  -0.2250   0.1212   0.00    0.0
2020/10/22 08:43:39.000   1112777.0908  -4341475.9091   4522955.6899   6   8   0.1385   0.2262   0.3683  -0.1211  -0.2249   0.1211   0.00    0.0
2020/10/22 08:43:40.000   1112777.0857  -4341475.9129   4522955.6795   6   8   0.1384   0.2261   0.3680  -0.1210  -0.2248   0.1211   0.00    0.0
2020/10/22 08:43:41.000   1112777.0824  -4341475.9161   4522955.6991   6   8   0.1384   0.2260   0.3677  -0.1210  -0.2246   0.1210   0.00    0.0
2020/10/22 08:43:42.000   1112777.0799  -4341475.9133   4522955.6822   6   8   0.1383   0.2259   0.3674  -0.1209  -0.2245   0.1210   0.00    0.0
2020/10/22 08:43:43.000   1112777.0792  -4341475.9196   4522955.6840   6   8   0.1382   0.2258   0.3671  -0.1209  -0.2244   0.1210   0.00    0.0
2020/10/22 08:43:44.000   1112777.0772  -4341475.9132   4522955.6975   6   8   0.1381   0.2257   0.3668  -0.1209  -0.2243   0.1209   0.00    0.0
2020/10/22 08:43:45.000   1112777.0805  -4341475.9216   4522955.6649   6   8   0.1380   0.2256   0.3665  -0.1208  -0.2242   0.1209   0.00    0.0
2020/10/22 08:43:46.000   1112777.0928  -4341475.9332   4522955.6774   6   8   0.1379   0.2255   0.3663  -0.1208  -0.2241   0.1208   0.00    0.0
2020/10/22 08:43:47.000   1112777.0986  -4341475.9309   4522955.6659   6   8   0.1378   0.2254   0.3660  -0.1207  -0.2240   0.1208   0.00    0.0
2020/10/22 08:43:48.000   1112777.0994  -4341475.9297   4522955.6572   6   8   0.1377   0.2253   0.3657  -0.1207  -0.2239   0.1208   0.00    0.0
2020/10/22 08:43:49.000   1112777.1902  -4341476.0415   4522955.7631   6   8   0.1376   0.2252   0.3654  -0.1207  -0.2238   0.1207   0.00    0.0
2020/10/22 08:43:50.000   1112777.1925  -4341476.0311   4522955.7580   6   8   0.1375   0.2251   0.3651  -0.1206  -0.2237   0.1207   0.00    0.0
2020/10/22 08:43:51.000   1112777.1886  -4341476.0383   4522955.7360   6   8   0.1375   0.2250   0.3649  -0.1206  -0.2236   0.1207   0.00    0.0
2020/10/22 08:43:52.000   1112777.2045  -4341476.0279   4522955.7391   6   8   0.1374   0.2250   0.3646  -0.1206  -0.2235   0.1206   0.00    0.0
2020/10/22 08:43:53.000   1112777.2021  -4341476.0461   4522955.7259   6   8   0.1373   0.2249   0.3643  -0.1205  -0.2234   0.1206   0.00    0.0
2020/10/22 08:43:54.000   1112777.1226  -4341475.9305   4522955.5972   6   8   0.1372   0.2248   0.3641  -0.1205  -0.2233   0.1205   0.00    0.0
2020/10/22 08:43:55.000   1112777.1106  -4341475.9352   4522955.6005   6   8   0.1371   0.2247   0.3638  -0.1205  -0.2232   0.1205   0.00    0.0
2020/10/22 08:43:56.000   1112777.1116  -4341475.9299   4522955.5952   6   8   0.1370   0.2246   0.3636  -0.1204  -0.2231   0.1205   0.00    0.0
2020/10/22 08:43:57.000   1112777.1155  -4341475.9383   4522955.6285   6   8   0.1370   0.2245   0.3633  -0.1204  -0.2230   0.1204   0.00    0.0
2020/10/22 08:43:58.000   1112777.1127  -4341475.9400   4522955.6156   6   8   0.1369   0.2245   0.3630  -0.1204  -0.2229   0.1204   0.00    0.0
2020/10/22 08:43:59.000   1112777.1222  -4341475.9401   4522955.6020   6   8   0.1368   0.2244   0.3628  -0.1203  -0.2228   0.1204   0.00    0.0
2020/10/22 08:44:00.000   1112777.1296  -4341475.9366   4522955.5925   6   8   0.1367   0.2243   0.3626  -0.1203  -0.2227   0.1203   0.00    0.0
2020/10/22 08:44:01.000   1112777.1334  -4341475.9375   4522955.6038   6   8   0.1366   0.2242   0.3623  -0.1203  -0.2226   0.1203   0.00    0.0
2020/10/22 08:44:02.000   1112777.1375  -4341475.9473   4522955.6030   6   8   0.1365   0.2241   0.3621  -0.1202  -0.2225   0.1202   0.00    0.0
2020/10/22 08:44:03.000   1112777.1350  -4341475.9580   4522955.6048   6   8   0.1365   0.2241   0.3618  -0.1202  -0.2225   0.1202   0.00    0.0
2020/10/22 08:44:04.000   1112777.1429  -4341475.9451   4522955.6161   6   8   0.1364   0.2240   0.3616  -0.1202  -0.2224   0.1202   0.00    0.0
2020/10/22 08:44:05.000   1112777.1440  -4341475.9506   4522955.5886   6   8   0.1363   0.2239   0.3614  -0.1201  -0.2223   0.1201   0.00    0.0
2020/10/22 08:44:06.000   1112777.1372  -4341475.9432   4522955.5924   6   8   0.1362   0.2238   0.3611  -0.1201  -0.2222   0.1201   0.00    0.0
2020/10/22 08:44:07.000   1112777.1336  -4341475.9476   4522955.5861   6   8   0.1362   0.2238   0.3609  -0.1201  -0.2221   0.1201   0.00    0.0
2020/10/22 08:44:08.000   1112777.1428  -4341475.9432   4522955.5638   6   8   0.1361   0.2237   0.3607  -0.1201  -0.2220   0.1200   0.00    0.0
2020/10/22 08:44:09.000   1112777.1471  -4341475.9410   4522955.5417   6   8   0.1360   0.2236   0.3604  -0.1200  -0.2219   0.1200   0.00    0.0
2020/10/22 08:44:10.000   1112777.1445  -4341475.9525   4522955.5564   6   8   0.1359   0.2235   0.3602  -0.1200  -0.2219   0.1200   0.00    0.0
2020/10/22 08:44:11.000   1112777.1491  -4341475.9513   4522955.5408   6   8   0.1359   0.2235   0.3600  -0.1200  -0.2218   0.1199   0.00    0.0
2020/10/22 08:44:12.000   1112777.1542  -4341475.9547   4522955.5450   6   8   0.1358   0.2234   0.3598  -0.1199  -0.2217   0.1199   0.00    0.0
2020/10/22 08:44:13.000   1112777.1451  -4341475.9512   4522955.5217   6   8   0.1357   0.2233   0.3596  -0.1199  -0.2216   0.1199   0.00    0.0
2020/10/22 08:44:14.000   1112777.1444  -4341475.9346   4522955.5029   6   8   0.1356   0.2233   0.3593  -0.1199  -0.2215   0.1198   0.00    0.0
