%  GPST                      x-ecef(m)      y-ecef(m)      z-ecef(m)   Q  ns   sdx(m)   sdy(m)   sdz(m)  sdxy(m)  sdyz(m)  sdzx(m) age(s)  ratio
2020/11/02 06:48:26.000   1112776.9459  -4341475.9071   4522955.8833   6   9   0.0001   0.0001   0.0001  -0.0000  -0.0000  -0.0000   0.00    0.0
2020/11/02 06:48:27.000   1112776.9459  -4341475.9071   4522955.8833   6   9   0.0001   0.0001   0.0001  -0.0000  -0.0000  -0.0000   0.00    0.0
2020/11/02 06:48:28.000   1112776.9459  -4341475.9071   4522955.8833   6   9   0.0001   0.0001   0.0001  -0.0000  -0.0000  -0.0000   0.00    0.0
2020/11/02 06:48:29.000   1112776.9459  -4341475.9071   4522955.8833   6   9   0.0001   0.0001   0.0001  -0.0000  -0.0000  -0.0000   0.00    0.0
2020/11/02 06:48:30.000   1112776.9459  -4341475.9071   4522955.8833   6   9   0.0001   0.0001   0.0001  -0.0000  -0.0000  -0.0000   0.00    0.0
2020/11/02 06:48:31.000   1112776.9459  -4341475.9071   4522955.8833   6   9   0.0001   0.0001   0.0001  -0.0000  -0.0000  -0.0000   0.00    0.0
2020/11/02 06:48:32.000   1112776.9459  -4341475.9071   4522955.8833   6   9   0.0001   0.0001   0.0001  -0.0000  -0.0000  -0.0000   0.00    0.0
2020/11/02 06:48:33.000   1112776.9459  -4341475.9071   4522955.8833   6   9   0.0001   0.0001   0.0001  -0.0000  -0.0000  -0.0000   0.00    0.0
2020/11/02 06:48:34.000   1112776.9459  -4341475.9071   4522955.8833   6   9   0.0001   0.0001   0.0001  -0.0000  -0.0000  -0.0000   0.00    0.0
2020/11/02 06:48:35.000   1112776.9459  -4341475.9071   4522955.8833   6   9   0.0001   0.0001   0.0001  -0.0000  -0.0000  -0.0000   0.00    0.0
2020/11/02 06:48:36.000   1112776.9459  -4341475.9071   4522955.8833   6   9   0.0001   0.0001   0.0001  -0.0000  -0.0000  -0.0000   0.00    0.0
2020/11/02 06:48:37.000   1112776.9459  -4341475.9071   4522955.8833   6   9   0.0001   0.0001   0.0001  -0.0000  -0.0000  -0.0000   0.00    0.0
2020/11/02 06:48:38.000   1112776.9459  -4341475.9071   4522955.8833   6   9   0.0001   0.0001   0.0001  -0.0000  -0.0000  -0.0000   0.00    0.0
2020/11/02 06:48:39.000   1112776.9459  -4341475.9071   4522955.8833   6   9   0.0001   0.0001   0.0001  -0.0000  -0.0000  -0.0000   0.00    0.0
2020/11/02 06:48:40.000   1112776.9459  -4341475.9071   4522955.8833   6   9   0.0001   0.0001   0.0001  -0.0000  -0.0000  -0.0000   0.00    0.0
2020/11/02 06:48:41.000   1112776.9459  -4341475.9071   4522955.8833   6   9   0.0001   0.0001   0.0001  -0.0000  -0.0000  -0.0000   0.00    0.0
2020/11/02 06:48:42.000   1112776.9459  -4341475.9071   4522955.8833   6   9   0.0001   0.0001   0.0001  -0.0000  -0.0000  -0.0000   0.00    0.0
2020/11/02 06:48:43.000   1112776.9459  -4341475.9071   4522955.8833   6   9   0.0001   0.0001   0.0001  -0.0000  -0.0000  -0.0000   0.00    0.0
2020/11/02 06:48:44.000   1112776.9459  -4341475.9071   4522955.8833   6   9   0.0001   0.0001   0.0001  -0.0000  -0.0000  -0.0000   0.00    0.0
2020/11/02 06:48:45.000   1112776.9459  -4341475.9071   4522955.8833   6   9   0.0001   0.0001   0.0001  -0.0000  -0.0000  -0.0000   0.00    0.0
2020/11/02 06:48:46.000   1112776.9459  -4341475.9071   4522955.8833   6   9   0.0001   0.0001   0.0001  -0.0000  -0.0000  -0.0000   0.00    0.0
2020/11/02 06:48:47.000   1112776.9459  -4341475.9071   4522955.8833   6   9   0.0001   0.0001   0.0001  -0.0000  -0.0000  -0.0000   0.00    0.0
2020/11/02 06:48:48.000   1112776.9459  -4341475.9071   4522955.8833   6   9   0.0001   0.0001   0.0001  -0.0000  -0.0000  -0.0000   0.00    0.0
2020/11/02 06:48:49.000   1112776.9459  -4341475.9071   4522955.8833   6   9   0.0001   0.0001   0.0001  -0.0000  -0.0000  -0.0000   0.00    0.0
2020/11/02 06:48:50.000   1112776.9459  -4341475.9071   4522955.8833   6   9   0.0001   0.0001   0.0001  -0.0000  -0.0000  -0.0000   0.00    0.0
2020/11/02 06:48:51.000   1112776.9459  -4341475.9071   4522955.8833   6   9   0.0001   0.0001   0.0001  -0.0000  -0.0000  -0.0000   0.00    0.0
2020/11/02 06:48:52.000   1112776.9459  -4341475.9071   4522955.8833   6   9   0.0001   0.0001   0.0001  -0.0000  -0.0000  -0.0000   0.00    0.0
2020/11/02 06:48:53.000   1112776.9459  -4341475.9071   4522955.8833   6   9   0.0001   0.0001   0.0001  -0.0000  -0.0000  -0.0000   0.00    0.0
2020/11/02 06:48:54.000   1112776.9459  -4341475.9071   4522955.8833   6   9   0.0001   0.0001   0.0001  -0.0000  -0.0000  -0.0000   0.00    0.0
2020/11/02 06:48:55.000   1112776.9459  -4341475.9071   4522955.8833   6   9   0.0001   0.0001   0.0001  -0.0000  -0.0000  -0.0000   0.00    0.0
2020/11/02 06:48:56.000   1112776.9459  -4341475.9071   4522955.8833   6   9   0.0001   0.0001   0.0001  -0.0000  -0.0000  -0.0000   0.00    0.0
2020/11/02 06:48:57.000   1112776.9459  -4341475.9071   4522955.8833   6   9   0.0001   0.0001   0.0001  -0.0000  -0.0000  -0.0000   0.00    0.0
2020/11/02 06:48:58.000   1112776.9459  -4341475.9071   4522955.8833   6   9   0.0001   0.0001   0.0001  -0.0000  -0.0000  -0.0000   0.00    0.0
2020/11/02 06:48:59.000   1112776.9459  -4341475.9071   4522955.8833   6   9   0.0001   0.0001   0.0001  -0.0000  -0.0000  -0.0000   0.00    0.0
2020/11/02 06:49:00.000   1112776.9459  -4341475.9071   4522955.8833   6   9   0.0001   0.0001   0.0001  -0.0000  -0.0000  -0.0000   0.00    0.0
2020/11/02 06:49:01.000   1112776.9459  -4341475.9071   4522955.8833   6   9   0.0001   0.0001   0.0001  -0.0000  -0.0000  -0.0000   0.00    0.0
2020/11/02 06:49:02.000   1112776.9459  -4341475.9071   4522955.8833   6   9   0.0001   0.0001   0.0001  -0.0000  -0.0000  -0.0000   0.00    0.0
2020/11/02 06:49:03.000   1112776.9444  -4341475.8945   4522955.8703   6   9   0.1345   0.2214   0.1875  -0.1500  -0.1645   0.1097   0.00    0.0
2020/11/02 06:49:04.000   1112776.9378  -4341475.8864   4522955.8691   6   9   0.1345   0.2213   0.1875  -0.1500  -0.1645   0.1097   0.00    0.0
2020/11/02 06:49:05.000   1112776.9482  -4341475.8933   4522955.8869   6   9   0.1345   0.2213   0.1875  -0.1500  -0.1645   0.1097   0.00    0.0
2020/11/02 06:49:06.000   1112776.9362  -4341475.8929   4522955.8863   6   9   0.1345   0.2213   0.1875  -0.1500  -0.1645   0.1097   0.00    0.0
2020/11/02 06:49:07.000   1112776.9338  -4341475.8902   4522955.8847   6   9   0.1345   0.2213   0.1875  -0.1500  -0.1645   0.1097   0.00    0.0
2020/11/02 06:49:08.000   1112776.9269  -4341475.8818   4522955.8792   6   9   0.1345   0.2212   0.1875  -0.1500  -0.1645   0.1097   0.00    0.0
2020/11/02 06:49:09.000   1112776.9327  -4341475.8889   4522955.8840   6   9   0.1345   0.2212   0.1875  -0.1500  -0.1645   0.1097   0.00    0.0
2020/11/02 06:49:10.000   1112776.9366  -4341475.8887   4522955.8788   6   9   0.1345   0.2212   0.1875  -0.1500  -0.1644   0.1097   0.00    0.0
2020/11/02 06:49:11.000   1112776.9429  -4341475.9011   4522955.8882   6   9   0.1346   0.2212   0.1875  -0.1500  -0.1644   0.1097   0.00    0.0
2020/11/02 06:49:12.000   1112776.9424  -4341475.8994   4522955.8860   6   9   0.1346   0.2211   0.1875  -0.1499  -0.1644   0.1097   0.00    0.0
2020/11/02 06:49:13.000   1112776.9335  -4341475.8918   4522955.8862   6   9   0.1346   0.2211   0.1875  -0.1499  -0.1644   0.1097   0.00    0.0
2020/11/02 06:49:14.000   1112776.9394  -4341475.9028   4522955.8997   6   9   0.1346   0.2211   0.1875  -0.1499  -0.1644   0.1097   0.00    0.0
2020/11/02 06:49:15.000   1112776.9366  -4341475.9070   4522955.9001   6   9   0.1346   0.2211   0.1875  -0.1499  -0.1644   0.1097   0.00    0.0
2020/11/02 06:49:16.000   1112776.9410  -4341475.9126   4522955.9013   6   9   0.1346   0.2210   0.1875  -0.1499  -0.1644   0.1097   0.00    0.0
2020/11/02 06:49:17.000   1112776.9352  -4341475.8922   4522955.8970   6   9   0.1346   0.2210   0.1875  -0.1499  -0.1644   0.1097   0.00    0.0
2020/11/02 06:49:18.000   1112776.9331  -4341475.9070   4522955.8989   6   9   0.1346   0.2210   0.1875  -0.1499  -0.1644   0.1097   0.00    0.0
2020/11/02 06:49:19.000   1112776.9280  -4341475.8959   4522955.8855   6   9   0.1346   0.2210   0.1875  -0.1499  -0.1643   0.1097   0.00    0.0
2020/11/02 06:49:20.000   1112776.9356  -4341475.9058   4522955.9027   6   9   0.1346   0.2210   0.1875  -0.1499  -0.1643   0.1097   0.00    0.0
2020/11/02 06:49:21.000   1112776.9372  -4341475.8992   4522955.8962   6   9   0.1346   0.2209   0.1875  -0.1499  -0.1643   0.1097   0.00    0.0
2020/11/02 06:49:22.000   1112776.9402  -4341475.9015   4522955.8975   6   9   0.1346   0.2209   0.1875  -0.1499  -0.1643   0.1097   0.00    0.0
2020/11/02 06:49:23.000   1112776.9414  -4341475.8991   4522955.8967   6   9   0.1346   0.2209   0.1875  -0.1499  -0.1643   0.1097   0.00    0.0
2020/11/02 06:49:24.000   1112776.9301  -4341475.8842   4522955.8900   6   9   0.1346   0.2209   0.1875  -0.1498  -0.1643   0.1097   0.00    0.0
2020/11/02 06:49:25.000   1112776.9396  -4341475.8885   4522955.8927   6   9   0.1346   0.2208   0.1875  -0.1498  -0.1643   0.1097   0.00    0.0
2020/11/02 06:49:26.000   1112776.9293  -4341475.8807   4522955.8818   6   9   0.1346   0.2208   0.1875  -0.1498  -0.1643   0.1097   0.00    0.0
2020/11/02 06:49:27.000   1112776.9375  -4341475.8996   4522955.8912   6   9   0.1346   0.2208   0.1875  -0.1498  -0.1643   0.1097   0.00    0.0
2020/11/02 06:49:28.000   1112776.9372  -4341475.8995   4522955.8976   6   9   0.1346   0.2208   0.1875  -0.1498  -0.1642   0.1097   0.00    0.0
2020/11/02 06:49:29.000   1112776.9327  -4341475.8884   4522955.8901   6   9   0.1346   0.2207   0.1875  -0.1498  -0.1642   0.1097   0.00    0.0
2020/11/02 06:49:30.000   1112776.9265  -4341475.8902   4522955.8877   6   9   0.1346   0.2207   0.1875  -0.1498  -0.1642   0.1097   0.00    0.0
2020/11/02 06:49:31.000   1112776.9244  -4341475.8891   4522955.8814   6   9   0.1346   0.2207   0.1875  -0.1498  -0.1642   0.1097   0.00    0.0
2020/11/02 06:49:32.000   1112776.9285  -4341475.8899   4522955.8838   6   9   0.1346   0.2207   0.1875  -0.1498  -0.1642   0.1097   0.00    0.0
2020/11/02 06:49:33.000   1112776.9236  -4341475.8783   4522955.8757   6   9   0.1346   0.2206   0.1875  -0.1498  -0.1642   0.1097   0.00    0.0
2020/11/02 06:49:34.000   1112776.9268  -4341475.8816   4522955.8799   6   9   0.1346   0.2206   0.1875  -0.1498  -0.1642   0.1097   0.00    0.0
2020/11/02 06:49:35.000   1112776.9293  -4341475.8923   4522955.8906   6   9   0.1346   0.2206   0.1875  -0.1498  -0.1642   0.1097   0.00    0.0
2020/11/02 06:49:36.000   1112776.9137  -4341475.8727   4522955.8788   6   9   0.1346   0.2206   0.1875  -0.1497  -0.1642   0.1097   0.00    0.0
2020/11/02 06:49:37.000   1112776.9128  -4341475.8647   4522955.8718   6  10   0.1346   0.2205   0.1874  -0.1497  -0.1641   0.1096   0.00    0.0
2020/11/02 06:49:38.000   1112776.9057  -4341475.8575   4522955.8722   6  10   0.1311   0.2172   0.1712  -0.1458  -0.1550   0.0985   0.00    0.0
2020/11/02 06:49:39.000   1112776.9459  -4341475.9071   4522955.8833   6  10   0.0001   0.0001   0.0001  -0.0000  -0.0000  -0.0000   0.00    0.0
2020/11/02 06:49:40.000   1112776.9459  -4341475.9071   4522955.8833   6  10   0.0001   0.0001   0.0001  -0.0000  -0.0000  -0.0000   0.00    0.0
2020/11/02 06:49:41.000   1112776.9459  -4341475.9071   4522955.8833   6  10   0.0001   0.0001   0.0001  -0.0000  -0.0000  -0.0000   0.00    0.0
2020/11/02 06:49:42.000   1112776.9459  -4341475.9071   4522955.8833   6  10   0.0001   0.0001   0.0001  -0.0000  -0.0000  -0.0000   0.00    0.0
2020/11/02 06:49:43.000   1112776.9122  -4341475.8595   4522955.8743   6  10   0.1278   0.2140   0.1557  -0.1421  -0.1466   0.0876   0.00    0.0
2020/11/02 06:49:44.000   1112776.9057  -4341475.8477   4522955.8790   6  10   0.1278   0.2139   0.1555  -0.1421  -0.1464   0.0874   0.00    0.0
2020/11/02 06:49:45.000   1112776.9072  -4341475.8553   4522955.8738   6  10   0.1277   0.2139   0.1553  -0.1420  -0.1463   0.0872   0.00    0.0
2020/11/02 06:49:46.000   1112776.9098  -4341475.8672   4522955.8854   6  10   0.1277   0.2138   0.1551  -0.1420  -0.1462   0.0871   0.00    0.0
2020/11/02 06:49:47.000   1112776.9052  -4341475.8533   4522955.8731   6  10   0.1277   0.2138   0.1549  -0.1419  -0.1461   0.0870   0.00    0.0
2020/11/02 06:49:48.000   1112776.9052  -4341475.8572   4522955.8749   6  10   0.1277   0.2137   0.1548  -0.1419  -0.1460   0.0869   0.00    0.0
2020/11/02 06:49:49.000   1112776.9083  -4341475.8564   4522955.8733   6  10   0.1276   0.2137   0.1547  -0.1419  -0.1460   0.0868   0.00    0.0
2020/11/02 06:49:50.000   1112776.9050  -4341475.8603   4522955.8771   6  10   0.1276   0.2136   0.1546  -0.1418  -0.1459   0.0867   0.00    0.0
2020/11/02 06:49:51.000   1112776.9060  -4341475.8621   4522955.8735   6  10   0.1276   0.2136   0.1545  -0.1418  -0.1459   0.0867   0.00    0.0
2020/11/02 06:49:52.000   1112776.9135  -4341475.8624   4522955.8824   6  10   0.1276   0.2136   0.1544  -0.1418  -0.1458   0.0866   0.00    0.0
2020/11/02 06:49:53.000   1112776.9134  -4341475.8766   4522955.8825   6  10   0.1276   0.2135   0.1544  -0.1418  -0.1458   0.0866   0.00    0.0
2020/11/02 06:49:54.000   1112776.9140  -4341475.8739   4522955.8885   6  10   0.1276   0.2135   0.1543  -0.1417  -0.1457   0.0865   0.00    0.0
2020/11/02 06:49:55.000   1112776.9112  -4341475.8722   4522955.8860   6  10   0.1276   0.2135   0.1542  -0.1417  -0.1457   0.0865   0.00    0.0
2020/11/02 06:49:56.000   1112776.9145  -4341475.8617   4522955.8740   6  10   0.1276   0.2134   0.1542  -0.1417  -0.1457   0.0864   0.00    0.0
2020/11/02 06:49:57.000   1112776.9168  -4341475.8726   4522955.8916   6  10   0.1276   0.2134   0.1541  -0.1417  -0.1456   0.0864   0.00    0.0
2020/11/02 06:49:58.000   1112776.9122  -4341475.8629   4522955.8859   6  10   0.1275   0.2134   0.1541  -0.1417  -0.1456   0.0864   0.00    0.0
2020/11/02 06:49:59.000   1112776.9138  -4341475.8614   4522955.8857   6  10   0.1275   0.2134   0.1541  -0.1417  -0.1456   0.0863   0.00    0.0
2020/11/02 06:50:00.000   1112776.9141  -4341475.8622   4522955.8768   6  10   0.1275   0.2133   0.1540  -0.1416  -0.1456   0.0863   0.00    0.0
2020/11/02 06:50:01.000   1112776.9085  -4341475.8533   4522955.8793   6  10   0.1275   0.2133   0.1540  -0.1416  -0.1455   0.0863   0.00    0.0
2020/11/02 06:50:02.000   1112776.9149  -4341475.8476   4522955.8774   6  10   0.1275   0.2133   0.1540  -0.1416  -0.1455   0.0863   0.00    0.0
2020/11/02 06:50:03.000   1112776.9170  -4341475.8524   4522955.8802   6  10   0.1275   0.2132   0.1539  -0.1416  -0.1455   0.0862   0.00    0.0
2020/11/02 06:50:04.000   1112776.9186  -4341475.8430   4522955.8647   6  10   0.1275   0.2132   0.1539  -0.1416  -0.1455   0.0862   0.00    0.0
2020/11/02 06:50:05.000   1112776.9249  -4341475.8569   4522955.8780   6  10   0.1275   0.2132   0.1539  -0.1416  -0.1454   0.0862   0.00    0.0
2020/11/02 06:50:06.000   1112776.9215  -4341475.8477   4522955.8727   6  10   0.1275   0.2132   0.1539  -0.1416  -0.1454   0.0862   0.00    0.0
2020/11/02 06:50:07.000   1112776.9199  -4341475.8439   4522955.8733   6  10   0.1275   0.2131   0.1539  -0.1416  -0.1454   0.0862   0.00    0.0
2020/11/02 06:50:08.000   1112776.9142  -4341475.8456   4522955.8766   6  10   0.1275   0.2131   0.1538  -0.1415  -0.1454   0.0862   0.00    0.0
2020/11/02 06:50:09.000   1112776.9184  -4341475.8430   4522955.8706   6  10   0.1275   0.2131   0.1538  -0.1415  -0.1454   0.0861   0.00    0.0
2020/11/02 06:50:10.000   1112776.9178  -4341475.8445   4522955.8731   6  10   0.1275   0.2131   0.1538  -0.1415  -0.1454   0.0861   0.00    0.0
2020/11/02 06:50:11.000   1112776.9215  -4341475.8468   4522955.8749   6  10   0.1275   0.2131   0.1538  -0.1415  -0.1454   0.0861   0.00    0.0
2020/11/02 06:50:12.000   1112776.9266  -4341475.8512   4522955.8822   6  10   0.1275   0.2130   0.1538  -0.1415  -0.1453   0.0861   0.00    0.0
2020/11/02 06:50:13.000   1112776.9273  -4341475.8544   4522955.8871   6  10   0.1275   0.2130   0.1538  -0.1415  -0.1453   0.0861   0.00    0.0
2020/11/02 06:50:14.000   1112776.9232  -4341475.8402   4522955.8777   6  10   0.1275   0.2130   0.1538  -0.1415  -0.1453   0.0861   0.00    0.0
2020/11/02 06:50:15.000   1112776.9194  -4341475.8412   4522955.8753   6  10   0.1275   0.2130   0.1538  -0.1415  -0.1453   0.0861   0.00    0.0
2020/11/02 06:50:16.000   1112776.9198  -4341475.8390   4522955.8670   6  10   0.1275   0.2129   0.1537  -0.1415  -0.1453   0.0861   0.00    0.0
2020/11/02 06:50:17.000   1112776.9219  -4341475.8418   4522955.8655   6  10   0.1275   0.2129   0.1537  -0.1415  -0.1453   0.0860   0.00    0.0
2020/11/02 06:50:18.000   1112776.9238  -4341475.8340   4522955.8678   6  10   0.1275   0.2129   0.1537  -0.1415  -0.1453   0.0860   0.00    0.0
2020/11/02 06:50:19.000   1112776.9241  -4341475.8456   4522955.8695   6  10   0.1275   0.2129   0.1537  -0.1414  -0.1453   0.0860   0.00    0.0
2020/11/02 06:50:20.000   1112776.9264  -4341475.8400   4522955.8707   6  10   0.1275   0.2129   0.1537  -0.1414  -0.1452   0.0860   0.00    0.0
2020/11/02 06:50:21.000   1112776.9250  -4341475.8306   4522955.8688   6  10   0.1275   0.2128   0.1537  -0.1414  -0.1452   0.0860   0.00    0.0
2020/11/02 06:50:22.000   1112776.9233  -4341475.8543   4522955.8812   6  10   0.1275   0.2128   0.1537  -0.1414  -0.1452   0.0860   0.00    0.0
2020/11/02 06:50:23.000   1112776.9221  -4341475.8474   4522955.8824   6  10   0.1275   0.2128   0.1537  -0.1414  -0.1452   0.0860   0.00    0.0
2020/11/02 06:50:24.000   1112776.9236  -4341475.8467   4522955.8806   6  10   0.1275   0.2128   0.1537  -0.1414  -0.1452   0.0860   0.00    0.0
2020/11/02 06:50:25.000   1112776.9327  -4341475.8662   4522955.8883   6  10   0.1275   0.2127   0.1537  -0.1414  -0.1452   0.0860   0.00    0.0
2020/11/02 06:50:26.000   1112776.9312  -4341475.8552   4522955.8763   6  10   0.1275   0.2127   0.1537  -0.1414  -0.1452   0.0860   0.00    0.0
2020/11/02 06:50:27.000   1112776.9339  -4341475.8699   4522955.8801   6  10   0.1275   0.2127   0.1537  -0.1414  -0.1452   0.0860   0.00    0.0
2020/11/02 06:50:28.000   1112776.9320  -4341475.8686   4522955.8851   6  10   0.1275   0.2127   0.1537  -0.1414  -0.1452   0.0860   0.00    0.0
2020/11/02 06:50:29.000   1112776.9291  -4341475.8609   4522955.8802   6  10   0.1275   0.2127   0.1537  -0.1414  -0.1452   0.0860   0.00    0.0
2020/11/02 06:50:30.000   1112776.9263  -4341475.8504   4522955.8717   6  10   0.1275   0.2126   0.1537  -0.1414  -0.1451   0.0860   0.00    0.0
2020/11/02 06:50:31.000   1112776.9300  -4341475.8605   4522955.8822   6  10   0.1275   0.2126   0.1537  -0.1414  -0.1451   0.0860   0.00    0.0
2020/11/02 06:50:32.000   1112776.9286  -4341475.8432   4522955.8745   6  10   0.1275   0.2126   0.1537  -0.1414  -0.1451   0.0860   0.00    0.0
2020/11/02 06:50:33.000   1112776.9320  -4341475.8512   4522955.8768   6  10   0.1275   0.2126   0.1537  -0.1413  -0.1451   0.0860   0.00    0.0
2020/11/02 06:50:34.000   1112776.9337  -4341475.8593   4522955.8778   6  10   0.1275   0.2126   0.1537  -0.1413  -0.1451   0.0859   0.00    0.0
2020/11/02 06:50:35.000   1112776.9321  -4341475.8627   4522955.8827   6  10   0.1275   0.2125   0.1537  -0.1413  -0.1451   0.0859   0.00    0.0
2020/11/02 06:50:36.000   1112776.9325  -4341475.8652   4522955.8806   6  10   0.1275   0.2125   0.1537  -0.1413  -0.1451   0.0859   0.00    0.0
2020/11/02 06:50:37.000   1112776.9406  -4341475.8757   4522955.8918   6  10   0.1275   0.2125   0.1537  -0.1413  -0.1451   0.0859   0.00    0.0
2020/11/02 06:50:38.000   1112776.9356  -4341475.8607   4522955.8872   6  10   0.1275   0.2125   0.1537  -0.1413  -0.1451   0.0859   0.00    0.0
2020/11/02 06:50:39.000   1112776.9462  -4341475.8687   4522955.8842   6  10   0.1275   0.2125   0.1537  -0.1413  -0.1451   0.0859   0.00    0.0
2020/11/02 06:50:40.000   1112776.9434  -4341475.8718   4522955.8820   6  10   0.1275   0.2124   0.1537  -0.1413  -0.1451   0.0859   0.00    0.0
2020/11/02 06:50:41.000   1112776.9459  -4341475.8754   4522955.8921   6  10   0.1275   0.2124   0.1537  -0.1413  -0.1451   0.0859   0.00    0.0
2020/11/02 06:50:42.000   1112776.9460  -4341475.8734   4522955.8914   6  10   0.1275   0.2124   0.1537  -0.1413  -0.1451   0.0859   0.00    0.0
2020/11/02 06:50:43.000   1112776.9423  -4341475.8697   4522955.8976   6  10   0.1275   0.2124   0.1537  -0.1413  -0.1450   0.0859   0.00    0.0
2020/11/02 06:50:44.000   1112776.9485  -4341475.8773   4522955.9007   6  10   0.1276   0.2124   0.1537  -0.1413  -0.1450   0.0859   0.00    0.0
2020/11/02 06:50:45.000   1112776.9502  -4341475.8781   4522955.8991   6  10   0.1276   0.2123   0.1537  -0.1413  -0.1450   0.0859   0.00    0.0
2020/11/02 06:50:46.000   1112776.9517  -4341475.8869   4522955.9040   6  10   0.1276   0.2123   0.1537  -0.1413  -0.1450   0.0859   0.00    0.0
2020/11/02 06:50:47.000   1112776.9443  -4341475.8739   4522955.8938   6  10   0.1276   0.2123   0.1537  -0.1412  -0.1450   0.0859   0.00    0.0
2020/11/02 06:50:48.000   1112776.9486  -4341475.8881   4522955.8935   6  10   0.1276   0.2123   0.1537  -0.1412  -0.1450   0.0859   0.00    0.0
2020/11/02 06:50:49.000   1112776.9460  -4341475.8841   4522955.9000   6  10   0.1276   0.2122   0.1537  -0.1412  -0.1450   0.0859   0.00    0.0
2020/11/02 06:50:50.000   1112776.9478  -4341475.8920   4522955.9015   6  10   0.1276   0.2122   0.1537  -0.1412  -0.1450   0.0859   0.00    0.0
2020/11/02 06:50:51.000   1112776.9433  -4341475.8889   4522955.9007   6  10   0.1276   0.2122   0.1537  -0.1412  -0.1450   0.0859   0.00    0.0
2020/11/02 06:50:52.000   1112776.9469  -4341475.8946   4522955.8995   6  10   0.1276   0.2122   0.1537  -0.1412  -0.1450   0.0859   0.00    0.0
2020/11/02 06:50:53.000   1112776.9410  -4341475.8913   4522955.9064   6  10   0.1276   0.2122   0.1537  -0.1412  -0.1450   0.0859   0.00    0.0
2020/11/02 06:50:54.000   1112776.9479  -4341475.9075   4522955.9107   6  10   0.1276   0.2121   0.1537  -0.1412  -0.1450   0.0859   0.00    0.0
2020/11/02 06:50:55.000   1112776.9548  -4341475.9112   4522955.9076   6  10   0.1276   0.2121   0.1537  -0.1412  -0.1450   0.0859   0.00    0.0
2020/11/02 06:50:56.000   1112776.9502  -4341475.9042   4522955.9111   6  10   0.1276   0.2121   0.1537  -0.1412  -0.1450   0.0859   0.00    0.0
2020/11/02 06:50:57.000   1112776.9520  -4341475.9109   4522955.9048   6  10   0.1276   0.2121   0.1537  -0.1412  -0.1450   0.0859   0.00    0.0
2020/11/02 06:50:58.000   1112776.9519  -4341475.9109   4522955.9116   6  10   0.1276   0.2121   0.1537  -0.1412  -0.1449   0.0859   0.00    0.0
2020/11/02 06:50:59.000   1112776.9480  -4341475.9115   4522955.9177   6  10   0.1276   0.2120   0.1537  -0.1412  -0.1449   0.0859   0.00    0.0
2020/11/02 06:51:00.000   1112776.9455  -4341475.9108   4522955.9217   6  10   0.1276   0.2120   0.1537  -0.1412  -0.1449   0.0859   0.00    0.0
2020/11/02 06:51:01.000   1112776.9493  -4341475.9210   4522955.9286   6  10   0.1276   0.2120   0.1537  -0.1412  -0.1449   0.0859   0.00    0.0
2020/11/02 06:51:02.000   1112776.9495  -4341475.9158   4522955.9168   6  10   0.1276   0.2120   0.1537  -0.1412  -0.1449   0.0859   0.00    0.0
2020/11/02 06:51:03.000   1112776.9478  -4341475.9181   4522955.9299   6  10   0.1276   0.2120   0.1537  -0.1411  -0.1449   0.0859   0.00    0.0
2020/11/02 06:51:04.000   1112776.9428  -4341475.9205   4522955.9392   6  10   0.1276   0.2119   0.1537  -0.1411  -0.1449   0.0859   0.00    0.0
2020/11/02 06:51:05.000   1112776.9457  -4341475.9228   4522955.9292   6  10   0.1276   0.2119   0.1537  -0.1411  -0.1449   0.0859   0.00    0.0
2020/11/02 06:51:06.000   1112776.9529  -4341475.9338   4522955.9355   6  10   0.1276   0.2119   0.1537  -0.1411  -0.1449   0.0859   0.00    0.0
2020/11/02 06:51:07.000   1112776.9517  -4341475.9269   4522955.9332   6  10   0.1276   0.2119   0.1537  -0.1411  -0.1449   0.0859   0.00    0.0
2020/11/02 06:51:08.000   1112776.9406  -4341475.9206   4522955.9341   6  10   0.1276   0.2119   0.1537  -0.1411  -0.1449   0.0859   0.00    0.0
2020/11/02 06:51:09.000   1112776.9441  -4341475.9323   4522955.9469   6  10   0.1276   0.2118   0.1537  -0.1411  -0.1449   0.0859   0.00    0.0
2020/11/02 06:51:10.000   1112776.9476  -4341475.9389   4522955.9517   6  10   0.1276   0.2118   0.1537  -0.1411  -0.1449   0.0859   0.00    0.0
2020/11/02 06:51:11.000   1112776.9467  -4341475.9400   4522955.9522   6  10   0.1276   0.2118   0.1537  -0.1411  -0.1449   0.0859   0.00    0.0
2020/11/02 06:51:12.000   1112776.9569  -4341475.9392   4522955.9474   6  10   0.1276   0.2118   0.1537  -0.1411  -0.1449   0.0859   0.00    0.0
2020/11/02 06:51:13.000   1112776.9588  -4341475.9370   4522955.9499   6  10   0.1276   0.2118   0.1537  -0.1411  -0.1449   0.0859   0.00    0.0
2020/11/02 06:51:14.000   1112776.9622  -4341475.9532   4522955.9545   6  10   0.1276   0.2117   0.1537  -0.1411  -0.1448   0.0859   0.00    0.0
2020/11/02 06:51:15.000   1112776.9629  -4341475.9409   4522955.9476   6  10   0.1276   0.2117   0.1537  -0.1411  -0.1448   0.0859   0.00    0.0
2020/11/02 06:51:16.000   1112776.9603  -4341475.9304   4522955.9450   6  10   0.1276   0.2117   0.1537  -0.1411  -0.1448   0.0859   0.00    0.0
2020/11/02 06:51:17.000   1112776.9510  -4341475.9106   4522955.9345   6  10   0.1276   0.2117   0.1537  -0.1411  -0.1448   0.0859   0.00    0.0
2020/11/02 06:51:18.000   1112776.9600  -4341475.9265   4522955.9458   6  10   0.1276   0.2117   0.1537  -0.1411  -0.1448   0.0859   0.00    0.0
2020/11/02 06:51:19.000   1112776.9736  -4341475.9326   4522955.9426   6  10   0.1276   0.2116   0.1537  -0.1411  -0.1448   0.0859   0.00    0.0
2020/11/02 06:51:20.000   1112776.9743  -4341475.9393   4522955.9539   6  10   0.1276   0.2116   0.1537  -0.1410  -0.1448   0.0859   0.00    0.0
2020/11/02 06:51:21.000   1112776.9838  -4341475.9481   4522955.9536   6  10   0.1276   0.2116   0.1538  -0.1410  -0.1448   0.0859   0.00    0.0
2020/11/02 06:51:22.000   1112776.9764  -4341475.9242   4522955.9310   6  10   0.1276   0.2116   0.1538  -0.1410  -0.1448   0.0859   0.00    0.0
2020/11/02 06:51:23.000   1112776.9773  -4341475.9275   4522955.9340   6  10   0.1276   0.2116   0.1538  -0.1410  -0.1448   0.0859   0.00    0.0
2020/11/02 06:51:24.000   1112776.9781  -4341475.9256   4522955.9390   6  10   0.1277   0.2115   0.1538  -0.1410  -0.1448   0.0859   0.00    0.0
2020/11/02 06:51:25.000   1112776.9895  -4341475.9377   4522955.9381   6  10   0.1277   0.2115   0.1538  -0.1410  -0.1448   0.0859   0.00    0.0
2020/11/02 06:51:26.000   1112776.9814  -4341475.9182   4522955.9356   6  10   0.1277   0.2115   0.1538  -0.1410  -0.1448   0.0859   0.00    0.0
2020/11/02 06:51:27.000   1112776.9790  -4341475.9113   4522955.9296   6  10   0.1277   0.2115   0.1538  -0.1410  -0.1448   0.0859   0.00    0.0
2020/11/02 06:51:28.000   1112776.9822  -4341475.9111   4522955.9251   6  10   0.1277   0.2115   0.1538  -0.1410  -0.1448   0.0859   0.00    0.0
2020/11/02 06:51:29.000   1112776.9766  -4341475.9020   4522955.9187   6  10   0.1277   0.2114   0.1538  -0.1410  -0.1448   0.0859   0.00    0.0
2020/11/02 06:51:30.000   1112776.9773  -4341475.9031   4522955.9183   6  10   0.1277   0.2114   0.1538  -0.1410  -0.1448   0.0859   0.00    0.0
2020/11/02 06:51:31.000   1112776.9772  -4341475.8926   4522955.9156   6  10   0.1277   0.2114   0.1538  -0.1410  -0.1447   0.0859   0.00    0.0
2020/11/02 06:51:32.000   1112776.9780  -4341475.8858   4522955.9084   6  10   0.1277   0.2114   0.1538  -0.1410  -0.1447   0.0859   0.00    0.0
2020/11/02 06:51:33.000   1112776.9770  -4341475.8959   4522955.9130   6  10   0.1277   0.2113   0.1538  -0.1410  -0.1447   0.0859   0.00    0.0
2020/11/02 06:51:34.000   1112776.9761  -4341475.8989   4522955.9158   6  10   0.1277   0.2113   0.1538  -0.1410  -0.1447   0.0859   0.00    0.0
2020/11/02 06:51:35.000   1112776.9819  -4341475.9074   4522955.9199   6  10   0.1277   0.2113   0.1538  -0.1410  -0.1447   0.0859   0.00    0.0
2020/11/02 06:51:36.000   1112776.9751  -4341475.8868   4522955.9145   6  10   0.1277   0.2113   0.1538  -0.1410  -0.1447   0.0859   0.00    0.0
2020/11/02 06:51:37.000   1112776.9802  -4341475.8980   4522955.9203   6  10   0.1277   0.2113   0.1538  -0.1409  -0.1447   0.0859   0.00    0.0
2020/11/02 06:51:38.000   1112776.9805  -4341475.8885   4522955.9101   6  10   0.1277   0.2112   0.1538  -0.1409  -0.1447   0.0859   0.00    0.0
2020/11/02 06:51:39.000   1112776.9772  -4341475.8909   4522955.9145   6  10   0.1277   0.2112   0.1538  -0.1409  -0.1447   0.0859   0.00    0.0
2020/11/02 06:51:40.000   1112776.9738  -4341475.8768   4522955.8967   6  10   0.1277   0.2112   0.1538  -0.1409  -0.1447   0.0859   0.00    0.0
2020/11/02 06:51:41.000   1112776.9768  -4341475.8771   4522955.9002   6  10   0.1277   0.2112   0.1538  -0.1409  -0.1447   0.0859   0.00    0.0
2020/11/02 06:51:42.000   1112776.9750  -4341475.8878   4522955.9056   6  10   0.1277   0.2112   0.1538  -0.1409  -0.1447   0.0859   0.00    0.0
2020/11/02 06:51:43.000   1112776.9673  -4341475.8667   4522955.8908   6  10   0.1277   0.2111   0.1538  -0.1409  -0.1447   0.0859   0.00    0.0
2020/11/02 06:51:44.000   1112776.9680  -4341475.8753   4522955.9033   6  10   0.1277   0.2111   0.1538  -0.1409  -0.1447   0.0859   0.00    0.0
2020/11/02 06:51:45.000   1112776.9710  -4341475.8762   4522955.9051   6  10   0.1277   0.2111   0.1538  -0.1409  -0.1447   0.0859   0.00    0.0
2020/11/02 06:51:46.000   1112776.9750  -4341475.8823   4522955.9022   6  10   0.1277   0.2111   0.1538  -0.1409  -0.1447   0.0858   0.00    0.0
2020/11/02 06:51:47.000   1112776.9650  -4341475.8797   4522955.8998   6  10   0.1277   0.2111   0.1538  -0.1409  -0.1447   0.0858   0.00    0.0
2020/11/02 06:51:48.000   1112776.9627  -4341475.8736   4522955.8989   6  10   0.1277   0.2110   0.1539  -0.1409  -0.1446   0.0858   0.00    0.0
2020/11/02 06:51:49.000   1112776.9612  -4341475.8754   4522955.9009   6  10   0.1277   0.2110   0.1539  -0.1409  -0.1446   0.0858   0.00    0.0
2020/11/02 06:51:50.000   1112776.9605  -4341475.8830   4522955.9058   6  10   0.1277   0.2110   0.1539  -0.1409  -0.1446   0.0858   0.00    0.0
2020/11/02 06:51:51.000   1112776.9601  -4341475.8755   4522955.9017   6  10   0.1277   0.2110   0.1539  -0.1409  -0.1446   0.0858   0.00    0.0
2020/11/02 06:51:52.000   1112776.9570  -4341475.8804   4522955.9049   6  10   0.1277   0.2110   0.1539  -0.1409  -0.1446   0.0858   0.00    0.0
2020/11/02 06:51:53.000   1112776.9532  -4341475.8880   4522955.9132   6  10   0.1277   0.2109   0.1539  -0.1409  -0.1446   0.0858   0.00    0.0
2020/11/02 06:51:54.000   1112776.9520  -4341475.8809   4522955.9088   6  10   0.1277   0.2109   0.1539  -0.1408  -0.1446   0.0858   0.00    0.0
2020/11/02 06:51:55.000   1112776.9548  -4341475.8754   4522955.9060   6  10   0.1277   0.2109   0.1539  -0.1408  -0.1446   0.0858   0.00    0.0
2020/11/02 06:51:56.000   1112776.9590  -4341475.8855   4522955.9175   6  10   0.1277   0.2109   0.1539  -0.1408  -0.1446   0.0858   0.00    0.0
2020/11/02 06:51:57.000   1112776.9552  -4341475.8890   4522955.9174   6  10   0.1277   0.2109   0.1539  -0.1408  -0.1446   0.0858   0.00    0.0
2020/11/02 06:51:58.000   1112776.9536  -4341475.8932   4522955.9261   6  10   0.1277   0.2108   0.1539  -0.1408  -0.1446   0.0858   0.00    0.0
2020/11/02 06:51:59.000   1112776.9489  -4341475.8895   4522955.9243   6  10   0.1277   0.2108   0.1539  -0.1408  -0.1446   0.0858   0.00    0.0
2020/11/02 06:52:00.000   1112776.9489  -4341475.8865   4522955.9271   6  10   0.1278   0.2108   0.1539  -0.1408  -0.1446   0.0858   0.00    0.0
2020/11/02 06:52:01.000   1112776.9479  -4341475.8821   4522955.9241   6  10   0.1278   0.2108   0.1539  -0.1408  -0.1446   0.0858   0.00    0.0
2020/11/02 06:52:02.000   1112776.9482  -4341475.8970   4522955.9302   6  10   0.1278   0.2108   0.1539  -0.1408  -0.1446   0.0858   0.00    0.0
2020/11/02 06:52:03.000   1112776.9490  -4341475.8957   4522955.9260   6  10   0.1278   0.2107   0.1539  -0.1408  -0.1446   0.0858   0.00    0.0
2020/11/02 06:52:04.000   1112776.9435  -4341475.8951   4522955.9318   6  10   0.1278   0.2107   0.1539  -0.1408  -0.1446   0.0858   0.00    0.0
2020/11/02 06:52:05.000   1112776.9328  -4341475.8743   4522955.9137   6  10   0.1278   0.2107   0.1539  -0.1408  -0.1446   0.0858   0.00    0.0
2020/11/02 06:52:06.000   1112776.9433  -4341475.8947   4522955.9272   6  10   0.1278   0.2107   0.1539  -0.1408  -0.1445   0.0858   0.00    0.0
2020/11/02 06:52:07.000   1112776.9361  -4341475.8903   4522955.9242   6  10   0.1278   0.2107   0.1539  -0.1408  -0.1445   0.0858   0.00    0.0
2020/11/02 06:52:08.000   1112776.9398  -4341475.8924   4522955.9281   6  10   0.1278   0.2106   0.1539  -0.1408  -0.1445   0.0858   0.00    0.0
2020/11/02 06:52:09.000   1112776.9436  -4341475.8987   4522955.9234   6  10   0.1278   0.2106   0.1539  -0.1408  -0.1445   0.0858   0.00    0.0
2020/11/02 06:52:10.000   1112776.9382  -4341475.8864   4522955.9173   6  10   0.1278   0.2106   0.1539  -0.1407  -0.1445   0.0858   0.00    0.0
2020/11/02 06:52:11.000   1112776.9427  -4341475.9036   4522955.9294   6  10   0.1278   0.2106   0.1539  -0.1407  -0.1445   0.0858   0.00    0.0
2020/11/02 06:52:12.000   1112776.9470  -4341475.9045   4522955.9309   6  10   0.1278   0.2106   0.1539  -0.1407  -0.1445   0.0858   0.00    0.0
2020/11/02 06:52:13.000   1112776.9481  -4341475.9110   4522955.9298   6  10   0.1278   0.2105   0.1540  -0.1407  -0.1445   0.0858   0.00    0.0
2020/11/02 06:52:14.000   1112776.9473  -4341475.9075   4522955.9201   6  10   0.1278   0.2105   0.1540  -0.1407  -0.1445   0.0858   0.00    0.0
2020/11/02 06:52:15.000   1112776.9422  -4341475.8971   4522955.9233   6  10   0.1278   0.2105   0.1540  -0.1407  -0.1445   0.0858   0.00    0.0
2020/11/02 06:52:16.000   1112776.9490  -4341475.9042   4522955.9232   6  10   0.1278   0.2105   0.1540  -0.1407  -0.1445   0.0858   0.00    0.0
2020/11/02 06:52:17.000   1112776.9453  -4341475.8962   4522955.9122   6  10   0.1278   0.2104   0.1540  -0.1407  -0.1445   0.0858   0.00    0.0
2020/11/02 06:52:18.000   1112776.9385  -4341475.8940   4522955.9127   6  10   0.1278   0.2104   0.1540  -0.1407  -0.1445   0.0858   0.00    0.0
2020/11/02 06:52:19.000   1112776.9386  -4341475.8953   4522955.9162   6  10   0.1278   0.2104   0.1540  -0.1407  -0.1445   0.0858   0.00    0.0
2020/11/02 06:52:20.000   1112776.9397  -4341475.9101   4522955.9207   6  10   0.1278   0.2104   0.1540  -0.1407  -0.1445   0.0858   0.00    0.0
2020/11/02 06:52:21.000   1112776.9417  -4341475.9043   4522955.9155   6  10   0.1278   0.2104   0.1540  -0.1407  -0.1445   0.0858   0.00    0.0
2020/11/02 06:52:22.000   1112776.9460  -4341475.9008   4522955.9196   6  10   0.1278   0.2103   0.1540  -0.1407  -0.1445   0.0858   0.00    0.0
2020/11/02 06:52:23.000   1112776.9408  -4341475.9045   4522955.9222   6  10   0.1278   0.2103   0.1540  -0.1407  -0.1444   0.0858   0.00    0.0
2020/11/02 06:52:24.000   1112776.9451  -4341475.8896   4522955.9081   6  10   0.1278   0.2103   0.1540  -0.1407  -0.1444   0.0858   0.00    0.0
2020/11/02 06:52:25.000   1112776.9499  -4341475.9054   4522955.9162   6  10   0.1278   0.2103   0.1540  -0.1407  -0.1444   0.0858   0.00    0.0
2020/11/02 06:52:26.000   1112776.9469  -4341475.8970   4522955.9103   6  10   0.1278   0.2103   0.1540  -0.1407  -0.1444   0.0858   0.00    0.0
2020/11/02 06:52:27.000   1112776.9489  -4341475.8942   4522955.9043   6  10   0.1278   0.2102   0.1540  -0.1406  -0.1444   0.0858   0.00    0.0
2020/11/02 06:52:28.000   1112776.9561  -4341475.8969   4522955.8980   6  10   0.1278   0.2102   0.1540  -0.1406  -0.1444   0.0858   0.00    0.0
2020/11/02 06:52:29.000   1112776.9582  -4341475.8930   4522955.9018   6  10   0.1278   0.2102   0.1540  -0.1406  -0.1444   0.0858   0.00    0.0
2020/11/02 06:52:30.000   1112776.9621  -4341475.9117   4522955.9036   6  10   0.1278   0.2102   0.1540  -0.1406  -0.1444   0.0858   0.00    0.0
2020/11/02 06:52:31.000   1112776.9621  -4341475.9098   4522955.9167   6  10   0.1278   0.2102   0.1540  -0.1406  -0.1444   0.0858   0.00    0.0
2020/11/02 06:52:32.000   1112776.9597  -4341475.9058   4522955.9115   6  10   0.1278   0.2101   0.1540  -0.1406  -0.1444   0.0858   0.00    0.0
2020/11/02 06:52:33.000   1112776.9477  -4341475.8838   4522955.9027   6  10   0.1278   0.2101   0.1540  -0.1406  -0.1444   0.0858   0.00    0.0
2020/11/02 06:52:34.000   1112776.9603  -4341475.8994   4522955.9115   6  10   0.1278   0.2101   0.1540  -0.1406  -0.1444   0.0858   0.00    0.0
2020/11/02 06:52:35.000   1112776.9550  -4341475.8868   4522955.9043   6  10   0.1279   0.2101   0.1540  -0.1406  -0.1444   0.0858   0.00    0.0
2020/11/02 06:52:36.000   1112776.9566  -4341475.8940   4522955.8995   6  10   0.1279   0.2101   0.1540  -0.1406  -0.1444   0.0858   0.00    0.0
2020/11/02 06:52:37.000   1112776.9572  -4341475.8942   4522955.9065   6  10   0.1279   0.2100   0.1541  -0.1406  -0.1444   0.0858   0.00    0.0
2020/11/02 06:52:38.000   1112776.9505  -4341475.8730   4522955.8947   6  10   0.1279   0.2100   0.1541  -0.1406  -0.1444   0.0858   0.00    0.0
2020/11/02 06:52:39.000   1112776.9570  -4341475.8818   4522955.8947   6  10   0.1279   0.2100   0.1541  -0.1406  -0.1444   0.0858   0.00    0.0
2020/11/02 06:52:40.000   1112776.9561  -4341475.8857   4522955.9059   6  10   0.1279   0.2100   0.1541  -0.1406  -0.1443   0.0858   0.00    0.0
2020/11/02 06:52:41.000   1112776.9618  -4341475.8867   4522955.9028   6  10   0.1279   0.2100   0.1541  -0.1406  -0.1443   0.0858   0.00    0.0
2020/11/02 06:52:42.000   1112776.9600  -4341475.8914   4522955.9067   6  10   0.1279   0.2099   0.1541  -0.1406  -0.1443   0.0858   0.00    0.0
2020/11/02 06:52:43.000   1112776.9537  -4341475.8766   4522955.8999   6  10   0.1279   0.2099   0.1541  -0.1406  -0.1443   0.0858   0.00    0.0
2020/11/02 06:52:44.000   1112776.9508  -4341475.8811   4522955.8978   6  10   0.1279   0.2099   0.1541  -0.1405  -0.1443   0.0858   0.00    0.0
2020/11/02 06:52:45.000   1112776.9563  -4341475.8789   4522955.9010   6  10   0.1279   0.2099   0.1541  -0.1405  -0.1443   0.0858   0.00    0.0
2020/11/02 06:52:46.000   1112776.9596  -4341475.8835   4522955.9063   6  10   0.1279   0.2098   0.1541  -0.1405  -0.1443   0.0858   0.00    0.0
2020/11/02 06:52:47.000   1112776.9573  -4341475.8856   4522955.9092   6  10   0.1279   0.2098   0.1541  -0.1405  -0.1443   0.0858   0.00    0.0
2020/11/02 06:52:48.000   1112776.9601  -4341475.8780   4522955.9004   6  10   0.1279   0.2098   0.1541  -0.1405  -0.1443   0.0858   0.00    0.0
2020/11/02 06:52:49.000   1112776.9609  -4341475.8907   4522955.9110   6  10   0.1279   0.2098   0.1541  -0.1405  -0.1443   0.0858   0.00    0.0
2020/11/02 06:52:50.000   1112776.9630  -4341475.8897   4522955.9159   6  10   0.1279   0.2098   0.1541  -0.1405  -0.1443   0.0858   0.00    0.0
2020/11/02 06:52:51.000   1112776.9616  -4341475.8856   4522955.9131   6  10   0.1279   0.2097   0.1541  -0.1405  -0.1443   0.0858   0.00    0.0
2020/11/02 06:52:52.000   1112776.9486  -4341475.8802   4522955.9350   6  10   0.1279   0.2097   0.1541  -0.1405  -0.1443   0.0858   0.00    0.0
2020/11/02 06:52:53.000   1112776.9495  -4341475.8816   4522955.9391   6  10   0.1279   0.2097   0.1541  -0.1405  -0.1443   0.0858   0.00    0.0
2020/11/02 06:52:54.000   1112776.9526  -4341475.8807   4522955.9321   6  10   0.1279   0.2097   0.1541  -0.1405  -0.1443   0.0858   0.00    0.0
2020/11/02 06:52:55.000   1112776.9448  -4341475.8876   4522955.9366   6  10   0.1279   0.2097   0.1541  -0.1405  -0.1443   0.0858   0.00    0.0
2020/11/02 06:52:56.000   1112776.9566  -4341475.8921   4522955.9378   6  10   0.1279   0.2096   0.1541  -0.1405  -0.1443   0.0858   0.00    0.0
2020/11/02 06:52:57.000   1112776.9599  -4341475.8885   4522955.9094   6  10   0.1279   0.2096   0.1541  -0.1405  -0.1442   0.0858   0.00    0.0
2020/11/02 06:52:58.000   1112776.9563  -4341475.8862   4522955.9091   6  10   0.1279   0.2096   0.1541  -0.1405  -0.1442   0.0858   0.00    0.0
2020/11/02 06:52:59.000   1112776.9462  -4341475.8708   4522955.9004   6  10   0.1279   0.2096   0.1541  -0.1405  -0.1442   0.0858   0.00    0.0
2020/11/02 06:53:00.000   1112776.9600  -4341475.8833   4522955.9041   6  10   0.1279   0.2096   0.1541  -0.1405  -0.1442   0.0858   0.00    0.0
2020/11/02 06:53:01.000   1112776.9594  -4341475.8895   4522955.9062   6  10   0.1279   0.2095   0.1541  -0.1404  -0.1442   0.0858   0.00    0.0
2020/11/02 06:53:02.000   1112776.9513  -4341475.8782   4522955.9083   6  10   0.1279   0.2095   0.1542  -0.1404  -0.1442   0.0858   0.00    0.0
2020/11/02 06:53:03.000   1112776.9437  -4341475.8724   4522955.9066   6  10   0.1279   0.2095   0.1542  -0.1404  -0.1442   0.0858   0.00    0.0
2020/11/02 06:53:04.000   1112776.9502  -4341475.8743   4522955.9038   6  10   0.1279   0.2095   0.1542  -0.1404  -0.1442   0.0858   0.00    0.0
2020/11/02 06:53:05.000   1112776.9528  -4341475.8821   4522955.9049   6  10   0.1279   0.2095   0.1542  -0.1404  -0.1442   0.0858   0.00    0.0
2020/11/02 06:53:06.000   1112776.9478  -4341475.8769   4522955.9047   6  10   0.1279   0.2094   0.1542  -0.1404  -0.1442   0.0858   0.00    0.0
2020/11/02 06:53:07.000   1112776.9470  -4341475.8743   4522955.9106   6  10   0.1279   0.2094   0.1542  -0.1404  -0.1442   0.0858   0.00    0.0
2020/11/02 06:53:08.000   1112776.9563  -4341475.8953   4522955.9152   6  10   0.1279   0.2094   0.1542  -0.1404  -0.1442   0.0858   0.00    0.0
2020/11/02 06:53:09.000   1112776.9491  -4341475.8784   4522955.9094   6  10   0.1280   0.2094   0.1542  -0.1404  -0.1442   0.0858   0.00    0.0
2020/11/02 06:53:10.000   1112776.9547  -4341475.8866   4522955.9136   6  10   0.1280   0.2093   0.1542  -0.1404  -0.1442   0.0858   0.00    0.0
2020/11/02 06:53:11.000   1112776.9544  -4341475.8934   4522955.9040   6  10   0.1280   0.2093   0.1542  -0.1404  -0.1442   0.0858   0.00    0.0
2020/11/02 06:53:12.000   1112776.9495  -4341475.8850   4522955.9110   6  10   0.1280   0.2093   0.1542  -0.1404  -0.1442   0.0858   0.00    0.0
2020/11/02 06:53:13.000   1112776.9517  -4341475.8929   4522955.9086   6  10   0.1280   0.2093   0.1542  -0.1404  -0.1442   0.0858   0.00    0.0
2020/11/02 06:53:14.000   1112776.9500  -4341475.8940   4522955.9096   6  10   0.1280   0.2093   0.1542  -0.1404  -0.1441   0.0858   0.00    0.0
2020/11/02 06:53:15.000   1112776.9560  -4341475.9059   4522955.9153   6  10   0.1280   0.2092   0.1542  -0.1404  -0.1441   0.0858   0.00    0.0
2020/11/02 06:53:16.000   1112776.9608  -4341475.9062   4522955.9104   6  10   0.1280   0.2092   0.1542  -0.1404  -0.1441   0.0858   0.00    0.0
2020/11/02 06:53:17.000   1112776.9610  -4341475.9147   4522955.9161   6  10   0.1280   0.2092   0.1542  -0.1403  -0.1441   0.0858   0.00    0.0
2020/11/02 06:53:18.000   1112776.9635  -4341475.9141   4522955.9132   6  10   0.1280   0.2092   0.1542  -0.1403  -0.1441   0.0858   0.00    0.0
2020/11/02 06:53:19.000   1112776.9530  -4341475.8975   4522955.9097   6  10   0.1280   0.2092   0.1542  -0.1403  -0.1441   0.0858   0.00    0.0
2020/11/02 06:53:20.000   1112776.9516  -4341475.9081   4522955.9204   6  10   0.1280   0.2091   0.1542  -0.1403  -0.1441   0.0858   0.00    0.0
2020/11/02 06:53:21.000   1112776.9604  -4341475.9181   4522955.9240   6  10   0.1280   0.2091   0.1542  -0.1403  -0.1441   0.0858   0.00    0.0
2020/11/02 06:53:22.000   1112776.9560  -4341475.9110   4522955.9194   6  10   0.1280   0.2091   0.1542  -0.1403  -0.1441   0.0858   0.00    0.0
2020/11/02 06:53:23.000   1112776.9541  -4341475.9104   4522955.9226   6  10   0.1280   0.2091   0.1542  -0.1403  -0.1441   0.0858   0.00    0.0
2020/11/02 06:53:24.000   1112776.9684  -4341475.9265   4522955.9317   6  10   0.1280   0.2091   0.1542  -0.1403  -0.1441   0.0858   0.00    0.0
2020/11/02 06:53:25.000   1112776.9615  -4341475.9185   4522955.9373   6  10   0.1280   0.2090   0.1542  -0.1403  -0.1441   0.0858   0.00    0.0
2020/11/02 06:53:26.000   1112776.9665  -4341475.9169   4522955.9322   6  10   0.1280   0.2090   0.1542  -0.1403  -0.1441   0.0858   0.00    0.0
2020/11/02 06:53:27.000   1112776.9586  -4341475.9108   4522955.9336   6  10   0.1280   0.2090   0.1543  -0.1403  -0.1441   0.0858   0.00    0.0
2020/11/02 06:53:28.000   1112776.9632  -4341475.9186   4522955.9308   6  10   0.1280   0.2090   0.1543  -0.1403  -0.1441   0.0858   0.00    0.0
2020/11/02 06:53:29.000   1112776.9668  -4341475.9311   4522955.9443   6  10   0.1280   0.2089   0.1543  -0.1403  -0.1441   0.0858   0.00    0.0
2020/11/02 06:53:30.000   1112776.9736  -4341475.9306   4522955.9396   6  10   0.1280   0.2089   0.1543  -0.1403  -0.1440   0.0858   0.00    0.0
2020/11/02 06:53:31.000   1112776.9608  -4341475.9214   4522955.9330   6  10   0.1280   0.2089   0.1543  -0.1403  -0.1440   0.0858   0.00    0.0
2020/11/02 06:53:32.000   1112776.9689  -4341475.9333   4522955.9490   6  10   0.1280   0.2089   0.1543  -0.1403  -0.1440   0.0858   0.00    0.0
2020/11/02 06:53:33.000   1112776.9683  -4341475.9265   4522955.9394   6  10   0.1280   0.2089   0.1543  -0.1403  -0.1440   0.0858   0.00    0.0
