%  GPST                      x-ecef(m)      y-ecef(m)      z-ecef(m)   Q  ns   sdx(m)   sdy(m)   sdz(m)  sdxy(m)  sdyz(m)  sdzx(m) age(s)  ratio
2020/11/02 08:27:52.000   1112776.9459  -4341475.9071   4522955.8833   6   8   0.0001   0.0001   0.0001  -0.0000  -0.0000   0.0000   0.00    0.0
2020/11/02 08:27:53.000   1112776.9459  -4341475.9071   4522955.8833   6   8   0.0001   0.0001   0.0001  -0.0000  -0.0000  -0.0000   0.00    0.0
2020/11/02 08:27:54.000   1112776.9459  -4341475.9071   4522955.8833   6   8   0.0001   0.0001   0.0001  -0.0000  -0.0000  -0.0000   0.00    0.0
2020/11/02 08:27:55.000   1112776.9459  -4341475.9071   4522955.8833   6   8   0.0001   0.0001   0.0001  -0.0000  -0.0000  -0.0000   0.00    0.0
2020/11/02 08:27:56.000   1112776.9459  -4341475.9071   4522955.8833   6   8   0.0001   0.0001   0.0001  -0.0000  -0.0000  -0.0000   0.00    0.0
2020/11/02 08:27:57.000   1112776.9459  -4341475.9071   4522955.8833   6   8   0.0001   0.0001   0.0001  -0.0000  -0.0000  -0.0000   0.00    0.0
2020/11/02 08:27:58.000   1112776.9459  -4341475.9071   4522955.8833   6   8   0.0001   0.0001   0.0001  -0.0000  -0.0000  -0.0000   0.00    0.0
2020/11/02 08:27:59.000   1112776.9459  -4341475.9071   4522955.8833   6   8   0.0001   0.0001   0.0001  -0.0000  -0.0000  -0.0000   0.00    0.0
2020/11/02 08:28:00.000   1112776.9459  -4341475.9071   4522955.8833   6   8   0.0001   0.0001   0.0001  -0.0000  -0.0000  -0.0000   0.00    0.0
2020/11/02 08:28:01.000   1112776.9459  -4341475.9071   4522955.8833   6   8   0.0001   0.0001   0.0001  -0.0000  -0.0000  -0.0000   0.00    0.0
2020/11/02 08:28:02.000   1112776.9459  -4341475.9071   4522955.8833   6   8   0.0001   0.0001   0.0001  -0.0000  -0.0000  -0.0000   0.00    0.0
2020/11/02 08:28:03.000   1112776.9459  -4341475.9071   4522955.8833   6   8   0.0001   0.0001   0.0001  -0.0000  -0.0000  -0.0000   0.00    0.0
2020/11/02 08:28:04.000   1112776.9459  -4341475.9071   4522955.8833   6   8   0.0001   0.0001   0.0001  -0.0000  -0.0000  -0.0000   0.00    0.0
2020/11/02 08:28:05.000   1112776.9459  -4341475.9071   4522955.8833   6   8   0.0001   0.0001   0.0001  -0.0000  -0.0000  -0.0000   0.00    0.0
2020/11/02 08:28:06.000   1112776.9459  -4341475.9071   4522955.8833   6   8   0.0001   0.0001   0.0001  -0.0000  -0.0000  -0.0000   0.00    0.0
2020/11/02 08:28:07.000   1112776.9459  -4341475.9071   4522955.8833   6   8   0.0001   0.0001   0.0001  -0.0000  -0.0000  -0.0000   0.00    0.0
2020/11/02 08:28:08.000   1112776.9459  -4341475.9071   4522955.8833   6   8   0.0001   0.0001   0.0001  -0.0000  -0.0000  -0.0000   0.00    0.0
2020/11/02 08:28:09.000   1112776.9459  -4341475.9071   4522955.8833   6   8   0.0001   0.0001   0.0001  -0.0000  -0.0000  -0.0000   0.00    0.0
2020/11/02 08:28:10.000   1112776.9459  -4341475.9071   4522955.8833   6   8   0.0001   0.0001   0.0001  -0.0000  -0.0000  -0.0000   0.00    0.0
2020/11/02 08:28:11.000   1112776.9459  -4341475.9071   4522955.8833   6   8   0.0001   0.0001   0.0001  -0.0000  -0.0000  -0.0000   0.00    0.0
2020/11/02 08:28:12.000   1112776.9459  -4341475.9071   4522955.8833   6   8   0.0001   0.0001   0.0001  -0.0000  -0.0000  -0.0000   0.00    0.0
2020/11/02 08:28:13.000   1112776.9459  -4341475.9071   4522955.8833   6   8   0.0001   0.0001   0.0001  -0.0000  -0.0000  -0.0000   0.00    0.0
2020/11/02 08:28:14.000   1112776.9459  -4341475.9071   4522955.8833   6   8   0.0001   0.0001   0.0001  -0.0000  -0.0000  -0.0000   0.00    0.0
2020/11/02 08:28:15.000   1112776.9459  -4341475.9071   4522955.8833   6   8   0.0001   0.0001   0.0001  -0.0000  -0.0000  -0.0000   0.00    0.0
2020/11/02 08:28:16.000   1112776.9459  -4341475.9071   4522955.8833   6   8   0.0001   0.0001   0.0001  -0.0000  -0.0000  -0.0000   0.00    0.0
2020/11/02 08:28:17.000   1112776.9459  -4341475.9071   4522955.8833   6   8   0.0001   0.0001   0.0001  -0.0000  -0.0000  -0.0000   0.00    0.0
2020/11/02 08:28:18.000   1112776.9459  -4341475.9071   4522955.8833   6   8   0.0001   0.0001   0.0001  -0.0000  -0.0000  -0.0000   0.00    0.0
2020/11/02 08:28:19.000   1112776.9459  -4341475.9071   4522955.8833   6   8   0.0001   0.0001   0.0001  -0.0000  -0.0000  -0.0000   0.00    0.0
2020/11/02 08:28:20.000   1112776.9459  -4341475.9071   4522955.8833   6   8   0.0001   0.0001   0.0001  -0.0000  -0.0000  -0.0000   0.00    0.0
2020/11/02 08:28:21.000   1112776.9459  -4341475.9071   4522955.8833   6   8   0.0001   0.0001   0.0001  -0.0000  -0.0000  -0.0000   0.00    0.0
2020/11/02 08:28:22.000   1112776.9459  -4341475.9071   4522955.8833   6   8   0.0001   0.0001   0.0001  -0.0000  -0.0000  -0.0000   0.00    0.0
2020/11/02 08:28:23.000   1112776.9459  -4341475.9071   4522955.8833   6   8   0.0001   0.0001   0.0001  -0.0000  -0.0000  -0.0000   0.00    0.0
2020/11/02 08:28:24.000   1112776.9518  -4341475.8890   4522955.8069   6   8   0.1147   0.1424   0.2592  -0.0852  -0.1283   0.0657   0.00    0.0
2020/11/02 08:28:25.000   1112776.9539  -4341475.8878   4522955.8209   6   8   0.1147   0.1424   0.2591  -0.0852  -0.1283   0.0656   0.00    0.0
2020/11/02 08:28:26.000   1112776.9540  -4341475.8881   4522955.8307   6   8   0.1147   0.1424   0.2591  -0.0852  -0.1282   0.0656   0.00    0.0
2020/11/02 08:28:27.000   1112776.9691  -4341475.8946   4522955.8381   6   8   0.1147   0.1424   0.2590  -0.0852  -0.1282   0.0656   0.00    0.0
2020/11/02 08:28:28.000   1112776.9687  -4341475.9031   4522955.8498   6   8   0.1147   0.1424   0.2590  -0.0852  -0.1282   0.0656   0.00    0.0
2020/11/02 08:28:29.000   1112776.9673  -4341475.9034   4522955.8343   6   8   0.1147   0.1424   0.2589  -0.0852  -0.1281   0.0655   0.00    0.0
2020/11/02 08:28:30.000   1112776.9701  -4341475.9000   4522955.8335   6   8   0.1147   0.1424   0.2589  -0.0852  -0.1281   0.0655   0.00    0.0
2020/11/02 08:28:31.000   1112776.9646  -4341475.9091   4522955.8489   6   8   0.1147   0.1423   0.2589  -0.0852  -0.1281   0.0655   0.00    0.0
2020/11/02 08:28:32.000   1112776.9888  -4341475.9261   4522955.8602   6   8   0.1147   0.1423   0.2588  -0.0852  -0.1280   0.0655   0.00    0.0
2020/11/02 08:28:33.000   1112776.9895  -4341475.9278   4522955.8614   6   8   0.1147   0.1423   0.2588  -0.0852  -0.1280   0.0654   0.00    0.0
2020/11/02 08:28:34.000   1112776.9878  -4341475.9293   4522955.8494   6   8   0.1147   0.1423   0.2587  -0.0852  -0.1280   0.0654   0.00    0.0
2020/11/02 08:28:35.000   1112776.9932  -4341475.9325   4522955.8655   6   8   0.1147   0.1423   0.2587  -0.0852  -0.1279   0.0654   0.00    0.0
2020/11/02 08:28:36.000   1112777.0009  -4341475.9448   4522955.8639   6   8   0.1147   0.1423   0.2586  -0.0852  -0.1279   0.0654   0.00    0.0
2020/11/02 08:28:37.000   1112777.0038  -4341475.9550   4522955.8848   6   8   0.1147   0.1423   0.2586  -0.0852  -0.1279   0.0653   0.00    0.0
2020/11/02 08:28:38.000   1112777.0053  -4341475.9598   4522955.8835   6   8   0.1147   0.1423   0.2585  -0.0852  -0.1278   0.0653   0.00    0.0
2020/11/02 08:28:39.000   1112777.0027  -4341475.9644   4522955.9079   6   8   0.1147   0.1423   0.2585  -0.0851  -0.1278   0.0653   0.00    0.0
2020/11/02 08:28:40.000   1112777.0115  -4341475.9713   4522955.9190   6   8   0.1147   0.1422   0.2585  -0.0851  -0.1278   0.0653   0.00    0.0
2020/11/02 08:28:41.000   1112777.0163  -4341475.9737   4522955.9303   6   8   0.1148   0.1422   0.2584  -0.0851  -0.1278   0.0652   0.00    0.0
2020/11/02 08:28:42.000   1112777.0130  -4341475.9847   4522955.9627   6   8   0.1148   0.1422   0.2584  -0.0851  -0.1277   0.0652   0.00    0.0
2020/11/02 08:28:43.000   1112777.0208  -4341475.9926   4522955.9566   6   8   0.1148   0.1422   0.2583  -0.0851  -0.1277   0.0652   0.00    0.0
2020/11/02 08:28:44.000   1112777.0276  -4341475.9998   4522955.9489   6   8   0.1148   0.1422   0.2583  -0.0851  -0.1277   0.0652   0.00    0.0
2020/11/02 08:28:45.000   1112777.0335  -4341476.0056   4522955.9595   6   8   0.1148   0.1422   0.2582  -0.0851  -0.1276   0.0651   0.00    0.0
2020/11/02 08:28:46.000   1112777.0385  -4341476.0052   4522955.9537   6   8   0.1148   0.1422   0.2582  -0.0851  -0.1276   0.0651   0.00    0.0
2020/11/02 08:28:47.000   1112777.0341  -4341476.0088   4522955.9749   6   8   0.1148   0.1422   0.2581  -0.0851  -0.1276   0.0651   0.00    0.0
