%  GPST                      x-ecef(m)      y-ecef(m)      z-ecef(m)   Q  ns   sdx(m)   sdy(m)   sdz(m)  sdxy(m)  sdyz(m)  sdzx(m) age(s)  ratio
2020/10/22 08:55:44.000   1112776.9459  -4341475.9071   4522955.8833   6   8   0.0001   0.0001   0.0001  -0.0000  -0.0000   0.0000   0.00    0.0
2020/10/22 08:55:45.000   1112776.9459  -4341475.9071   4522955.8833   6   8   0.0001   0.0001   0.0001  -0.0000  -0.0000  -0.0000   0.00    0.0
2020/10/22 08:55:46.000   1112776.9459  -4341475.9071   4522955.8833   6   8   0.0001   0.0001   0.0001  -0.0000  -0.0000  -0.0000   0.00    0.0
2020/10/22 08:55:47.000   1112776.9459  -4341475.9071   4522955.8833   6   8   0.0001   0.0001   0.0001  -0.0000  -0.0000  -0.0000   0.00    0.0
2020/10/22 08:55:48.000   1112776.9459  -4341475.9071   4522955.8833   6   8   0.0001   0.0001   0.0001  -0.0000  -0.0000  -0.0000   0.00    0.0
2020/10/22 08:55:49.000   1112776.9459  -4341475.9071   4522955.8833   6   8   0.0001   0.0001   0.0001  -0.0000  -0.0000  -0.0000   0.00    0.0
2020/10/22 08:55:50.000   1112776.9459  -4341475.9071   4522955.8833   6   8   0.0001   0.0001   0.0001  -0.0000  -0.0000  -0.0000   0.00    0.0
2020/10/22 08:55:51.000   1112776.9459  -4341475.9071   4522955.8833   6   8   0.0001   0.0001   0.0001  -0.0000  -0.0000  -0.0000   0.00    0.0
2020/10/22 08:55:52.000   1112776.9459  -4341475.9071   4522955.8833   6   8   0.0001   0.0001   0.0001  -0.0000  -0.0000  -0.0000   0.00    0.0
2020/10/22 08:55:53.000   1112776.9459  -4341475.9071   4522955.8833   6   8   0.0001   0.0001   0.0001  -0.0000  -0.0000  -0.0000   0.00    0.0
2020/10/22 08:55:54.000   1112776.9459  -4341475.9071   4522955.8833   6   8   0.0001   0.0001   0.0001  -0.0000  -0.0000  -0.0000   0.00    0.0
2020/10/22 08:55:55.000   1112776.9459  -4341475.9071   4522955.8833   6   8   0.0001   0.0001   0.0001  -0.0000  -0.0000  -0.0000   0.00    0.0
2020/10/22 08:55:56.000   1112776.9459  -4341475.9071   4522955.8833   6   8   0.0001   0.0001   0.0001  -0.0000  -0.0000  -0.0000   0.00    0.0
2020/10/22 08:55:57.000   1112776.9459  -4341475.9071   4522955.8833   6   8   0.0001   0.0001   0.0001  -0.0000  -0.0000  -0.0000   0.00    0.0
2020/10/22 08:55:58.000   1112776.9459  -4341475.9071   4522955.8833   6   8   0.0001   0.0001   0.0001  -0.0000  -0.0000  -0.0000   0.00    0.0
2020/10/22 08:55:59.000   1112776.9459  -4341475.9071   4522955.8833   6   8   0.0001   0.0001   0.0001  -0.0000  -0.0000  -0.0000   0.00    0.0
2020/10/22 08:56:00.000   1112777.0202  -4341475.9700   4522955.9008   6   8   0.1120   0.1625   0.2998  -0.0909  -0.1648   0.0878   0.00    0.0
2020/10/22 08:56:01.000   1112777.0221  -4341475.9672   4522955.8890   6   8   0.1120   0.1625   0.2998  -0.0909  -0.1648   0.0878   0.00    0.0
2020/10/22 08:56:02.000   1112777.0196  -4341475.9713   4522955.9057   6   8   0.1120   0.1625   0.2998  -0.0909  -0.1647   0.0878   0.00    0.0
2020/10/22 08:56:03.000   1112777.0201  -4341475.9702   4522955.9061   6   8   0.1120   0.1625   0.2997  -0.0909  -0.1647   0.0878   0.00    0.0
2020/10/22 08:56:04.000   1112776.9252  -4341475.8981   4522955.8818   6   8   0.1120   0.1625   0.2997  -0.0909  -0.1647   0.0878   0.00    0.0
2020/10/22 08:56:05.000   1112776.9307  -4341475.9128   4522955.8850   6   8   0.1120   0.1624   0.2997  -0.0909  -0.1647   0.0877   0.00    0.0
2020/10/22 08:56:06.000   1112776.9382  -4341475.9162   4522955.9188   6   8   0.1120   0.1624   0.2997  -0.0909  -0.1646   0.0877   0.00    0.0
2020/10/22 08:56:07.000   1112776.9447  -4341475.9254   4522955.9115   6   8   0.1120   0.1624   0.2997  -0.0909  -0.1646   0.0877   0.00    0.0
2020/10/22 08:56:08.000   1112776.9299  -4341475.9134   4522955.9056   6   8   0.1120   0.1624   0.2996  -0.0909  -0.1646   0.0877   0.00    0.0
2020/10/22 08:56:09.000   1112776.9397  -4341475.9300   4522955.9288   6   8   0.1120   0.1624   0.2996  -0.0909  -0.1646   0.0877   0.00    0.0
2020/10/22 08:56:10.000   1112776.9455  -4341475.9306   4522955.9175   6   8   0.1120   0.1624   0.2996  -0.0909  -0.1645   0.0877   0.00    0.0
2020/10/22 08:56:11.000   1112776.9437  -4341475.9381   4522955.9373   6   8   0.1120   0.1623   0.2996  -0.0909  -0.1645   0.0877   0.00    0.0
2020/10/22 08:56:12.000   1112776.9452  -4341475.9397   4522955.9468   6   8   0.1120   0.1623   0.2996  -0.0909  -0.1645   0.0877   0.00    0.0
2020/10/22 08:56:13.000   1112776.9429  -4341475.9404   4522955.9461   6   8   0.1120   0.1623   0.2995  -0.0909  -0.1644   0.0876   0.00    0.0
2020/10/22 08:56:14.000   1112776.9484  -4341475.9409   4522955.9373   6   8   0.1120   0.1623   0.2995  -0.0909  -0.1644   0.0876   0.00    0.0
2020/10/22 08:56:15.000   1112776.9404  -4341475.9313   4522955.9421   6   8   0.1120   0.1623   0.2995  -0.0909  -0.1644   0.0876   0.00    0.0
2020/10/22 08:56:16.000   1112776.9490  -4341475.9383   4522955.9326   6   8   0.1120   0.1623   0.2995  -0.0909  -0.1644   0.0876   0.00    0.0
2020/10/22 08:56:17.000   1112776.9479  -4341475.9401   4522955.9319   6   8   0.1120   0.1622   0.2994  -0.0909  -0.1643   0.0876   0.00    0.0
2020/10/22 08:56:18.000   1112776.9558  -4341475.9478   4522955.9421   6   8   0.1121   0.1622   0.2994  -0.0909  -0.1643   0.0876   0.00    0.0
2020/10/22 08:56:19.000   1112777.0602  -4341476.1154   4522956.2675   6   8   0.1121   0.1622   0.2994  -0.0909  -0.1643   0.0876   0.00    0.0
2020/10/22 08:56:20.000   1112777.0583  -4341476.1112   4522956.2613   6   8   0.1121   0.1622   0.2994  -0.0909  -0.1643   0.0876   0.00    0.0
2020/10/22 08:56:21.000   1112777.0571  -4341476.1142   4522956.2630   6   8   0.1121   0.1622   0.2994  -0.0908  -0.1642   0.0875   0.00    0.0
2020/10/22 08:56:22.000   1112777.0482  -4341476.1002   4522956.2323   6   8   0.1121   0.1622   0.2993  -0.0908  -0.1642   0.0875   0.00    0.0
2020/10/22 08:56:23.000   1112777.0526  -4341476.1024   4522956.2489   6   8   0.1121   0.1621   0.2993  -0.0908  -0.1642   0.0875   0.00    0.0
2020/10/22 08:56:24.000   1112776.9581  -4341475.9512   4522955.9513   6   8   0.1121   0.1621   0.2993  -0.0908  -0.1642   0.0875   0.00    0.0
2020/10/22 08:56:25.000   1112776.9563  -4341475.9514   4522955.9582   6   8   0.1121   0.1621   0.2993  -0.0908  -0.1641   0.0875   0.00    0.0
2020/10/22 08:56:26.000   1112776.9576  -4341475.9529   4522955.9608   6   8   0.1121   0.1621   0.2992  -0.0908  -0.1641   0.0875   0.00    0.0
2020/10/22 08:56:27.000   1112776.9560  -4341475.9414   4522955.9679   6   8   0.1121   0.1621   0.2992  -0.0908  -0.1641   0.0875   0.00    0.0
2020/10/22 08:56:28.000   1112776.9614  -4341475.9439   4522955.9517   6   8   0.1121   0.1621   0.2992  -0.0908  -0.1641   0.0874   0.00    0.0
2020/10/22 08:56:29.000   1112776.9573  -4341475.9430   4522955.9323   6   8   0.1121   0.1620   0.2992  -0.0908  -0.1640   0.0874   0.00    0.0
2020/10/22 08:56:30.000   1112776.9534  -4341475.9355   4522955.9290   6   8   0.1121   0.1620   0.2992  -0.0908  -0.1640   0.0874   0.00    0.0
2020/10/22 08:56:31.000   1112776.9562  -4341475.9486   4522955.9237   6   8   0.1121   0.1620   0.2991  -0.0908  -0.1640   0.0874   0.00    0.0
2020/10/22 08:56:32.000   1112776.9681  -4341475.9609   4522955.9467   6   8   0.1121   0.1620   0.2991  -0.0908  -0.1640   0.0874   0.00    0.0
2020/10/22 08:56:33.000   1112776.9613  -4341475.9491   4522955.9493   6   8   0.1121   0.1620   0.2991  -0.0908  -0.1639   0.0874   0.00    0.0
2020/10/22 08:56:34.000   1112776.9590  -4341475.9431   4522955.9293   6   8   0.1121   0.1620   0.2991  -0.0908  -0.1639   0.0874   0.00    0.0
2020/10/22 08:56:35.000   1112776.9580  -4341475.9389   4522955.9109   6   8   0.1121   0.1619   0.2990  -0.0908  -0.1639   0.0874   0.00    0.0
2020/10/22 08:56:36.000   1112776.9673  -4341475.9493   4522955.9235   6   8   0.1121   0.1619   0.2990  -0.0908  -0.1638   0.0873   0.00    0.0
2020/10/22 08:56:37.000   1112776.9620  -4341475.9353   4522955.9104   6   8   0.1121   0.1619   0.2990  -0.0908  -0.1638   0.0873   0.00    0.0
2020/10/22 08:56:38.000   1112776.9642  -4341475.9381   4522955.9180   6   8   0.1121   0.1619   0.2990  -0.0908  -0.1638   0.0873   0.00    0.0
2020/10/22 08:56:39.000   1112776.9613  -4341475.9317   4522955.9172   6   8   0.1121   0.1619   0.2990  -0.0908  -0.1638   0.0873   0.00    0.0
2020/10/22 08:56:40.000   1112776.9644  -4341475.9314   4522955.9160   6   8   0.1121   0.1619   0.2989  -0.0908  -0.1637   0.0873   0.00    0.0
2020/10/22 08:56:41.000   1112776.9698  -4341475.9463   4522955.9233   6   8   0.1121   0.1618   0.2989  -0.0908  -0.1637   0.0873   0.00    0.0
2020/10/22 08:56:42.000   1112776.9723  -4341475.9416   4522955.9231   6   8   0.1121   0.1618   0.2989  -0.0908  -0.1637   0.0873   0.00    0.0
2020/10/22 08:56:43.000   1112776.9686  -4341475.9335   4522955.9063   6   8   0.1121   0.1618   0.2989  -0.0908  -0.1637   0.0872   0.00    0.0
2020/10/22 08:56:44.000   1112776.9746  -4341475.9456   4522955.9059   6   8   0.1121   0.1618   0.2988  -0.0908  -0.1636   0.0872   0.00    0.0
2020/10/22 08:56:45.000   1112776.9700  -4341475.9396   4522955.9047   6   8   0.1121   0.1618   0.2988  -0.0908  -0.1636   0.0872   0.00    0.0
2020/10/22 08:56:46.000   1112776.9636  -4341475.9301   4522955.9121   6   8   0.1122   0.1618   0.2988  -0.0908  -0.1636   0.0872   0.00    0.0
2020/10/22 08:56:47.000   1112776.9698  -4341475.9357   4522955.9119   6   8   0.1122   0.1617   0.2988  -0.0907  -0.1636   0.0872   0.00    0.0
2020/10/22 08:56:48.000   1112776.9721  -4341475.9367   4522955.9018   6   8   0.1122   0.1617   0.2988  -0.0907  -0.1635   0.0872   0.00    0.0
2020/10/22 08:56:49.000   1112776.9665  -4341475.9332   4522955.9036   6   8   0.1122   0.1617   0.2987  -0.0907  -0.1635   0.0872   0.00    0.0
2020/10/22 08:56:50.000   1112776.9654  -4341475.9335   4522955.8962   6   8   0.1122   0.1617   0.2987  -0.0907  -0.1635   0.0872   0.00    0.0
2020/10/22 08:56:51.000   1112776.9632  -4341475.9386   4522955.9183   6   8   0.1122   0.1617   0.2987  -0.0907  -0.1635   0.0871   0.00    0.0
2020/10/22 08:56:52.000   1112776.9611  -4341475.9325   4522955.8991   6   8   0.1122   0.1617   0.2987  -0.0907  -0.1634   0.0871   0.00    0.0
2020/10/22 08:56:53.000   1112776.9639  -4341475.9265   4522955.9029   6   8   0.1122   0.1616   0.2986  -0.0907  -0.1634   0.0871   0.00    0.0
2020/10/22 08:56:54.000   1112776.9565  -4341475.9259   4522955.8962   6   8   0.1122   0.1616   0.2986  -0.0907  -0.1634   0.0871   0.00    0.0
2020/10/22 08:56:55.000   1112776.9557  -4341475.9216   4522955.8904   6   8   0.1122   0.1616   0.2986  -0.0907  -0.1634   0.0871   0.00    0.0
2020/10/22 08:56:56.000   1112776.9617  -4341475.9237   4522955.8806   6   8   0.1122   0.1616   0.2986  -0.0907  -0.1633   0.0871   0.00    0.0
2020/10/22 08:56:57.000   1112776.9574  -4341475.9345   4522955.8872   6   8   0.1122   0.1616   0.2986  -0.0907  -0.1633   0.0871   0.00    0.0
2020/10/22 08:56:58.000   1112776.9634  -4341475.9280   4522955.8827   6   8   0.1122   0.1616   0.2985  -0.0907  -0.1633   0.0870   0.00    0.0
2020/10/22 08:56:59.000   1112776.9577  -4341475.9284   4522955.8737   6   8   0.1122   0.1616   0.2985  -0.0907  -0.1633   0.0870   0.00    0.0
2020/10/22 08:57:00.000   1112776.9601  -4341475.9285   4522955.8666   6   8   0.1122   0.1615   0.2985  -0.0907  -0.1632   0.0870   0.00    0.0
2020/10/22 08:57:01.000   1112776.9592  -4341475.9201   4522955.8558   6   8   0.1122   0.1615   0.2985  -0.0907  -0.1632   0.0870   0.00    0.0
2020/10/22 08:57:02.000   1112776.9614  -4341475.9276   4522955.8640   6   8   0.1122   0.1615   0.2984  -0.0907  -0.1632   0.0870   0.00    0.0
2020/10/22 08:57:03.000   1112776.9581  -4341475.9254   4522955.8511   6   8   0.1122   0.1615   0.2984  -0.0907  -0.1632   0.0870   0.00    0.0
2020/10/22 08:57:04.000   1112776.9438  -4341475.9093   4522955.8466   6   8   0.1122   0.1615   0.2984  -0.0907  -0.1631   0.0870   0.00    0.0
2020/10/22 08:57:05.000   1112776.9498  -4341475.9154   4522955.8438   6   8   0.1122   0.1615   0.2984  -0.0907  -0.1631   0.0870   0.00    0.0
2020/10/22 08:57:06.000   1112776.9468  -4341475.9179   4522955.8405   6   8   0.1122   0.1614   0.2983  -0.0907  -0.1631   0.0869   0.00    0.0
2020/10/22 08:57:07.000   1112776.9464  -4341475.9094   4522955.8515   6   8   0.1122   0.1614   0.2983  -0.0907  -0.1630   0.0869   0.00    0.0
2020/10/22 08:57:08.000   1112776.9452  -4341475.9032   4522955.8371   6   8   0.1122   0.1614   0.2983  -0.0907  -0.1630   0.0869   0.00    0.0
2020/10/22 08:57:09.000   1112777.0472  -4341475.9821   4522955.8645   6   8   0.1122   0.1614   0.2983  -0.0907  -0.1630   0.0869   0.00    0.0
2020/10/22 08:57:10.000   1112777.0473  -4341475.9808   4522955.8512   6   8   0.1122   0.1614   0.2982  -0.0907  -0.1630   0.0869   0.00    0.0
2020/10/22 08:57:11.000   1112777.0540  -4341475.9865   4522955.8477   6   8   0.1122   0.1614   0.2982  -0.0907  -0.1629   0.0869   0.00    0.0
2020/10/22 08:57:12.000   1112777.0476  -4341475.9859   4522955.8517   6   8   0.1122   0.1613   0.2982  -0.0907  -0.1629   0.0869   0.00    0.0
2020/10/22 08:57:13.000   1112777.0501  -4341475.9827   4522955.8469   6   8   0.1122   0.1613   0.2982  -0.0906  -0.1629   0.0868   0.00    0.0
2020/10/22 08:57:14.000   1112776.9458  -4341475.9103   4522955.8420   6   8   0.1123   0.1613   0.2982  -0.0906  -0.1629   0.0868   0.00    0.0
2020/10/22 08:57:15.000   1112776.9432  -4341475.9147   4522955.8413   6   8   0.1123   0.1613   0.2981  -0.0906  -0.1628   0.0868   0.00    0.0
2020/10/22 08:57:16.000   1112776.9358  -4341475.8995   4522955.8149   6   8   0.1123   0.1613   0.2981  -0.0906  -0.1628   0.0868   0.00    0.0
2020/10/22 08:57:17.000   1112776.9464  -4341475.9142   4522955.8464   6   8   0.1123   0.1613   0.2981  -0.0906  -0.1628   0.0868   0.00    0.0
2020/10/22 08:57:18.000   1112776.9476  -4341475.9106   4522955.8299   6   8   0.1123   0.1613   0.2981  -0.0906  -0.1628   0.0868   0.00    0.0
2020/10/22 08:57:19.000   1112776.9469  -4341475.9214   4522955.8432   6   8   0.1123   0.1612   0.2980  -0.0906  -0.1627   0.0868   0.00    0.0
2020/10/22 08:57:20.000   1112776.9526  -4341475.9239   4522955.8302   6   8   0.1123   0.1612   0.2980  -0.0906  -0.1627   0.0867   0.00    0.0
2020/10/22 08:57:21.000   1112776.9529  -4341475.9323   4522955.8537   6   8   0.1123   0.1612   0.2980  -0.0906  -0.1627   0.0867   0.00    0.0
2020/10/22 08:57:22.000   1112776.9502  -4341475.9281   4522955.8440   6   8   0.1123   0.1612   0.2980  -0.0906  -0.1627   0.0867   0.00    0.0
2020/10/22 08:57:23.000   1112776.9511  -4341475.9292   4522955.8356   6   8   0.1123   0.1612   0.2979  -0.0906  -0.1626   0.0867   0.00    0.0
2020/10/22 08:57:24.000   1112776.9625  -4341475.9429   4522955.8677   6   8   0.1123   0.1612   0.2979  -0.0906  -0.1626   0.0867   0.00    0.0
2020/10/22 08:57:25.000   1112776.9597  -4341475.9401   4522955.8421   6   8   0.1123   0.1611   0.2979  -0.0906  -0.1626   0.0867   0.00    0.0
2020/10/22 08:57:26.000   1112776.9648  -4341475.9424   4522955.8512   6   8   0.1123   0.1611   0.2979  -0.0906  -0.1626   0.0867   0.00    0.0
2020/10/22 08:57:27.000   1112776.9703  -4341475.9565   4522955.8598   6   8   0.1123   0.1611   0.2978  -0.0906  -0.1625   0.0866   0.00    0.0
2020/10/22 08:57:28.000   1112776.9627  -4341475.9540   4522955.8646   6   8   0.1123   0.1611   0.2978  -0.0906  -0.1625   0.0866   0.00    0.0
2020/10/22 08:57:29.000   1112776.9647  -4341475.9600   4522955.8808   6   8   0.1123   0.1611   0.2978  -0.0906  -0.1625   0.0866   0.00    0.0
2020/10/22 08:57:30.000   1112776.9610  -4341475.9513   4522955.8720   6   8   0.1123   0.1611   0.2978  -0.0906  -0.1624   0.0866   0.00    0.0
2020/10/22 08:57:31.000   1112776.9643  -4341475.9586   4522955.8718   6   8   0.1123   0.1611   0.2977  -0.0906  -0.1624   0.0866   0.00    0.0
2020/10/22 08:57:32.000   1112776.9566  -4341475.9416   4522955.8745   6   8   0.1123   0.1610   0.2977  -0.0906  -0.1624   0.0866   0.00    0.0
2020/10/22 08:57:33.000   1112776.9673  -4341475.9539   4522955.8754   6   8   0.1123   0.1610   0.2977  -0.0906  -0.1624   0.0866   0.00    0.0
2020/10/22 08:57:34.000   1112776.9626  -4341475.9504   4522955.8986   6   8   0.1123   0.1610   0.2977  -0.0906  -0.1623   0.0865   0.00    0.0
2020/10/22 08:57:35.000   1112776.9755  -4341475.9598   4522955.9067   6   8   0.1123   0.1610   0.2976  -0.0906  -0.1623   0.0865   0.00    0.0
2020/10/22 08:57:36.000   1112776.9698  -4341475.9631   4522955.9007   6   8   0.1123   0.1610   0.2976  -0.0906  -0.1623   0.0865   0.00    0.0
2020/10/22 08:57:37.000   1112776.9724  -4341475.9621   4522955.8871   6   8   0.1123   0.1610   0.2976  -0.0906  -0.1623   0.0865   0.00    0.0
2020/10/22 08:57:38.000   1112776.9784  -4341475.9581   4522955.8960   6   8   0.1123   0.1609   0.2976  -0.0906  -0.1622   0.0865   0.00    0.0
2020/10/22 08:57:39.000   1112777.0731  -4341476.0304   4522955.9052   6   8   0.1123   0.1609   0.2976  -0.0905  -0.1622   0.0865   0.00    0.0
2020/10/22 08:57:40.000   1112777.0718  -4341476.0234   4522955.9015   6   8   0.1123   0.1609   0.2975  -0.0905  -0.1622   0.0865   0.00    0.0
2020/10/22 08:57:41.000   1112777.0725  -4341476.0315   4522955.8922   6   8   0.1123   0.1609   0.2975  -0.0905  -0.1622   0.0864   0.00    0.0
2020/10/22 08:57:42.000   1112777.0710  -4341476.0317   4522955.8916   6   8   0.1124   0.1609   0.2975  -0.0905  -0.1621   0.0864   0.00    0.0
2020/10/22 08:57:43.000   1112777.0774  -4341476.0318   4522955.9061   6   8   0.1124   0.1609   0.2975  -0.0905  -0.1621   0.0864   0.00    0.0
2020/10/22 08:57:44.000   1112776.9545  -4341475.9613   4522955.8836   6   8   0.1124   0.1609   0.2974  -0.0905  -0.1621   0.0864   0.00    0.0
2020/10/22 08:57:45.000   1112776.9602  -4341475.9626   4522955.9051   6   8   0.1124   0.1608   0.2974  -0.0905  -0.1621   0.0864   0.00    0.0
2020/10/22 08:57:46.000   1112776.9434  -4341475.9458   4522955.8894   6   8   0.1124   0.1608   0.2974  -0.0905  -0.1620   0.0864   0.00    0.0
2020/10/22 08:57:47.000   1112776.9448  -4341475.9457   4522955.8872   6   8   0.1124   0.1608   0.2974  -0.0905  -0.1620   0.0864   0.00    0.0
2020/10/22 08:57:48.000   1112776.9434  -4341475.9450   4522955.8816   6   8   0.1124   0.1608   0.2973  -0.0905  -0.1620   0.0863   0.00    0.0
2020/10/22 08:57:49.000   1112776.9281  -4341475.9368   4522955.8792   6   8   0.1124   0.1608   0.2973  -0.0905  -0.1620   0.0863   0.00    0.0
2020/10/22 08:57:50.000   1112776.9226  -4341475.9369   4522955.8790   6   8   0.1124   0.1608   0.2973  -0.0905  -0.1619   0.0863   0.00    0.0
2020/10/22 08:57:51.000   1112776.9205  -4341475.9276   4522955.8556   6   8   0.1124   0.1607   0.2973  -0.0905  -0.1619   0.0863   0.00    0.0
2020/10/22 08:57:52.000   1112776.9186  -4341475.9364   4522955.8715   6   8   0.1124   0.1607   0.2972  -0.0905  -0.1619   0.0863   0.00    0.0
2020/10/22 08:57:53.000   1112776.9182  -4341475.9316   4522955.8471   6   8   0.1124   0.1607   0.2972  -0.0905  -0.1618   0.0863   0.00    0.0
2020/10/22 08:57:54.000   1112776.9134  -4341475.9284   4522955.8685   6   8   0.1124   0.1607   0.2972  -0.0905  -0.1618   0.0863   0.00    0.0
2020/10/22 08:57:55.000   1112776.9201  -4341475.9342   4522955.8797   6   8   0.1124   0.1607   0.2972  -0.0905  -0.1618   0.0862   0.00    0.0
2020/10/22 08:57:56.000   1112776.9129  -4341475.9317   4522955.8827   6   8   0.1124   0.1607   0.2971  -0.0905  -0.1618   0.0862   0.00    0.0
2020/10/22 08:57:57.000   1112776.9177  -4341475.9319   4522955.8711   6   8   0.1124   0.1607   0.2971  -0.0905  -0.1617   0.0862   0.00    0.0
2020/10/22 08:57:58.000   1112776.9242  -4341475.9335   4522955.8661   6   8   0.1124   0.1606   0.2971  -0.0905  -0.1617   0.0862   0.00    0.0
2020/10/22 08:57:59.000   1112776.9223  -4341475.9370   4522955.8806   6   8   0.1124   0.1606   0.2971  -0.0905  -0.1617   0.0862   0.00    0.0
2020/10/22 08:58:00.000   1112776.9182  -4341475.9253   4522955.8710   6   8   0.1124   0.1606   0.2970  -0.0905  -0.1617   0.0862   0.00    0.0
2020/10/22 08:58:01.000   1112776.9275  -4341475.9420   4522955.8753   6   8   0.1124   0.1606   0.2970  -0.0905  -0.1616   0.0862   0.00    0.0
2020/10/22 08:58:02.000   1112776.9214  -4341475.9376   4522955.8679   6   8   0.1124   0.1606   0.2970  -0.0905  -0.1616   0.0861   0.00    0.0
2020/10/22 08:58:03.000   1112776.9170  -4341475.9289   4522955.8569   6   8   0.1124   0.1606   0.2970  -0.0905  -0.1616   0.0861   0.00    0.0
2020/10/22 08:58:04.000   1112776.9186  -4341475.9232   4522955.8485   6   8   0.1124   0.1605   0.2969  -0.0904  -0.1616   0.0861   0.00    0.0
2020/10/22 08:58:05.000   1112776.9172  -4341475.9298   4522955.8610   6   8   0.1124   0.1605   0.2969  -0.0904  -0.1615   0.0861   0.00    0.0
2020/10/22 08:58:06.000   1112776.9193  -4341475.9235   4522955.8478   6   8   0.1124   0.1605   0.2969  -0.0904  -0.1615   0.0861   0.00    0.0
2020/10/22 08:58:07.000   1112776.9141  -4341475.9202   4522955.8487   6   8   0.1124   0.1605   0.2968  -0.0904  -0.1615   0.0861   0.00    0.0
2020/10/22 08:58:08.000   1112776.9209  -4341475.9223   4522955.8294   6   8   0.1124   0.1605   0.2968  -0.0904  -0.1615   0.0860   0.00    0.0
2020/10/22 08:58:09.000   1112776.9271  -4341475.9252   4522955.8481   6   8   0.1124   0.1605   0.2968  -0.0904  -0.1614   0.0860   0.00    0.0
2020/10/22 08:58:10.000   1112776.9200  -4341475.9246   4522955.8396   6   8   0.1124   0.1605   0.2968  -0.0904  -0.1614   0.0860   0.00    0.0
2020/10/22 08:58:11.000   1112776.9228  -4341475.9235   4522955.8349   6   8   0.1125   0.1604   0.2967  -0.0904  -0.1614   0.0860   0.00    0.0
2020/10/22 08:58:12.000   1112776.9211  -4341475.9241   4522955.8253   6   8   0.1125   0.1604   0.2967  -0.0904  -0.1613   0.0860   0.00    0.0
2020/10/22 08:58:13.000   1112776.9212  -4341475.9242   4522955.8303   6   8   0.1125   0.1604   0.2967  -0.0904  -0.1613   0.0860   0.00    0.0
2020/10/22 08:58:14.000   1112777.0331  -4341476.0040   4522955.8455   6   8   0.1125   0.1604   0.2967  -0.0904  -0.1613   0.0860   0.00    0.0
2020/10/22 08:58:15.000   1112777.0358  -4341476.0032   4522955.8401   6   8   0.1125   0.1604   0.2966  -0.0904  -0.1613   0.0859   0.00    0.0
2020/10/22 08:58:16.000   1112777.0294  -4341475.9927   4522955.8296   6   8   0.1125   0.1604   0.2966  -0.0904  -0.1612   0.0859   0.00    0.0
2020/10/22 08:58:17.000   1112777.0273  -4341475.9992   4522955.8204   6   8   0.1125   0.1604   0.2966  -0.0904  -0.1612   0.0859   0.00    0.0
2020/10/22 08:58:18.000   1112777.0301  -4341475.9946   4522955.8326   6   8   0.1125   0.1603   0.2966  -0.0904  -0.1612   0.0859   0.00    0.0
2020/10/22 08:58:19.000   1112776.9337  -4341475.9364   4522955.8326   6   8   0.1125   0.1603   0.2965  -0.0904  -0.1612   0.0859   0.00    0.0
2020/10/22 08:58:20.000   1112776.9386  -4341475.9380   4522955.8311   6   8   0.1125   0.1603   0.2965  -0.0904  -0.1611   0.0859   0.00    0.0
2020/10/22 08:58:21.000   1112776.9345  -4341475.9362   4522955.8401   6   8   0.1125   0.1603   0.2965  -0.0904  -0.1611   0.0859   0.00    0.0
2020/10/22 08:58:22.000   1112776.9330  -4341475.9289   4522955.8075   6   8   0.1125   0.1603   0.2965  -0.0904  -0.1611   0.0858   0.00    0.0
2020/10/22 08:58:23.000   1112776.9413  -4341475.9343   4522955.8169   6   8   0.1125   0.1603   0.2964  -0.0904  -0.1611   0.0858   0.00    0.0
2020/10/22 08:58:24.000   1112776.9434  -4341475.9419   4522955.8446   6   8   0.1125   0.1602   0.2964  -0.0904  -0.1610   0.0858   0.00    0.0
2020/10/22 08:58:25.000   1112776.9413  -4341475.9221   4522955.8181   6   8   0.1125   0.1602   0.2964  -0.0904  -0.1610   0.0858   0.00    0.0
2020/10/22 08:58:26.000   1112776.9405  -4341475.9340   4522955.8328   6   8   0.1125   0.1602   0.2964  -0.0904  -0.1610   0.0858   0.00    0.0
2020/10/22 08:58:27.000   1112776.9353  -4341475.9240   4522955.8272   6   8   0.1125   0.1602   0.2963  -0.0904  -0.1609   0.0858   0.00    0.0
2020/10/22 08:58:28.000   1112776.9361  -4341475.9195   4522955.8254   6   8   0.1125   0.1602   0.2963  -0.0903  -0.1609   0.0857   0.00    0.0
2020/10/22 08:58:29.000   1112776.9281  -4341475.9245   4522955.8347   6   8   0.1125   0.1602   0.2963  -0.0903  -0.1609   0.0857   0.00    0.0
2020/10/22 08:58:30.000   1112776.9321  -4341475.9275   4522955.8507   6   8   0.1125   0.1602   0.2962  -0.0903  -0.1609   0.0857   0.00    0.0
2020/10/22 08:58:31.000   1112776.9290  -4341475.9419   4522955.8525   6   8   0.1125   0.1601   0.2962  -0.0903  -0.1608   0.0857   0.00    0.0
2020/10/22 08:58:32.000   1112776.9391  -4341475.9397   4522955.8610   6   8   0.1125   0.1601   0.2962  -0.0903  -0.1608   0.0857   0.00    0.0
2020/10/22 08:58:33.000   1112776.9285  -4341475.9429   4522955.8544   6   8   0.1125   0.1601   0.2962  -0.0903  -0.1608   0.0857   0.00    0.0
2020/10/22 08:58:34.000   1112777.0361  -4341476.0125   4522955.8880   6   8   0.1125   0.1601   0.2961  -0.0903  -0.1608   0.0857   0.00    0.0
2020/10/22 08:58:35.000   1112777.0375  -4341476.0191   4522955.8896   6   8   0.1125   0.1601   0.2961  -0.0903  -0.1607   0.0856   0.00    0.0
2020/10/22 08:58:36.000   1112777.0343  -4341476.0159   4522955.8815   6   8   0.1125   0.1601   0.2961  -0.0903  -0.1607   0.0856   0.00    0.0
2020/10/22 08:58:37.000   1112777.0337  -4341476.0169   4522955.8765   6   8   0.1125   0.1601   0.2961  -0.0903  -0.1607   0.0856   0.00    0.0
2020/10/22 08:58:38.000   1112777.0189  -4341476.0028   4522955.8706   6   8   0.1125   0.1600   0.2960  -0.0903  -0.1607   0.0856   0.00    0.0
2020/10/22 08:58:39.000   1112776.9101  -4341475.9409   4522955.8641   6   8   0.1126   0.1600   0.2960  -0.0903  -0.1606   0.0856   0.00    0.0
2020/10/22 08:58:40.000   1112776.9135  -4341475.9466   4522955.8756   6   8   0.1126   0.1600   0.2960  -0.0903  -0.1606   0.0856   0.00    0.0
2020/10/22 08:58:41.000   1112776.9140  -4341475.9494   4522955.8808   6   8   0.1126   0.1600   0.2960  -0.0903  -0.1606   0.0856   0.00    0.0
2020/10/22 08:58:42.000   1112776.9136  -4341475.9458   4522955.8666   6   8   0.1126   0.1600   0.2959  -0.0903  -0.1605   0.0855   0.00    0.0
2020/10/22 08:58:43.000   1112776.9119  -4341475.9469   4522955.8701   6   8   0.1126   0.1600   0.2959  -0.0903  -0.1605   0.0855   0.00    0.0
2020/10/22 08:58:44.000   1112776.9166  -4341475.9512   4522955.8861   6   8   0.1126   0.1599   0.2959  -0.0903  -0.1605   0.0855   0.00    0.0
2020/10/22 08:58:45.000   1112776.9221  -4341475.9585   4522955.8981   6   8   0.1126   0.1599   0.2958  -0.0903  -0.1605   0.0855   0.00    0.0
2020/10/22 08:58:46.000   1112776.9311  -4341475.9717   4522955.9104   6   8   0.1126   0.1599   0.2958  -0.0903  -0.1604   0.0855   0.00    0.0
2020/10/22 08:58:47.000   1112776.9308  -4341475.9671   4522955.9174   6   8   0.1126   0.1599   0.2958  -0.0903  -0.1604   0.0855   0.00    0.0
2020/10/22 08:58:48.000   1112776.9320  -4341475.9695   4522955.9026   6   8   0.1126   0.1599   0.2958  -0.0903  -0.1604   0.0854   0.00    0.0
2020/10/22 08:58:49.000   1112776.9305  -4341475.9743   4522955.9234   6   8   0.1126   0.1599   0.2957  -0.0903  -0.1604   0.0854   0.00    0.0
2020/10/22 08:58:50.000   1112776.9272  -4341475.9734   4522955.9178   6   8   0.1126   0.1599   0.2957  -0.0903  -0.1603   0.0854   0.00    0.0
2020/10/22 08:58:51.000   1112776.9295  -4341475.9641   4522955.9096   6   8   0.1126   0.1598   0.2957  -0.0903  -0.1603   0.0854   0.00    0.0
2020/10/22 08:58:52.000   1112776.9244  -4341475.9701   4522955.9047   6   8   0.1126   0.1598   0.2957  -0.0903  -0.1603   0.0854   0.00    0.0
2020/10/22 08:58:53.000   1112776.9189  -4341475.9746   4522955.9118   6   8   0.1126   0.1598   0.2956  -0.0902  -0.1602   0.0854   0.00    0.0
2020/10/22 08:58:54.000   1112776.9202  -4341475.9746   4522955.9165   6   8   0.1126   0.1598   0.2956  -0.0902  -0.1602   0.0853   0.00    0.0
2020/10/22 08:58:55.000   1112776.9208  -4341475.9688   4522955.9054   6   8   0.1126   0.1598   0.2956  -0.0902  -0.1602   0.0853   0.00    0.0
2020/10/22 08:58:56.000   1112776.9224  -4341475.9721   4522955.9231   6   8   0.1126   0.1598   0.2955  -0.0902  -0.1602   0.0853   0.00    0.0
2020/10/22 08:58:57.000   1112776.9243  -4341475.9792   4522955.9196   6   8   0.1126   0.1598   0.2955  -0.0902  -0.1601   0.0853   0.00    0.0
2020/10/22 08:58:58.000   1112776.9149  -4341475.9746   4522955.9176   6   8   0.1126   0.1597   0.2955  -0.0902  -0.1601   0.0853   0.00    0.0
2020/10/22 08:58:59.000   1112776.9276  -4341475.9852   4522955.9276   6   8   0.1126   0.1597   0.2955  -0.0902  -0.1601   0.0853   0.00    0.0
2020/10/22 08:59:00.000   1112776.9176  -4341475.9731   4522955.9228   6   8   0.1126   0.1597   0.2954  -0.0902  -0.1601   0.0853   0.00    0.0
2020/10/22 08:59:01.000   1112776.9288  -4341475.9892   4522955.9441   6   8   0.1126   0.1597   0.2954  -0.0902  -0.1600   0.0852   0.00    0.0
2020/10/22 08:59:02.000   1112776.9268  -4341475.9855   4522955.9309   6   8   0.1126   0.1597   0.2954  -0.0902  -0.1600   0.0852   0.00    0.0
2020/10/22 08:59:03.000   1112776.9212  -4341475.9800   4522955.9318   6   8   0.1126   0.1597   0.2954  -0.0902  -0.1600   0.0852   0.00    0.0
2020/10/22 08:59:04.000   1112776.9246  -4341475.9811   4522955.9217   6   8   0.1126   0.1596   0.2953  -0.0902  -0.1599   0.0852   0.00    0.0
2020/10/22 08:59:05.000   1112776.9191  -4341475.9823   4522955.9275   6   8   0.1126   0.1596   0.2953  -0.0902  -0.1599   0.0852   0.00    0.0
2020/10/22 08:59:06.000   1112776.9289  -4341475.9867   4522955.9334   6   8   0.1126   0.1596   0.2953  -0.0902  -0.1599   0.0852   0.00    0.0
2020/10/22 08:59:07.000   1112776.9228  -4341475.9792   4522955.9141   6   8   0.1126   0.1596   0.2952  -0.0902  -0.1599   0.0851   0.00    0.0
2020/10/22 08:59:08.000   1112776.9304  -4341475.9844   4522955.9205   6   8   0.1127   0.1596   0.2952  -0.0902  -0.1598   0.0851   0.00    0.0
2020/10/22 08:59:09.000   1112776.9389  -4341475.9899   4522955.9148   6   8   0.1127   0.1596   0.2952  -0.0902  -0.1598   0.0851   0.00    0.0
2020/10/22 08:59:10.000   1112776.9317  -4341475.9774   4522955.9164   6   8   0.1127   0.1596   0.2952  -0.0902  -0.1598   0.0851   0.00    0.0
2020/10/22 08:59:11.000   1112776.9284  -4341475.9830   4522955.9157   6   8   0.1127   0.1595   0.2951  -0.0902  -0.1598   0.0851   0.00    0.0
2020/10/22 08:59:12.000   1112776.9274  -4341475.9689   4522955.8957   6   8   0.1127   0.1595   0.2951  -0.0902  -0.1597   0.0851   0.00    0.0
2020/10/22 08:59:13.000   1112776.9327  -4341475.9929   4522955.9201   6   8   0.1127   0.1595   0.2951  -0.0902  -0.1597   0.0851   0.00    0.0
2020/10/22 08:59:14.000   1112776.9252  -4341475.9781   4522955.9098   6   8   0.1127   0.1595   0.2950  -0.0902  -0.1597   0.0850   0.00    0.0
2020/10/22 08:59:15.000   1112776.9139  -4341475.9660   4522955.9060   6   8   0.1127   0.1595   0.2950  -0.0902  -0.1596   0.0850   0.00    0.0
2020/10/22 08:59:16.000   1112776.9232  -4341475.9688   4522955.8969   6   8   0.1127   0.1595   0.2950  -0.0902  -0.1596   0.0850   0.00    0.0
2020/10/22 08:59:17.000   1112776.9171  -4341475.9701   4522955.9112   6   8   0.1127   0.1595   0.2950  -0.0901  -0.1596   0.0850   0.00    0.0
2020/10/22 08:59:18.000   1112776.9180  -4341475.9776   4522955.9227   6   8   0.1127   0.1594   0.2949  -0.0901  -0.1596   0.0850   0.00    0.0
2020/10/22 08:59:19.000   1112776.9116  -4341475.9671   4522955.8905   6   8   0.1127   0.1594   0.2949  -0.0901  -0.1595   0.0850   0.00    0.0
2020/10/22 08:59:20.000   1112776.9146  -4341475.9641   4522955.8897   6   8   0.1127   0.1594   0.2949  -0.0901  -0.1595   0.0849   0.00    0.0
2020/10/22 08:59:21.000   1112776.9113  -4341475.9600   4522955.8895   6   8   0.1127   0.1594   0.2948  -0.0901  -0.1595   0.0849   0.00    0.0
2020/10/22 08:59:22.000   1112776.9125  -4341475.9558   4522955.8821   6   8   0.1127   0.1594   0.2948  -0.0901  -0.1595   0.0849   0.00    0.0
2020/10/22 08:59:23.000   1112776.9129  -4341475.9587   4522955.8866   6   8   0.1127   0.1594   0.2948  -0.0901  -0.1594   0.0849   0.00    0.0
2020/10/22 08:59:24.000   1112777.0342  -4341476.0327   4522955.9227   6   8   0.1127   0.1593   0.2948  -0.0901  -0.1594   0.0849   0.00    0.0
2020/10/22 08:59:25.000   1112777.0384  -4341476.0455   4522955.9195   6   8   0.1127   0.1593   0.2947  -0.0901  -0.1594   0.0849   0.00    0.0
2020/10/22 08:59:26.000   1112777.0359  -4341476.0352   4522955.9209   6   8   0.1127   0.1593   0.2947  -0.0901  -0.1593   0.0848   0.00    0.0
2020/10/22 08:59:27.000   1112777.0282  -4341476.0317   4522955.9100   6   8   0.1127   0.1593   0.2947  -0.0901  -0.1593   0.0848   0.00    0.0
2020/10/22 08:59:28.000   1112777.0285  -4341476.0257   4522955.9194   6   8   0.1127   0.1593   0.2946  -0.0901  -0.1593   0.0848   0.00    0.0
2020/10/22 08:59:29.000   1112776.9052  -4341475.9455   4522955.8870   6   8   0.1127   0.1593   0.2946  -0.0901  -0.1593   0.0848   0.00    0.0
2020/10/22 08:59:30.000   1112776.9064  -4341475.9526   4522955.8958   6   8   0.1127   0.1593   0.2946  -0.0901  -0.1592   0.0848   0.00    0.0
2020/10/22 08:59:31.000   1112776.8994  -4341475.9449   4522955.8965   6   8   0.1127   0.1592   0.2946  -0.0901  -0.1592   0.0848   0.00    0.0
2020/10/22 08:59:32.000   1112776.8983  -4341475.9378   4522955.8808   6   8   0.1127   0.1592   0.2945  -0.0901  -0.1592   0.0847   0.00    0.0
2020/10/22 08:59:33.000   1112776.8978  -4341475.9343   4522955.8854   6   8   0.1127   0.1592   0.2945  -0.0901  -0.1592   0.0847   0.00    0.0
2020/10/22 08:59:34.000   1112776.9017  -4341475.9322   4522955.8951   6   8   0.1127   0.1592   0.2945  -0.0901  -0.1591   0.0847   0.00    0.0
2020/10/22 08:59:35.000   1112776.9108  -4341475.9387   4522955.8907   6   8   0.1127   0.1592   0.2944  -0.0901  -0.1591   0.0847   0.00    0.0
2020/10/22 08:59:36.000   1112776.9070  -4341475.9388   4522955.8876   6   8   0.1128   0.1592   0.2944  -0.0901  -0.1591   0.0847   0.00    0.0
2020/10/22 08:59:37.000   1112776.9116  -4341475.9371   4522955.8851   6   8   0.1128   0.1592   0.2944  -0.0901  -0.1590   0.0847   0.00    0.0
2020/10/22 08:59:38.000   1112776.9085  -4341475.9337   4522955.8867   6   8   0.1128   0.1591   0.2944  -0.0901  -0.1590   0.0846   0.00    0.0
2020/10/22 08:59:39.000   1112776.9016  -4341475.9304   4522955.8888   6   8   0.1128   0.1591   0.2943  -0.0901  -0.1590   0.0846   0.00    0.0
2020/10/22 08:59:40.000   1112776.8983  -4341475.9362   4522955.8980   6   8   0.1128   0.1591   0.2943  -0.0900  -0.1590   0.0846   0.00    0.0
2020/10/22 08:59:41.000   1112776.8978  -4341475.9213   4522955.9003   6   8   0.1128   0.1591   0.2943  -0.0900  -0.1589   0.0846   0.00    0.0
2020/10/22 08:59:42.000   1112776.8957  -4341475.9104   4522955.8881   6   8   0.1128   0.1591   0.2942  -0.0900  -0.1589   0.0846   0.00    0.0
2020/10/22 08:59:43.000   1112776.9011  -4341475.9275   4522955.8929   6   8   0.1128   0.1591   0.2942  -0.0900  -0.1589   0.0846   0.00    0.0
2020/10/22 08:59:44.000   1112776.9165  -4341475.9283   4522955.9052   6   8   0.1128   0.1590   0.2942  -0.0900  -0.1588   0.0846   0.00    0.0
2020/10/22 08:59:45.000   1112776.9144  -4341475.9210   4522955.8893   6   8   0.1128   0.1590   0.2942  -0.0900  -0.1588   0.0845   0.00    0.0
2020/10/22 08:59:46.000   1112776.9108  -4341475.9180   4522955.8733   6   8   0.1128   0.1590   0.2941  -0.0900  -0.1588   0.0845   0.00    0.0
2020/10/22 08:59:47.000   1112776.9067  -4341475.9133   4522955.8729   6   8   0.1128   0.1590   0.2941  -0.0900  -0.1588   0.0845   0.00    0.0
2020/10/22 08:59:48.000   1112776.9073  -4341475.9072   4522955.8713   6   8   0.1128   0.1590   0.2941  -0.0900  -0.1587   0.0845   0.00    0.0
2020/10/22 08:59:49.000   1112776.9095  -4341475.8965   4522955.8342   6   8   0.1128   0.1590   0.2940  -0.0900  -0.1587   0.0845   0.00    0.0
2020/10/22 08:59:50.000   1112776.9077  -4341475.8948   4522955.8452   6   8   0.1128   0.1590   0.2940  -0.0900  -0.1587   0.0845   0.00    0.0
2020/10/22 08:59:51.000   1112776.9083  -4341475.8988   4522955.8514   6   8   0.1128   0.1589   0.2940  -0.0900  -0.1587   0.0844   0.00    0.0
2020/10/22 08:59:52.000   1112776.9097  -4341475.8971   4522955.8448   6   8   0.1128   0.1589   0.2939  -0.0900  -0.1586   0.0844   0.00    0.0
2020/10/22 08:59:53.000   1112776.9091  -4341475.8944   4522955.8279   6   8   0.1128   0.1589   0.2939  -0.0900  -0.1586   0.0844   0.00    0.0
2020/10/22 08:59:54.000   1112777.0205  -4341475.9703   4522955.8331   6   8   0.1128   0.1589   0.2939  -0.0900  -0.1586   0.0844   0.00    0.0
2020/10/22 08:59:55.000   1112777.0208  -4341475.9613   4522955.8332   6   8   0.1128   0.1589   0.2939  -0.0900  -0.1585   0.0844   0.00    0.0
2020/10/22 08:59:56.000   1112777.0185  -4341475.9625   4522955.8299   6   8   0.1128   0.1589   0.2938  -0.0900  -0.1585   0.0844   0.00    0.0
2020/10/22 08:59:57.000   1112777.0249  -4341475.9565   4522955.8140   6   8   0.1128   0.1589   0.2938  -0.0900  -0.1585   0.0843   0.00    0.0
2020/10/22 08:59:58.000   1112777.0262  -4341475.9618   4522955.8170   6   8   0.1128   0.1588   0.2938  -0.0900  -0.1585   0.0843   0.00    0.0
2020/10/22 08:59:59.000   1112776.9202  -4341475.9126   4522955.8394   6   8   0.1128   0.1588   0.2937  -0.0900  -0.1584   0.0843   0.00    0.0
2020/10/22 09:00:00.000   1112776.9238  -4341475.9157   4522955.8465   6   8   0.1128   0.1588   0.2937  -0.0900  -0.1584   0.0843   0.00    0.0
2020/10/22 09:00:01.000   1112776.9237  -4341475.9165   4522955.8324   6   8   0.1128   0.1588   0.2937  -0.0900  -0.1584   0.0843   0.00    0.0
2020/10/22 09:00:02.000   1112776.9115  -4341475.9080   4522955.8348   6   8   0.1128   0.1588   0.2936  -0.0900  -0.1583   0.0843   0.00    0.0
2020/10/22 09:00:03.000   1112776.9094  -4341475.9023   4522955.8063   6   8   0.1128   0.1588   0.2936  -0.0900  -0.1583   0.0842   0.00    0.0
2020/10/22 09:00:04.000   1112776.9178  -4341475.9156   4522955.8247   6   8   0.1128   0.1587   0.2936  -0.0899  -0.1583   0.0842   0.00    0.0
2020/10/22 09:00:05.000   1112776.9021  -4341475.9042   4522955.8104   6   8   0.1129   0.1587   0.2936  -0.0899  -0.1583   0.0842   0.00    0.0
2020/10/22 09:00:06.000   1112776.9004  -4341475.9029   4522955.8020   6   8   0.1129   0.1587   0.2935  -0.0899  -0.1582   0.0842   0.00    0.0
2020/10/22 09:00:07.000   1112776.9091  -4341475.9079   4522955.8181   6   8   0.1129   0.1587   0.2935  -0.0899  -0.1582   0.0842   0.00    0.0
2020/10/22 09:00:08.000   1112776.9054  -4341475.9084   4522955.8268   6   8   0.1129   0.1587   0.2935  -0.0899  -0.1582   0.0842   0.00    0.0
2020/10/22 09:00:09.000   1112777.0221  -4341475.9902   4522955.8107   6   8   0.1129   0.1587   0.2934  -0.0899  -0.1582   0.0841   0.00    0.0
2020/10/22 09:00:10.000   1112777.0210  -4341475.9933   4522955.8258   6   8   0.1129   0.1587   0.2934  -0.0899  -0.1581   0.0841   0.00    0.0
2020/10/22 09:00:11.000   1112777.0147  -4341475.9817   4522955.8129   6   8   0.1129   0.1586   0.2934  -0.0899  -0.1581   0.0841   0.00    0.0
2020/10/22 09:00:12.000   1112777.0171  -4341475.9889   4522955.8103   6   8   0.1129   0.1586   0.2933  -0.0899  -0.1581   0.0841   0.00    0.0
2020/10/22 09:00:13.000   1112777.0207  -4341475.9900   4522955.8066   6   8   0.1129   0.1586   0.2933  -0.0899  -0.1580   0.0841   0.00    0.0
2020/10/22 09:00:14.000   1112776.9164  -4341475.9295   4522955.8080   6   8   0.1129   0.1586   0.2933  -0.0899  -0.1580   0.0841   0.00    0.0
2020/10/22 09:00:15.000   1112776.9102  -4341475.9275   4522955.8193   6   8   0.1129   0.1586   0.2933  -0.0899  -0.1580   0.0840   0.00    0.0
2020/10/22 09:00:16.000   1112776.9016  -4341475.9189   4522955.7936   6   8   0.1129   0.1586   0.2932  -0.0899  -0.1580   0.0840   0.00    0.0
2020/10/22 09:00:17.000   1112776.9034  -4341475.9201   4522955.8005   6   8   0.1129   0.1586   0.2932  -0.0899  -0.1579   0.0840   0.00    0.0
2020/10/22 09:00:18.000   1112776.9082  -4341475.9293   4522955.8009   6   8   0.1129   0.1585   0.2932  -0.0899  -0.1579   0.0840   0.00    0.0
2020/10/22 09:00:19.000   1112776.9019  -4341475.9289   4522955.7925   6   8   0.1129   0.1585   0.2931  -0.0899  -0.1579   0.0840   0.00    0.0
2020/10/22 09:00:20.000   1112776.8998  -4341475.9263   4522955.7879   6   8   0.1129   0.1585   0.2931  -0.0899  -0.1578   0.0840   0.00    0.0
2020/10/22 09:00:21.000   1112776.9008  -4341475.9211   4522955.7771   6   8   0.1129   0.1585   0.2931  -0.0899  -0.1578   0.0839   0.00    0.0
