%  GPST                      x-ecef(m)      y-ecef(m)      z-ecef(m)   Q  ns   sdx(m)   sdy(m)   sdz(m)  sdxy(m)  sdyz(m)  sdzx(m) age(s)  ratio
2020/10/22 07:17:47.000   1112776.9461  -4341475.9071   4522955.8833   6   6   0.0001   0.0001   0.0001  -0.0000  -0.0000  -0.0000   0.00    0.0
2020/10/22 07:17:48.000   1112776.9461  -4341475.9071   4522955.8833   6   6   0.0001   0.0001   0.0001  -0.0000  -0.0000  -0.0000   0.00    0.0
2020/10/22 07:17:49.000   1112776.9461  -4341475.9071   4522955.8833   6   6   0.0001   0.0001   0.0001  -0.0000  -0.0000  -0.0000   0.00    0.0
2020/10/22 07:17:50.000   1112776.9461  -4341475.9071   4522955.8833   6   6   0.0001   0.0001   0.0001  -0.0000  -0.0000  -0.0000   0.00    0.0
2020/10/22 07:17:51.000   1112776.9461  -4341475.9071   4522955.8833   6   6   0.0001   0.0001   0.0001  -0.0000  -0.0000  -0.0000   0.00    0.0
2020/10/22 07:17:52.000   1112776.9461  -4341475.9071   4522955.8833   6   6   0.0001   0.0001   0.0001  -0.0000  -0.0000  -0.0000   0.00    0.0
2020/10/22 07:17:53.000   1112776.9461  -4341475.9071   4522955.8833   6   6   0.0001   0.0001   0.0001  -0.0000  -0.0000  -0.0000   0.00    0.0
2020/10/22 07:17:54.000   1112776.9461  -4341475.9071   4522955.8833   6   6   0.0001   0.0001   0.0001  -0.0000  -0.0000  -0.0000   0.00    0.0
2020/10/22 07:17:55.000   1112776.9461  -4341475.9071   4522955.8833   6   6   0.0001   0.0001   0.0001  -0.0000  -0.0000  -0.0000   0.00    0.0
2020/10/22 07:17:56.000   1112776.9461  -4341475.9071   4522955.8833   6   6   0.0001   0.0001   0.0001  -0.0000  -0.0000  -0.0000   0.00    0.0
2020/10/22 07:17:57.000   1112776.9461  -4341475.9071   4522955.8833   6   6   0.0001   0.0001   0.0001  -0.0000  -0.0000  -0.0000   0.00    0.0
2020/10/22 07:17:58.000   1112776.9461  -4341475.9071   4522955.8833   6   6   0.0001   0.0001   0.0001  -0.0000  -0.0000  -0.0000   0.00    0.0
2020/10/22 07:17:59.000   1112776.9461  -4341475.9071   4522955.8833   6   6   0.0001   0.0001   0.0001  -0.0000  -0.0000  -0.0000   0.00    0.0
2020/10/22 07:18:00.000   1112776.9461  -4341475.9071   4522955.8833   6   6   0.0001   0.0001   0.0001  -0.0000  -0.0000  -0.0000   0.00    0.0
2020/10/22 07:18:01.000   1112776.9461  -4341475.9071   4522955.8833   6   6   0.0001   0.0001   0.0001  -0.0000  -0.0000  -0.0000   0.00    0.0
2020/10/22 07:18:02.000   1112776.9461  -4341475.9071   4522955.8833   6   6   0.0001   0.0001   0.0001  -0.0000  -0.0000  -0.0000   0.00    0.0
2020/10/22 07:18:03.000   1112776.9693  -4341475.9327   4522955.8823   6   6   0.4969   0.4394   0.1858  -0.4497  -0.2348   0.2229   0.00    0.0
2020/10/22 07:18:04.000   1112776.9380  -4341475.8992   4522955.8718   6   6   0.4971   0.4396   0.1858  -0.4499  -0.2348   0.2230   0.00    0.0
2020/10/22 07:18:05.000   1112776.9550  -4341475.9090   4522955.8624   6   6   0.4973   0.4397   0.1858  -0.4501  -0.2348   0.2230   0.00    0.0
2020/10/22 07:18:06.000   1112776.9724  -4341475.9203   4522955.8663   6   6   0.4976   0.4399   0.1858  -0.4503  -0.2349   0.2231   0.00    0.0
2020/10/22 07:18:07.000   1112776.9718  -4341475.9143   4522955.8552   6   6   0.4978   0.4400   0.1858  -0.4505  -0.2349   0.2231   0.00    0.0
2020/10/22 07:18:08.000   1112776.9529  -4341475.8917   4522955.8537   6   6   0.4981   0.4402   0.1857  -0.4507  -0.2349   0.2232   0.00    0.0
2020/10/22 07:18:09.000   1112776.9722  -4341475.9152   4522955.8600   6   6   0.4983   0.4404   0.1857  -0.4509  -0.2350   0.2232   0.00    0.0
2020/10/22 07:18:10.000   1112776.9815  -4341475.9146   4522955.8634   6   6   0.4986   0.4405   0.1857  -0.4511  -0.2350   0.2233   0.00    0.0
2020/10/22 07:18:11.000   1112776.9978  -4341475.9332   4522955.8712   6   6   0.4988   0.4407   0.1857  -0.4514  -0.2350   0.2233   0.00    0.0
2020/10/22 07:18:12.000   1112776.9989  -4341475.9286   4522955.8599   6   6   0.4990   0.4408   0.1857  -0.4516  -0.2351   0.2234   0.00    0.0
2020/10/22 07:18:13.000   1112777.0164  -4341475.9373   4522955.8483   6   6   0.4993   0.4410   0.1857  -0.4518  -0.2351   0.2234   0.00    0.0
2020/10/22 07:18:14.000   1112776.9935  -4341475.9205   4522955.8520   6   6   0.4995   0.4412   0.1857  -0.4520  -0.2351   0.2235   0.00    0.0
2020/10/22 07:18:15.000   1112776.9841  -4341475.9227   4522955.8525   6   6   0.4998   0.4413   0.1857  -0.4522  -0.2352   0.2236   0.00    0.0
2020/10/22 07:18:16.000   1112776.9886  -4341475.9345   4522955.8543   6   6   0.5000   0.4415   0.1857  -0.4524  -0.2352   0.2236   0.00    0.0
2020/10/22 07:18:17.000   1112776.9851  -4341475.9234   4522955.8458   6   6   0.5003   0.4417   0.1857  -0.4526  -0.2352   0.2237   0.00    0.0
2020/10/22 07:18:18.000   1112777.0175  -4341475.9381   4522955.8430   6   6   0.5005   0.4418   0.1856  -0.4528  -0.2353   0.2237   0.00    0.0
2020/10/22 07:18:19.000   1112776.9957  -4341475.9223   4522955.8453   6   6   0.5008   0.4420   0.1856  -0.4530  -0.2353   0.2238   0.00    0.0
2020/10/22 07:18:20.000   1112777.0197  -4341475.9367   4522955.8419   6   6   0.5010   0.4421   0.1856  -0.4532  -0.2354   0.2238   0.00    0.0
2020/10/22 07:18:21.000   1112777.0231  -4341475.9530   4522955.8534   6   6   0.5013   0.4423   0.1856  -0.4534  -0.2354   0.2239   0.00    0.0
2020/10/22 07:18:22.000   1112777.0284  -4341475.9434   4522955.8427   6   6   0.5015   0.4425   0.1856  -0.4536  -0.2354   0.2239   0.00    0.0
2020/10/22 07:18:23.000   1112777.0361  -4341475.9457   4522955.8422   6   6   0.5017   0.4426   0.1856  -0.4539  -0.2355   0.2240   0.00    0.0
2020/10/22 07:18:24.000   1112777.0103  -4341475.9461   4522955.8562   6   6   0.5020   0.4428   0.1856  -0.4541  -0.2355   0.2240   0.00    0.0
2020/10/22 07:18:25.000   1112777.0385  -4341475.9508   4522955.8486   6   6   0.5022   0.4430   0.1856  -0.4543  -0.2355   0.2241   0.00    0.0
2020/10/22 07:18:26.000   1112777.0404  -4341475.9686   4522955.8489   6   6   0.5025   0.4431   0.1856  -0.4545  -0.2356   0.2242   0.00    0.0
2020/10/22 07:18:27.000   1112777.0347  -4341475.9690   4522955.8546   6   6   0.5027   0.4433   0.1856  -0.4547  -0.2356   0.2242   0.00    0.0
2020/10/22 07:18:28.000   1112777.0996  -4341475.9560   4522955.8329   6   6   0.5030   0.4435   0.1856  -0.4549  -0.2356   0.2243   0.00    0.0
2020/10/22 07:18:29.000   1112777.1003  -4341475.9521   4522955.8459   6   6   0.5032   0.4436   0.1856  -0.4551  -0.2357   0.2243   0.00    0.0
2020/10/22 07:18:30.000   1112777.0798  -4341475.9450   4522955.8440   6   6   0.5035   0.4438   0.1856  -0.4553  -0.2357   0.2244   0.00    0.0
2020/10/22 07:18:31.000   1112777.0660  -4341475.9745   4522955.8110   6   6   0.5037   0.4440   0.1856  -0.4555  -0.2358   0.2244   0.00    0.0
2020/10/22 07:18:32.000   1112777.0664  -4341475.9832   4522955.8170   6   6   0.5040   0.4441   0.1856  -0.4558  -0.2358   0.2245   0.00    0.0
2020/10/22 07:18:33.000   1112777.0679  -4341475.9808   4522955.8265   6   6   0.5042   0.4443   0.1856  -0.4560  -0.2358   0.2245   0.00    0.0
2020/10/22 07:18:34.000   1112777.0538  -4341475.9723   4522955.8247   6   6   0.5045   0.4445   0.1856  -0.4562  -0.2359   0.2246   0.00    0.0
2020/10/22 07:18:35.000   1112777.0851  -4341476.0024   4522955.8349   6   6   0.5047   0.4446   0.1855  -0.4564  -0.2359   0.2247   0.00    0.0
2020/10/22 07:18:36.000   1112777.0975  -4341476.0155   4522955.8388   6   6   0.5050   0.4448   0.1855  -0.4566  -0.2360   0.2247   0.00    0.0
2020/10/22 07:18:37.000   1112777.0838  -4341476.0006   4522955.8379   6   6   0.5052   0.4450   0.1855  -0.4568  -0.2360   0.2248   0.00    0.0
2020/10/22 07:18:38.000   1112777.0784  -4341476.0009   4522955.8418   6   6   0.5055   0.4451   0.1855  -0.4570  -0.2360   0.2248   0.00    0.0
2020/10/22 07:18:39.000   1112777.1064  -4341476.0204   4522955.8532   6   6   0.5057   0.4453   0.1855  -0.4573  -0.2361   0.2249   0.00    0.0
2020/10/22 07:18:40.000   1112777.0620  -4341475.9855   4522955.8492   6   6   0.5060   0.4455   0.1855  -0.4575  -0.2361   0.2249   0.00    0.0
2020/10/22 07:18:41.000   1112777.0529  -4341475.9791   4522955.8512   6   6   0.5062   0.4456   0.1855  -0.4577  -0.2362   0.2250   0.00    0.0
2020/10/22 07:18:42.000   1112777.0508  -4341475.9665   4522955.8423   6   6   0.5065   0.4458   0.1855  -0.4579  -0.2362   0.2251   0.00    0.0
2020/10/22 07:18:43.000   1112777.0773  -4341475.9881   4522955.8582   6   6   0.5067   0.4460   0.1855  -0.4581  -0.2362   0.2251   0.00    0.0
2020/10/22 07:18:44.000   1112777.0612  -4341475.9747   4522955.8466   6   6   0.5070   0.4462   0.1855  -0.4583  -0.2363   0.2252   0.00    0.0
2020/10/22 07:18:45.000   1112777.0595  -4341475.9794   4522955.8531   6   6   0.5072   0.4463   0.1855  -0.4585  -0.2363   0.2252   0.00    0.0
2020/10/22 07:18:46.000   1112777.0622  -4341475.9792   4522955.8528   6   6   0.5075   0.4465   0.1855  -0.4588  -0.2364   0.2253   0.00    0.0
2020/10/22 07:18:47.000   1112777.1121  -4341475.9762   4522955.8961   6   6   0.5078   0.4467   0.1855  -0.4590  -0.2364   0.2253   0.00    0.0
2020/10/22 07:18:48.000   1112777.0970  -4341475.9600   4522955.8946   6   6   0.5080   0.4468   0.1855  -0.4592  -0.2364   0.2254   0.00    0.0
2020/10/22 07:18:49.000   1112777.1075  -4341475.9706   4522955.8887   6   6   0.5083   0.4470   0.1855  -0.4594  -0.2365   0.2255   0.00    0.0
2020/10/22 07:18:50.000   1112777.0967  -4341475.9620   4522955.8965   6   6   0.5085   0.4472   0.1855  -0.4596  -0.2365   0.2255   0.00    0.0
2020/10/22 07:18:51.000   1112777.0840  -4341475.9630   4522955.9001   6   6   0.5088   0.4474   0.1855  -0.4598  -0.2366   0.2256   0.00    0.0
2020/10/22 07:18:52.000   1112777.0807  -4341476.0018   4522955.8532   6   6   0.5090   0.4475   0.1855  -0.4601  -0.2366   0.2256   0.00    0.0
2020/10/22 07:18:53.000   1112777.0539  -4341475.9746   4522955.8574   6   6   0.5093   0.4477   0.1855  -0.4603  -0.2366   0.2257   0.00    0.0
2020/10/22 07:18:54.000   1112777.0730  -4341475.9848   4522955.8551   6   6   0.5095   0.4479   0.1855  -0.4605  -0.2367   0.2257   0.00    0.0
2020/10/22 07:18:55.000   1112777.0878  -4341476.0055   4522955.8686   6   6   0.5098   0.4480   0.1855  -0.4607  -0.2367   0.2258   0.00    0.0
2020/10/22 07:18:56.000   1112777.0659  -4341475.9876   4522955.8623   6   6   0.5100   0.4482   0.1855  -0.4609  -0.2368   0.2259   0.00    0.0
2020/10/22 07:18:57.000   1112777.1349  -4341475.9855   4522955.9005   6   6   0.5103   0.4484   0.1855  -0.4611  -0.2368   0.2259   0.00    0.0
2020/10/22 07:18:58.000   1112777.1287  -4341475.9851   4522955.8967   6   6   0.5106   0.4486   0.1855  -0.4614  -0.2369   0.2260   0.00    0.0
2020/10/22 07:18:59.000   1112777.1289  -4341475.9942   4522955.9048   6   6   0.5108   0.4487   0.1855  -0.4616  -0.2369   0.2260   0.00    0.0
2020/10/22 07:19:00.000   1112777.1437  -4341475.9980   4522955.9067   6   6   0.5111   0.4489   0.1855  -0.4618  -0.2369   0.2261   0.00    0.0
2020/10/22 07:19:01.000   1112777.1243  -4341475.9422   4522955.8714   6   5   0.5411   0.5711   0.2352  -0.5253  -0.3274   0.2770   0.00    0.0
2020/10/22 07:19:02.000   1112777.1329  -4341475.9478   4522955.8696   6   5   0.5413   0.5712   0.2352  -0.5254  -0.3274   0.2771   0.00    0.0
2020/10/22 07:19:03.000   1112777.1190  -4341475.9375   4522955.8739   6   5   0.5416   0.5713   0.2351  -0.5256  -0.3274   0.2771   0.00    0.0
2020/10/22 07:19:04.000   1112777.1671  -4341476.0019   4522955.8982   6   5   0.5418   0.5714   0.2351  -0.5258  -0.3274   0.2771   0.00    0.0
2020/10/22 07:19:05.000   1112777.1430  -4341475.9590   4522955.8851   6   5   0.5421   0.5715   0.2351  -0.5260  -0.3273   0.2772   0.00    0.0
2020/10/22 07:19:06.000   1112777.1489  -4341475.9670   4522955.8847   6   5   0.5423   0.5716   0.2350  -0.5262  -0.3273   0.2772   0.00    0.0
2020/10/22 07:19:07.000   1112777.1639  -4341475.9340   4522955.8631   6   5   0.5426   0.5717   0.2350  -0.5264  -0.3273   0.2772   0.00    0.0
2020/10/22 07:19:08.000   1112777.1785  -4341475.9800   4522955.8838   6   5   0.5428   0.5718   0.2350  -0.5266  -0.3273   0.2773   0.00    0.0
2020/10/22 07:19:09.000   1112777.1195  -4341475.9288   4522955.8695   6   5   0.5431   0.5719   0.2349  -0.5268  -0.3273   0.2773   0.00    0.0
2020/10/22 07:19:10.000   1112777.1248  -4341475.9039   4522955.8530   6   5   0.5433   0.5720   0.2349  -0.5270  -0.3273   0.2773   0.00    0.0
2020/10/22 07:19:11.000   1112777.1416  -4341475.9324   4522955.8601   6   5   0.5436   0.5721   0.2349  -0.5271  -0.3273   0.2774   0.00    0.0
2020/10/22 07:19:12.000   1112777.1599  -4341475.9459   4522955.8606   6   5   0.5438   0.5722   0.2348  -0.5273  -0.3272   0.2774   0.00    0.0
2020/10/22 07:19:13.000   1112777.1332  -4341475.9193   4522955.8453   6   5   0.5441   0.5723   0.2348  -0.5275  -0.3272   0.2774   0.00    0.0
2020/10/22 07:19:14.000   1112777.1531  -4341475.9148   4522955.8363   6   5   0.5443   0.5724   0.2347  -0.5277  -0.3272   0.2775   0.00    0.0
2020/10/22 07:19:15.000   1112777.2219  -4341475.9940   4522955.8550   6   5   0.5446   0.5725   0.2347  -0.5279  -0.3272   0.2775   0.00    0.0
2020/10/22 07:19:16.000   1112777.1956  -4341475.9549   4522955.8352   6   5   0.5448   0.5726   0.2347  -0.5281  -0.3272   0.2775   0.00    0.0
2020/10/22 07:19:17.000   1112777.1539  -4341476.0020   4522955.8585   6   5   0.5451   0.5727   0.2346  -0.5283  -0.3272   0.2776   0.00    0.0
2020/10/22 07:19:18.000   1112777.1886  -4341476.0308   4522955.8636   6   5   0.5453   0.5728   0.2346  -0.5285  -0.3272   0.2776   0.00    0.0
2020/10/22 07:19:19.000   1112777.1908  -4341476.0221   4522955.8606   6   5   0.5456   0.5729   0.2346  -0.5287  -0.3271   0.2776   0.00    0.0
2020/10/22 07:19:20.000   1112777.1958  -4341476.0362   4522955.8614   6   5   0.5459   0.5730   0.2345  -0.5289  -0.3271   0.2777   0.00    0.0
2020/10/22 07:19:21.000   1112777.1882  -4341476.0184   4522955.8609   6   5   0.5461   0.5731   0.2345  -0.5290  -0.3271   0.2777   0.00    0.0
2020/10/22 07:19:22.000   1112777.2535  -4341475.9831   4522955.8284   6   5   0.5464   0.5732   0.2345  -0.5292  -0.3271   0.2777   0.00    0.0
2020/10/22 07:19:23.000   1112777.2047  -4341475.9416   4522955.8248   6   5   0.5466   0.5733   0.2344  -0.5294  -0.3271   0.2778   0.00    0.0
2020/10/22 07:19:24.000   1112777.2379  -4341475.9892   4522955.8340   6   5   0.5469   0.5734   0.2344  -0.5296  -0.3271   0.2778   0.00    0.0
2020/10/22 07:19:25.000   1112777.2524  -4341475.9881   4522955.8299   6   5   0.5471   0.5735   0.2344  -0.5298  -0.3271   0.2778   0.00    0.0
2020/10/22 07:19:26.000   1112777.2357  -4341475.9733   4522955.8251   6   5   0.5474   0.5736   0.2343  -0.5300  -0.3270   0.2779   0.00    0.0
2020/10/22 07:19:27.000   1112777.2428  -4341475.9879   4522955.8307   6   5   0.5476   0.5737   0.2343  -0.5302  -0.3270   0.2779   0.00    0.0
2020/10/22 07:19:28.000   1112777.2456  -4341475.9829   4522955.8194   6   5   0.5479   0.5738   0.2342  -0.5304  -0.3270   0.2779   0.00    0.0
2020/10/22 07:19:29.000   1112777.2362  -4341475.9616   4522955.8070   6   5   0.5481   0.5739   0.2342  -0.5306  -0.3270   0.2780   0.00    0.0
2020/10/22 07:19:30.000   1112777.2727  -4341476.0193   4522955.8277   6   5   0.5484   0.5740   0.2342  -0.5308  -0.3270   0.2780   0.00    0.0
2020/10/22 07:19:31.000   1112777.2608  -4341475.9818   4522955.8052   6   5   0.5487   0.5741   0.2341  -0.5310  -0.3270   0.2780   0.00    0.0
2020/10/22 07:19:32.000   1112777.2437  -4341475.9767   4522955.8102   6   5   0.5489   0.5742   0.2341  -0.5312  -0.3270   0.2781   0.00    0.0
2020/10/22 07:19:33.000   1112777.2972  -4341476.0089   4522955.8036   6   5   0.5492   0.5743   0.2341  -0.5314  -0.3269   0.2781   0.00    0.0
2020/10/22 07:19:34.000   1112777.3017  -4341476.0184   4522955.8135   6   5   0.5494   0.5744   0.2340  -0.5315  -0.3269   0.2781   0.00    0.0
2020/10/22 07:19:35.000   1112777.3193  -4341476.0195   4522955.8065   6   5   0.5497   0.5745   0.2340  -0.5317  -0.3269   0.2782   0.00    0.0
2020/10/22 07:19:36.000   1112777.3197  -4341476.0190   4522955.8036   6   5   0.5499   0.5746   0.2340  -0.5319  -0.3269   0.2782   0.00    0.0
2020/10/22 07:19:37.000   1112777.3277  -4341476.0378   4522955.8187   6   5   0.5502   0.5747   0.2339  -0.5321  -0.3269   0.2782   0.00    0.0
2020/10/22 07:19:38.000   1112777.2979  -4341476.0084   4522955.8077   6   5   0.5504   0.5748   0.2339  -0.5323  -0.3269   0.2783   0.00    0.0
2020/10/22 07:19:39.000   1112777.3260  -4341476.0439   4522955.8264   6   5   0.5507   0.5749   0.2339  -0.5325  -0.3269   0.2783   0.00    0.0
2020/10/22 07:19:40.000   1112777.2931  -4341476.0233   4522955.8289   6   5   0.5510   0.5750   0.2338  -0.5327  -0.3268   0.2783   0.00    0.0
2020/10/22 07:19:41.000   1112777.3148  -4341476.0395   4522955.8319   6   5   0.5512   0.5751   0.2338  -0.5329  -0.3268   0.2784   0.00    0.0
2020/10/22 07:19:42.000   1112777.3340  -4341476.0458   4522955.8341   6   5   0.5515   0.5752   0.2338  -0.5331  -0.3268   0.2784   0.00    0.0
2020/10/22 07:19:43.000   1112777.3398  -4341476.0604   4522955.8354   6   5   0.5517   0.5753   0.2337  -0.5333  -0.3268   0.2785   0.00    0.0
2020/10/22 07:19:44.000   1112777.3268  -4341476.0285   4522955.8236   6   5   0.5520   0.5754   0.2337  -0.5335  -0.3268   0.2785   0.00    0.0
2020/10/22 07:19:45.000   1112777.3412  -4341476.0638   4522955.8361   6   5   0.5523   0.5755   0.2337  -0.5337  -0.3268   0.2785   0.00    0.0
2020/10/22 07:19:46.000   1112777.3405  -4341476.0671   4522955.8343   6   5   0.5525   0.5756   0.2336  -0.5339  -0.3268   0.2786   0.00    0.0
2020/10/22 07:19:47.000   1112777.3082  -4341476.1255   4522955.8696   6   5   0.5528   0.5757   0.2336  -0.5341  -0.3267   0.2786   0.00    0.0
2020/10/22 07:19:48.000   1112777.3133  -4341476.1148   4522955.8607   6   5   0.5530   0.5758   0.2336  -0.5343  -0.3267   0.2786   0.00    0.0
2020/10/22 07:19:49.000   1112777.2991  -4341476.1016   4522955.8615   6   5   0.5533   0.5759   0.2335  -0.5345  -0.3267   0.2787   0.00    0.0
2020/10/22 07:19:50.000   1112777.2999  -4341476.1162   4522955.8689   6   5   0.5536   0.5760   0.2335  -0.5347  -0.3267   0.2787   0.00    0.0
2020/10/22 07:19:51.000   1112777.2879  -4341476.0974   4522955.8636   6   5   0.5538   0.5761   0.2335  -0.5349  -0.3267   0.2787   0.00    0.0
2020/10/22 07:19:52.000   1112777.3034  -4341476.1084   4522955.8321   6   5   0.5541   0.5762   0.2334  -0.5351  -0.3267   0.2788   0.00    0.0
2020/10/22 07:19:53.000   1112777.2954  -4341476.0768   4522955.8132   6   5   0.5543   0.5763   0.2334  -0.5353  -0.3267   0.2788   0.00    0.0
2020/10/22 07:19:54.000   1112777.3258  -4341476.1278   4522955.8259   6   5   0.5546   0.5764   0.2334  -0.5355  -0.3267   0.2788   0.00    0.0
2020/10/22 07:19:55.000   1112777.3458  -4341476.1511   4522955.8386   6   5   0.5549   0.5765   0.2333  -0.5357  -0.3266   0.2789   0.00    0.0
2020/10/22 07:19:56.000   1112777.3401  -4341476.1537   4522955.8463   6   5   0.5551   0.5767   0.2333  -0.5359  -0.3266   0.2789   0.00    0.0
2020/10/22 07:19:57.000   1112777.3376  -4341476.1756   4522955.8772   6   5   0.5554   0.5768   0.2333  -0.5360  -0.3266   0.2789   0.00    0.0
2020/10/22 07:19:58.000   1112777.3333  -4341476.1760   4522955.8625   6   5   0.5556   0.5769   0.2332  -0.5362  -0.3266   0.2790   0.00    0.0
2020/10/22 07:19:59.000   1112777.3216  -4341476.1585   4522955.8647   6   5   0.5559   0.5770   0.2332  -0.5364  -0.3266   0.2790   0.00    0.0
2020/10/22 07:20:00.000   1112777.3620  -4341476.2047   4522955.8803   6   5   0.5562   0.5771   0.2332  -0.5366  -0.3266   0.2790   0.00    0.0
2020/10/22 07:20:01.000   1112777.3612  -4341476.2006   4522955.8746   6   5   0.5564   0.5772   0.2331  -0.5368  -0.3266   0.2791   0.00    0.0
2020/10/22 07:20:02.000   1112777.3715  -4341476.2478   4522955.9407   6   5   0.5567   0.5773   0.2331  -0.5370  -0.3266   0.2791   0.00    0.0
2020/10/22 07:20:03.000   1112777.3310  -4341476.2098   4522955.9322   6   5   0.5570   0.5774   0.2330  -0.5372  -0.3265   0.2791   0.00    0.0
2020/10/22 07:20:04.000   1112777.3512  -4341476.2331   4522955.9386   6   5   0.5572   0.5775   0.2330  -0.5374  -0.3265   0.2792   0.00    0.0
2020/10/22 07:20:05.000   1112777.3766  -4341476.2610   4522955.9545   6   5   0.5575   0.5776   0.2330  -0.5376  -0.3265   0.2792   0.00    0.0
2020/10/22 07:20:06.000   1112777.3661  -4341476.2447   4522955.9513   6   5   0.5578   0.5777   0.2329  -0.5378  -0.3265   0.2792   0.00    0.0
2020/10/22 07:20:07.000   1112777.3849  -4341476.2457   4522955.8978   6   5   0.5580   0.5778   0.2329  -0.5380  -0.3265   0.2793   0.00    0.0
2020/10/22 07:20:08.000   1112777.4075  -4341476.2670   4522955.8988   6   5   0.5583   0.5779   0.2329  -0.5382  -0.3265   0.2793   0.00    0.0
2020/10/22 07:20:09.000   1112777.4178  -4341476.2823   4522955.9116   6   5   0.5585   0.5780   0.2328  -0.5384  -0.3265   0.2793   0.00    0.0
2020/10/22 07:20:10.000   1112777.3889  -4341476.2360   4522955.8992   6   5   0.5588   0.5781   0.2328  -0.5386  -0.3264   0.2794   0.00    0.0
2020/10/22 07:20:11.000   1112777.4249  -4341476.2949   4522955.9150   6   5   0.5591   0.5782   0.2328  -0.5388  -0.3264   0.2794   0.00    0.0
2020/10/22 07:20:12.000   1112777.3895  -4341476.2587   4522955.9061   6   5   0.5593   0.5784   0.2327  -0.5390  -0.3264   0.2795   0.00    0.0
2020/10/22 07:20:13.000   1112777.4189  -4341476.2728   4522955.9135   6   5   0.5596   0.5785   0.2327  -0.5392  -0.3264   0.2795   0.00    0.0
2020/10/22 07:20:14.000   1112777.4103  -4341476.2843   4522955.9181   6   5   0.5599   0.5786   0.2327  -0.5394  -0.3264   0.2795   0.00    0.0
2020/10/22 07:20:15.000   1112777.4359  -4341476.2964   4522955.9203   6   5   0.5601   0.5787   0.2327  -0.5396  -0.3264   0.2796   0.00    0.0
2020/10/22 07:20:16.000   1112777.4498  -4341476.3035   4522955.9144   6   5   0.5604   0.5788   0.2326  -0.5398  -0.3264   0.2796   0.00    0.0
2020/10/22 07:20:17.000   1112777.4426  -4341476.2975   4522955.9146   6   5   0.5607   0.5789   0.2326  -0.5400  -0.3264   0.2796   0.00    0.0
2020/10/22 07:20:18.000   1112777.4479  -4341476.3051   4522955.9178   6   5   0.5609   0.5790   0.2326  -0.5402  -0.3263   0.2797   0.00    0.0
2020/10/22 07:20:19.000   1112777.4395  -4341476.3091   4522955.9175   6   5   0.5612   0.5791   0.2325  -0.5404  -0.3263   0.2797   0.00    0.0
2020/10/22 07:20:20.000   1112777.4575  -4341476.3278   4522955.9273   6   5   0.5615   0.5792   0.2325  -0.5406  -0.3263   0.2797   0.00    0.0
2020/10/22 07:20:21.000   1112777.4990  -4341476.3481   4522955.9255   6   5   0.5617   0.5793   0.2325  -0.5408  -0.3263   0.2798   0.00    0.0
2020/10/22 07:20:22.000   1112777.4893  -4341476.3490   4522955.9362   6   5   0.5620   0.5794   0.2324  -0.5410  -0.3263   0.2798   0.00    0.0
2020/10/22 07:20:23.000   1112777.4837  -4341476.3337   4522955.9259   6   5   0.5623   0.5795   0.2324  -0.5413  -0.3263   0.2798   0.00    0.0
2020/10/22 07:20:24.000   1112777.4975  -4341476.3681   4522955.9392   6   5   0.5625   0.5797   0.2324  -0.5415  -0.3263   0.2799   0.00    0.0
2020/10/22 07:20:25.000   1112777.4972  -4341476.3442   4522955.9305   6   5   0.5628   0.5798   0.2323  -0.5417  -0.3263   0.2799   0.00    0.0
2020/10/22 07:20:26.000   1112777.4717  -4341476.3243   4522955.9298   6   5   0.5631   0.5799   0.2323  -0.5419  -0.3262   0.2799   0.00    0.0
2020/10/22 07:20:27.000   1112777.4913  -4341476.3377   4522955.9262   6   5   0.5634   0.5800   0.2323  -0.5421  -0.3262   0.2800   0.00    0.0
2020/10/22 07:20:28.000   1112777.4404  -4341476.2852   4522955.9214   6   5   0.5636   0.5801   0.2322  -0.5423  -0.3262   0.2800   0.00    0.0
2020/10/22 07:20:29.000   1112777.4865  -4341476.3494   4522955.9439   6   5   0.5639   0.5802   0.2322  -0.5425  -0.3262   0.2800   0.00    0.0
2020/10/22 07:20:30.000   1112777.4639  -4341476.2997   4522955.9190   6   5   0.5642   0.5803   0.2322  -0.5427  -0.3262   0.2801   0.00    0.0
2020/10/22 07:20:31.000   1112777.4993  -4341476.2770   4522955.9654   6   5   0.5644   0.5804   0.2321  -0.5429  -0.3262   0.2801   0.00    0.0
2020/10/22 07:20:32.000   1112777.4627  -4341476.2336   4522955.9531   6   5   0.5647   0.5805   0.2321  -0.5431  -0.3262   0.2802   0.00    0.0
2020/10/22 07:20:33.000   1112777.4608  -4341476.2423   4522955.9523   6   5   0.5650   0.5806   0.2321  -0.5433  -0.3262   0.2802   0.00    0.0
2020/10/22 07:20:34.000   1112777.4403  -4341476.2081   4522955.9486   6   5   0.5652   0.5808   0.2320  -0.5435  -0.3261   0.2802   0.00    0.0
2020/10/22 07:20:35.000   1112777.4679  -4341476.2443   4522955.9595   6   5   0.5655   0.5809   0.2320  -0.5437  -0.3261   0.2803   0.00    0.0
2020/10/22 07:20:36.000   1112777.4518  -4341476.2330   4522955.9672   6   5   0.5658   0.5810   0.2320  -0.5439  -0.3261   0.2803   0.00    0.0
2020/10/22 07:20:37.000   1112777.4449  -4341476.2291   4522955.9631   6   5   0.5661   0.5811   0.2319  -0.5441  -0.3261   0.2803   0.00    0.0
2020/10/22 07:20:38.000   1112777.4596  -4341476.2334   4522955.9601   6   5   0.5663   0.5812   0.2319  -0.5443  -0.3261   0.2804   0.00    0.0
2020/10/22 07:20:39.000   1112777.4658  -4341476.2492   4522955.9766   6   5   0.5666   0.5813   0.2319  -0.5445  -0.3261   0.2804   0.00    0.0
2020/10/22 07:20:40.000   1112777.4748  -4341476.2767   4522955.9880   6   5   0.5669   0.5814   0.2318  -0.5447  -0.3261   0.2804   0.00    0.0
2020/10/22 07:20:41.000   1112777.4823  -4341476.2683   4522955.9785   6   5   0.5671   0.5815   0.2318  -0.5449  -0.3261   0.2805   0.00    0.0
2020/10/22 07:20:42.000   1112777.4493  -4341476.2557   4522955.9766   6   5   0.5674   0.5816   0.2318  -0.5451  -0.3261   0.2805   0.00    0.0
2020/10/22 07:20:43.000   1112777.4410  -4341476.2312   4522955.9624   6   5   0.5677   0.5818   0.2317  -0.5453  -0.3260   0.2805   0.00    0.0
2020/10/22 07:20:44.000   1112777.4376  -4341476.2084   4522955.9603   6   5   0.5680   0.5819   0.2317  -0.5455  -0.3260   0.2806   0.00    0.0
2020/10/22 07:20:45.000   1112777.4840  -4341476.2466   4522955.9532   6   5   0.5682   0.5820   0.2317  -0.5457  -0.3260   0.2806   0.00    0.0
2020/10/22 07:20:46.000   1112777.4484  -4341476.2368   4522955.9608   6   5   0.5685   0.5821   0.2316  -0.5460  -0.3260   0.2806   0.00    0.0
2020/10/22 07:20:47.000   1112777.4230  -4341476.2620   4522955.9143   6   5   0.5688   0.5822   0.2316  -0.5462  -0.3260   0.2807   0.00    0.0
2020/10/22 07:20:48.000   1112777.4166  -4341476.2493   4522955.9122   6   5   0.5691   0.5823   0.2316  -0.5464  -0.3260   0.2807   0.00    0.0
2020/10/22 07:20:49.000   1112777.4074  -4341476.2590   4522955.9215   6   5   0.5693   0.5824   0.2315  -0.5466  -0.3260   0.2808   0.00    0.0
2020/10/22 07:20:50.000   1112777.4204  -4341476.2776   4522955.9360   6   5   0.5696   0.5825   0.2315  -0.5468  -0.3260   0.2808   0.00    0.0
2020/10/22 07:20:51.000   1112777.4121  -4341476.2529   4522955.9175   6   5   0.5699   0.5827   0.2315  -0.5470  -0.3259   0.2808   0.00    0.0
2020/10/22 07:20:52.000   1112777.4678  -4341476.2483   4522955.9612   6   5   0.5702   0.5828   0.2314  -0.5472  -0.3259   0.2809   0.00    0.0
2020/10/22 07:20:53.000   1112777.4766  -4341476.2634   4522955.9720   6   5   0.5704   0.5829   0.2314  -0.5474  -0.3259   0.2809   0.00    0.0
2020/10/22 07:20:54.000   1112777.4368  -4341476.2209   4522955.9554   6   5   0.5707   0.5830   0.2314  -0.5476  -0.3259   0.2809   0.00    0.0
2020/10/22 07:20:55.000   1112777.4531  -4341476.2591   4522955.9715   6   5   0.5710   0.5831   0.2313  -0.5478  -0.3259   0.2810   0.00    0.0
2020/10/22 07:20:56.000   1112777.4108  -4341476.2165   4522955.9636   6   5   0.5713   0.5832   0.2313  -0.5480  -0.3259   0.2810   0.00    0.0
2020/10/22 07:20:57.000   1112777.4491  -4341476.2400   4522955.9576   6   5   0.5715   0.5833   0.2313  -0.5482  -0.3259   0.2810   0.00    0.0
2020/10/22 07:20:58.000   1112777.4151  -4341476.2677   4522955.9228   6   5   0.5718   0.5834   0.2312  -0.5484  -0.3259   0.2811   0.00    0.0
2020/10/22 07:20:59.000   1112777.4349  -4341476.2909   4522955.9263   6   5   0.5721   0.5836   0.2312  -0.5487  -0.3258   0.2811   0.00    0.0
2020/10/22 07:21:00.000   1112777.4367  -4341476.3043   4522955.9342   6   5   0.5724   0.5837   0.2312  -0.5489  -0.3258   0.2811   0.00    0.0
2020/10/22 07:21:01.000   1112777.4441  -4341476.2992   4522955.9326   6   5   0.5726   0.5838   0.2311  -0.5491  -0.3258   0.2812   0.00    0.0
2020/10/22 07:21:02.000   1112777.4698  -4341476.2734   4522955.9619   6   5   0.5729   0.5839   0.2311  -0.5493  -0.3258   0.2812   0.00    0.0
2020/10/22 07:21:03.000   1112777.5135  -4341476.3057   4522955.9723   6   5   0.5732   0.5840   0.2311  -0.5495  -0.3258   0.2812   0.00    0.0
2020/10/22 07:21:04.000   1112777.5437  -4341476.3253   4522955.9802   6   5   0.5735   0.5841   0.2310  -0.5497  -0.3258   0.2813   0.00    0.0
2020/10/22 07:21:05.000   1112777.4957  -4341476.2796   4522955.9697   6   5   0.5738   0.5842   0.2310  -0.5499  -0.3258   0.2813   0.00    0.0
2020/10/22 07:21:06.000   1112777.5168  -4341476.2823   4522955.9607   6   5   0.5740   0.5844   0.2310  -0.5501  -0.3258   0.2814   0.00    0.0
2020/10/22 07:21:07.000   1112777.5531  -4341476.3294   4522955.9842   6   5   0.5743   0.5845   0.2309  -0.5503  -0.3258   0.2814   0.00    0.0
2020/10/22 07:21:08.000   1112777.5499  -4341476.3066   4522955.9745   6   5   0.5746   0.5846   0.2309  -0.5505  -0.3257   0.2814   0.00    0.0
2020/10/22 07:21:09.000   1112777.5622  -4341476.3289   4522955.9775   6   5   0.5749   0.5847   0.2309  -0.5508  -0.3257   0.2815   0.00    0.0
2020/10/22 07:21:10.000   1112777.5336  -4341476.3044   4522955.9749   6   5   0.5752   0.5848   0.2309  -0.5510  -0.3257   0.2815   0.00    0.0
2020/10/22 07:21:11.000   1112777.5660  -4341476.3342   4522955.9944   6   5   0.5754   0.5849   0.2308  -0.5512  -0.3257   0.2815   0.00    0.0
2020/10/22 07:21:12.000   1112777.5624  -4341476.3181   4522955.9860   6   5   0.5757   0.5851   0.2308  -0.5514  -0.3257   0.2816   0.00    0.0
2020/10/22 07:21:13.000   1112777.5517  -4341476.3089   4522955.9857   6   5   0.5760   0.5852   0.2308  -0.5516  -0.3257   0.2816   0.00    0.0
2020/10/22 07:21:14.000   1112777.5484  -4341476.3373   4522956.0101   6   5   0.5763   0.5853   0.2307  -0.5518  -0.3257   0.2816   0.00    0.0
2020/10/22 07:21:15.000   1112777.5168  -4341476.2742   4522955.9863   6   5   0.5766   0.5854   0.2307  -0.5520  -0.3257   0.2817   0.00    0.0
2020/10/22 07:21:16.000   1112777.5833  -4341476.3530   4522956.0066   6   5   0.5768   0.5855   0.2307  -0.5522  -0.3256   0.2817   0.00    0.0
2020/10/22 07:21:17.000   1112777.6215  -4341476.3739   4522956.0091   6   5   0.5771   0.5856   0.2306  -0.5525  -0.3256   0.2817   0.00    0.0
2020/10/22 07:21:18.000   1112777.6132  -4341476.3651   4522956.0041   6   5   0.5774   0.5858   0.2306  -0.5527  -0.3256   0.2818   0.00    0.0
2020/10/22 07:21:19.000   1112777.5684  -4341476.3222   4522955.9974   6   5   0.5777   0.5859   0.2306  -0.5529  -0.3256   0.2818   0.00    0.0
2020/10/22 07:21:20.000   1112777.5932  -4341476.3404   4522955.9965   6   5   0.5780   0.5860   0.2305  -0.5531  -0.3256   0.2818   0.00    0.0
2020/10/22 07:21:21.000   1112777.6047  -4341476.3588   4522956.0062   6   5   0.5783   0.5861   0.2305  -0.5533  -0.3256   0.2819   0.00    0.0
2020/10/22 07:21:22.000   1112777.6074  -4341476.3497   4522955.9980   6   5   0.5785   0.5862   0.2305  -0.5535  -0.3256   0.2819   0.00    0.0
2020/10/22 07:21:23.000   1112777.6060  -4341476.3666   4522956.0035   6   5   0.5788   0.5863   0.2304  -0.5537  -0.3256   0.2820   0.00    0.0
2020/10/22 07:21:24.000   1112777.6098  -4341476.3438   4522955.9931   6   5   0.5791   0.5865   0.2304  -0.5539  -0.3255   0.2820   0.00    0.0
2020/10/22 07:21:25.000   1112777.6737  -4341476.3928   4522956.0032   6   5   0.5794   0.5866   0.2304  -0.5542  -0.3255   0.2820   0.00    0.0
2020/10/22 07:21:26.000   1112777.6597  -4341476.3952   4522956.0032   6   5   0.5797   0.5867   0.2303  -0.5544  -0.3255   0.2821   0.00    0.0
2020/10/22 07:21:27.000   1112777.3255  -4341476.2458   4522956.0129   6   5   0.5800   0.5868   0.2303  -0.5546  -0.3255   0.2821   0.00    0.0
2020/10/22 07:21:28.000   1112777.3053  -4341476.2195   4522956.0031   6   5   0.5802   0.5869   0.2303  -0.5548  -0.3255   0.2821   0.00    0.0
2020/10/22 07:21:29.000   1112777.2845  -4341476.2008   4522956.0073   6   5   0.5805   0.5871   0.2302  -0.5550  -0.3255   0.2822   0.00    0.0
2020/10/22 07:21:30.000   1112777.2980  -4341476.2309   4522956.0123   6   5   0.5808   0.5872   0.2302  -0.5552  -0.3255   0.2822   0.00    0.0
2020/10/22 07:21:31.000   1112777.2834  -4341476.2044   4522956.0044   6   5   0.5811   0.5873   0.2302  -0.5554  -0.3255   0.2822   0.00    0.0
2020/10/22 07:21:32.000   1112777.6536  -4341476.3628   4522955.9903   6   5   0.5814   0.5874   0.2301  -0.5557  -0.3255   0.2823   0.00    0.0
2020/10/22 07:21:33.000   1112777.6812  -4341476.3711   4522955.9890   6   5   0.5817   0.5875   0.2301  -0.5559  -0.3254   0.2823   0.00    0.0
2020/10/22 07:21:34.000   1112777.6643  -4341476.3560   4522955.9919   6   5   0.5820   0.5877   0.2301  -0.5561  -0.3254   0.2823   0.00    0.0
2020/10/22 07:21:35.000   1112777.6764  -4341476.3748   4522955.9980   6   5   0.5822   0.5878   0.2300  -0.5563  -0.3254   0.2824   0.00    0.0
2020/10/22 07:21:36.000   1112777.6355  -4341476.3420   4522955.9919   6   5   0.5825   0.5879   0.2300  -0.5565  -0.3254   0.2824   0.00    0.0
2020/10/22 07:21:37.000   1112777.6847  -4341476.3945   4522955.9965   6   5   0.5828   0.5880   0.2300  -0.5567  -0.3254   0.2825   0.00    0.0
2020/10/22 07:21:38.000   1112777.6945  -4341476.3804   4522955.9950   6   5   0.5831   0.5881   0.2299  -0.5570  -0.3254   0.2825   0.00    0.0
2020/10/22 07:21:39.000   1112777.6640  -4341476.3581   4522955.9888   6   5   0.5834   0.5882   0.2299  -0.5572  -0.3254   0.2825   0.00    0.0
2020/10/22 07:21:40.000   1112777.6951  -4341476.3730   4522955.9902   6   5   0.5837   0.5884   0.2299  -0.5574  -0.3254   0.2826   0.00    0.0
2020/10/22 07:21:41.000   1112777.7095  -4341476.4124   4522956.0008   6   5   0.5840   0.5885   0.2298  -0.5576  -0.3253   0.2826   0.00    0.0
2020/10/22 07:21:42.000   1112777.6999  -4341476.3874   4522955.9965   6   5   0.5843   0.5886   0.2298  -0.5578  -0.3253   0.2826   0.00    0.0
2020/10/22 07:21:43.000   1112777.7053  -4341476.3999   4522956.0014   6   5   0.5845   0.5887   0.2298  -0.5580  -0.3253   0.2827   0.00    0.0
2020/10/22 07:21:44.000   1112777.6840  -4341476.3841   4522955.9952   6   5   0.5848   0.5889   0.2297  -0.5583  -0.3253   0.2827   0.00    0.0
2020/10/22 07:21:45.000   1112777.6858  -4341476.3744   4522956.0010   6   5   0.5851   0.5890   0.2297  -0.5585  -0.3253   0.2827   0.00    0.0
2020/10/22 07:21:46.000   1112777.7060  -4341476.3822   4522955.9980   6   5   0.5854   0.5891   0.2297  -0.5587  -0.3253   0.2828   0.00    0.0
2020/10/22 07:21:47.000   1112777.7021  -4341476.3798   4522955.9899   6   5   0.5857   0.5892   0.2296  -0.5589  -0.3253   0.2828   0.00    0.0
2020/10/22 07:21:48.000   1112777.7087  -4341476.3950   4522956.0046   6   5   0.5860   0.5893   0.2296  -0.5591  -0.3253   0.2828   0.00    0.0
2020/10/22 07:21:49.000   1112777.7494  -4341476.4394   4522956.0203   6   5   0.5863   0.5895   0.2296  -0.5594  -0.3253   0.2829   0.00    0.0
2020/10/22 07:21:50.000   1112777.7165  -4341476.3977   4522956.0058   6   5   0.5866   0.5896   0.2295  -0.5596  -0.3252   0.2829   0.00    0.0
2020/10/22 07:21:51.000   1112777.6985  -4341476.3753   4522956.0026   6   5   0.5869   0.5897   0.2295  -0.5598  -0.3252   0.2830   0.00    0.0
2020/10/22 07:21:52.000   1112777.3837  -4341476.2907   4522956.0374   6   5   0.5872   0.5898   0.2295  -0.5600  -0.3252   0.2830   0.00    0.0
2020/10/22 07:21:53.000   1112777.3573  -4341476.2784   4522956.0268   6   5   0.5874   0.5899   0.2294  -0.5602  -0.3252   0.2830   0.00    0.0
2020/10/22 07:21:54.000   1112777.3840  -4341476.2681   4522956.0164   6   5   0.5877   0.5901   0.2294  -0.5604  -0.3252   0.2831   0.00    0.0
2020/10/22 07:21:55.000   1112777.3767  -4341476.2597   4522956.0129   6   5   0.5880   0.5902   0.2294  -0.5607  -0.3252   0.2831   0.00    0.0
2020/10/22 07:21:56.000   1112777.3879  -4341476.2812   4522956.0317   6   5   0.5883   0.5903   0.2293  -0.5609  -0.3252   0.2831   0.00    0.0
2020/10/22 07:21:57.000   1112777.7711  -4341476.4514   4522956.0076   6   5   0.5886   0.5904   0.2293  -0.5611  -0.3252   0.2832   0.00    0.0
2020/10/22 07:21:58.000   1112777.7493  -4341476.4662   4522956.0271   6   5   0.5889   0.5906   0.2293  -0.5613  -0.3251   0.2832   0.00    0.0
2020/10/22 07:21:59.000   1112777.7698  -4341476.4595   4522956.0168   6   5   0.5892   0.5907   0.2292  -0.5616  -0.3251   0.2832   0.00    0.0
2020/10/22 07:22:00.000   1112777.7624  -4341476.4524   4522956.0231   6   5   0.5895   0.5908   0.2292  -0.5618  -0.3251   0.2833   0.00    0.0
2020/10/22 07:22:01.000   1112777.7456  -4341476.4421   4522956.0167   6   5   0.5898   0.5909   0.2292  -0.5620  -0.3251   0.2833   0.00    0.0
2020/10/22 07:22:02.000   1112777.7362  -4341476.4357   4522956.0249   6   5   0.5901   0.5911   0.2291  -0.5622  -0.3251   0.2833   0.00    0.0
2020/10/22 07:22:03.000   1112777.7449  -4341476.4572   4522956.0313   6   5   0.5904   0.5912   0.2291  -0.5624  -0.3251   0.2834   0.00    0.0
2020/10/22 07:22:04.000   1112777.7150  -4341476.4300   4522956.0205   6   5   0.5907   0.5913   0.2291  -0.5627  -0.3251   0.2834   0.00    0.0
2020/10/22 07:22:05.000   1112777.7613  -4341476.4624   4522956.0256   6   5   0.5910   0.5914   0.2290  -0.5629  -0.3251   0.2835   0.00    0.0
2020/10/22 07:22:06.000   1112777.7261  -4341476.4515   4522956.0349   6   5   0.5913   0.5915   0.2290  -0.5631  -0.3251   0.2835   0.00    0.0
2020/10/22 07:22:07.000   1112777.7184  -4341476.4769   4522955.9913   6   5   0.5916   0.5917   0.2290  -0.5633  -0.3250   0.2835   0.00    0.0
2020/10/22 07:22:08.000   1112777.7082  -4341476.4616   4522955.9817   6   5   0.5919   0.5918   0.2289  -0.5635  -0.3250   0.2836   0.00    0.0
2020/10/22 07:22:09.000   1112777.7315  -4341476.5043   4522955.9978   6   5   0.5921   0.5919   0.2289  -0.5638  -0.3250   0.2836   0.00    0.0
2020/10/22 07:22:10.000   1112777.6908  -4341476.4627   4522955.9908   6   5   0.5924   0.5920   0.2289  -0.5640  -0.3250   0.2836   0.00    0.0
2020/10/22 07:22:11.000   1112777.7040  -4341476.4628   4522955.9829   6   5   0.5927   0.5922   0.2288  -0.5642  -0.3250   0.2837   0.00    0.0
2020/10/22 07:22:12.000   1112777.7572  -4341476.4562   4522956.0226   6   5   0.5930   0.5923   0.2288  -0.5644  -0.3250   0.2837   0.00    0.0
2020/10/22 07:22:13.000   1112777.7481  -4341476.4492   4522956.0280   6   5   0.5933   0.5924   0.2288  -0.5647  -0.3250   0.2837   0.00    0.0
2020/10/22 07:22:14.000   1112777.7449  -4341476.4557   4522956.0229   6   5   0.5936   0.5925   0.2287  -0.5649  -0.3250   0.2838   0.00    0.0
2020/10/22 07:22:15.000   1112777.7912  -4341476.5077   4522956.0400   6   5   0.5939   0.5927   0.2287  -0.5651  -0.3249   0.2838   0.00    0.0
2020/10/22 07:22:16.000   1112777.7534  -4341476.4633   4522956.0236   6   5   0.5942   0.5928   0.2287  -0.5653  -0.3249   0.2838   0.00    0.0
2020/10/22 07:22:17.000   1112777.7291  -4341476.4935   4522955.9909   6   5   0.5945   0.5929   0.2286  -0.5656  -0.3249   0.2839   0.00    0.0
2020/10/22 07:22:18.000   1112777.6913  -4341476.4480   4522955.9723   6   5   0.5948   0.5931   0.2286  -0.5658  -0.3249   0.2839   0.00    0.0
2020/10/22 07:22:19.000   1112777.7271  -4341476.4849   4522955.9846   6   5   0.5951   0.5932   0.2286  -0.5660  -0.3249   0.2840   0.00    0.0
2020/10/22 07:22:20.000   1112777.7607  -4341476.5178   4522955.9856   6   5   0.5954   0.5933   0.2285  -0.5662  -0.3249   0.2840   0.00    0.0
2020/10/22 07:22:21.000   1112777.7451  -4341476.4915   4522955.9908   6   5   0.5957   0.5934   0.2285  -0.5665  -0.3249   0.2840   0.00    0.0
2020/10/22 07:22:22.000   1112777.4179  -4341476.3035   4522956.0296   6   5   0.5960   0.5936   0.2285  -0.5667  -0.3249   0.2841   0.00    0.0
2020/10/22 07:22:23.000   1112777.4486  -4341476.3488   4522956.0419   6   5   0.5963   0.5937   0.2284  -0.5669  -0.3248   0.2841   0.00    0.0
2020/10/22 07:22:24.000   1112777.4771  -4341476.3612   4522956.0461   6   5   0.5966   0.5938   0.2284  -0.5671  -0.3248   0.2841   0.00    0.0
2020/10/22 07:22:25.000   1112777.4412  -4341476.3406   4522956.0405   6   5   0.5969   0.5939   0.2283  -0.5674  -0.3248   0.2842   0.00    0.0
2020/10/22 07:22:26.000   1112777.4565  -4341476.3611   4522956.0568   6   5   0.5972   0.5941   0.2283  -0.5676  -0.3248   0.2842   0.00    0.0
2020/10/22 07:22:27.000   1112777.7893  -4341476.5217   4522955.9892   6   5   0.5975   0.5942   0.2283  -0.5678  -0.3248   0.2842   0.00    0.0
2020/10/22 07:22:28.000   1112777.8072  -4341476.5370   4522955.9931   6   5   0.5978   0.5943   0.2282  -0.5680  -0.3248   0.2843   0.00    0.0
2020/10/22 07:22:29.000   1112777.8201  -4341476.5493   4522956.0012   6   5   0.5981   0.5944   0.2282  -0.5683  -0.3248   0.2843   0.00    0.0
2020/10/22 07:22:30.000   1112777.7799  -4341476.4969   4522955.9823   6   5   0.5984   0.5946   0.2282  -0.5685  -0.3248   0.2843   0.00    0.0
2020/10/22 07:22:31.000   1112777.7695  -4341476.4829   4522955.9765   6   5   0.5987   0.5947   0.2281  -0.5687  -0.3247   0.2844   0.00    0.0
2020/10/22 07:22:32.000   1112777.7776  -4341476.4997   4522955.9818   6   5   0.5990   0.5948   0.2281  -0.5689  -0.3247   0.2844   0.00    0.0
2020/10/22 07:22:33.000   1112777.8060  -4341476.5340   4522955.9872   6   5   0.5993   0.5950   0.2281  -0.5692  -0.3247   0.2845   0.00    0.0
2020/10/22 07:22:34.000   1112777.7595  -4341476.4593   4522955.9614   6   5   0.5996   0.5951   0.2280  -0.5694  -0.3247   0.2845   0.00    0.0
2020/10/22 07:22:35.000   1112777.7513  -4341476.4573   4522955.9594   6   5   0.5999   0.5952   0.2280  -0.5696  -0.3247   0.2845   0.00    0.0
2020/10/22 07:22:36.000   1112777.7566  -4341476.4511   4522955.9543   6   5   0.6002   0.5953   0.2280  -0.5699  -0.3247   0.2846   0.00    0.0
2020/10/22 07:22:37.000   1112777.7378  -4341476.4240   4522955.9507   6   5   0.6005   0.5955   0.2279  -0.5701  -0.3247   0.2846   0.00    0.0
2020/10/22 07:22:38.000   1112777.7608  -4341476.4462   4522955.9481   6   5   0.6009   0.5956   0.2279  -0.5703  -0.3247   0.2846   0.00    0.0
2020/10/22 07:22:39.000   1112777.7861  -4341476.4605   4522955.9481   6   5   0.6012   0.5957   0.2279  -0.5705  -0.3246   0.2847   0.00    0.0
2020/10/22 07:22:40.000   1112777.8007  -4341476.4600   4522955.9465   6   5   0.6015   0.5959   0.2278  -0.5708  -0.3246   0.2847   0.00    0.0
2020/10/22 07:22:41.000   1112777.7968  -4341476.4602   4522955.9490   6   5   0.6018   0.5960   0.2278  -0.5710  -0.3246   0.2847   0.00    0.0
2020/10/22 07:22:42.000   1112777.8065  -4341476.4886   4522955.9565   6   5   0.6021   0.5961   0.2278  -0.5712  -0.3246   0.2848   0.00    0.0
2020/10/22 07:22:43.000   1112777.8168  -4341476.4926   4522955.9516   6   5   0.6024   0.5963   0.2277  -0.5715  -0.3246   0.2848   0.00    0.0
2020/10/22 07:22:44.000   1112777.8435  -4341476.5046   4522955.9490   6   5   0.6027   0.5964   0.2277  -0.5717  -0.3246   0.2848   0.00    0.0
2020/10/22 07:22:45.000   1112777.7961  -4341476.4888   4522955.9488   6   5   0.6030   0.5965   0.2276  -0.5719  -0.3246   0.2849   0.00    0.0
2020/10/22 07:22:46.000   1112777.8295  -4341476.4856   4522955.9377   6   5   0.6033   0.5966   0.2276  -0.5722  -0.3246   0.2849   0.00    0.0
2020/10/22 07:22:47.000   1112777.8284  -4341476.5009   4522955.9505   6   5   0.6036   0.5968   0.2276  -0.5724  -0.3245   0.2850   0.00    0.0
2020/10/22 07:22:48.000   1112777.8496  -4341476.5124   4522955.9430   6   5   0.6039   0.5969   0.2275  -0.5726  -0.3245   0.2850   0.00    0.0
2020/10/22 07:22:49.000   1112777.8105  -4341476.4823   4522955.9382   6   5   0.6042   0.5970   0.2275  -0.5728  -0.3245   0.2850   0.00    0.0
2020/10/22 07:22:50.000   1112777.8568  -4341476.5120   4522955.9408   6   5   0.6045   0.5972   0.2275  -0.5731  -0.3245   0.2851   0.00    0.0
2020/10/22 07:22:51.000   1112777.8272  -4341476.4756   4522955.9277   6   5   0.6048   0.5973   0.2274  -0.5733  -0.3245   0.2851   0.00    0.0
2020/10/22 07:22:52.000   1112777.9039  -4341476.5052   4522955.9759   6   5   0.6051   0.5974   0.2274  -0.5735  -0.3245   0.2851   0.00    0.0
2020/10/22 07:22:53.000   1112777.8988  -4341476.4961   4522955.9784   6   5   0.6054   0.5976   0.2274  -0.5738  -0.3245   0.2852   0.00    0.0
2020/10/22 07:22:54.000   1112777.8583  -4341476.4573   4522955.9700   6   5   0.6058   0.5977   0.2273  -0.5740  -0.3245   0.2852   0.00    0.0
2020/10/22 07:22:55.000   1112777.9007  -4341476.4903   4522955.9691   6   5   0.6061   0.5978   0.2273  -0.5742  -0.3244   0.2852   0.00    0.0
2020/10/22 07:22:56.000   1112777.8850  -4341476.4684   4522955.9696   6   5   0.6064   0.5980   0.2273  -0.5745  -0.3244   0.2853   0.00    0.0
2020/10/22 07:22:57.000   1112777.5007  -4341476.3205   4522955.9952   6   5   0.6067   0.5981   0.2272  -0.5747  -0.3244   0.2853   0.00    0.0
2020/10/22 07:22:58.000   1112777.5560  -4341476.3537   4522955.9896   6   5   0.6070   0.5982   0.2272  -0.5749  -0.3244   0.2853   0.00    0.0
2020/10/22 07:22:59.000   1112777.5875  -4341476.3895   4522956.0013   6   5   0.6073   0.5984   0.2271  -0.5752  -0.3244   0.2854   0.00    0.0
2020/10/22 07:23:00.000   1112777.5669  -4341476.3636   4522956.0004   6   5   0.6076   0.5985   0.2271  -0.5754  -0.3244   0.2854   0.00    0.0
2020/10/22 07:23:01.000   1112777.5602  -4341476.3608   4522956.0007   6   5   0.6079   0.5986   0.2271  -0.5756  -0.3244   0.2855   0.00    0.0
2020/10/22 07:23:02.000   1112777.8898  -4341476.5603   4522955.9713   6   5   0.6082   0.5987   0.2270  -0.5759  -0.3244   0.2855   0.00    0.0
2020/10/22 07:23:03.000   1112777.9156  -4341476.5741   4522955.9659   6   5   0.6085   0.5989   0.2270  -0.5761  -0.3243   0.2855   0.00    0.0
2020/10/22 07:23:04.000   1112777.9010  -4341476.5599   4522955.9609   6   5   0.6089   0.5990   0.2270  -0.5763  -0.3243   0.2856   0.00    0.0
2020/10/22 07:23:05.000   1112777.9357  -4341476.5814   4522955.9693   6   5   0.6092   0.5991   0.2269  -0.5766  -0.3243   0.2856   0.00    0.0
