%  GPST                      x-ecef(m)      y-ecef(m)      z-ecef(m)   Q  ns   sdx(m)   sdy(m)   sdz(m)  sdxy(m)  sdyz(m)  sdzx(m) age(s)  ratio
2020/10/22 08:07:48.000   1112776.9461  -4341475.9071   4522955.8833   6  10   0.0001   0.0001   0.0001  -0.0000  -0.0000   0.0000   0.00    0.0
2020/10/22 08:07:49.000   1112776.9461  -4341475.9071   4522955.8833   6  10   0.0001   0.0001   0.0001  -0.0000  -0.0000  -0.0000   0.00    0.0
2020/10/22 08:07:50.000   1112776.9461  -4341475.9071   4522955.8833   6  10   0.0001   0.0001   0.0001  -0.0000  -0.0000  -0.0000   0.00    0.0
2020/10/22 08:07:51.000   1112776.9461  -4341475.9071   4522955.8833   6  10   0.0001   0.0001   0.0001  -0.0000  -0.0000  -0.0000   0.00    0.0
2020/10/22 08:07:52.000   1112776.9461  -4341475.9071   4522955.8833   6  10   0.0001   0.0001   0.0001  -0.0000  -0.0000  -0.0000   0.00    0.0
2020/10/22 08:07:53.000   1112776.9461  -4341475.9071   4522955.8833   6  10   0.0001   0.0001   0.0001  -0.0000  -0.0000  -0.0000   0.00    0.0
2020/10/22 08:07:54.000   1112776.9461  -4341475.9071   4522955.8833   6  10   0.0001   0.0001   0.0001  -0.0000  -0.0000  -0.0000   0.00    0.0
2020/10/22 08:07:55.000   1112776.9461  -4341475.9071   4522955.8833   6  10   0.0001   0.0001   0.0001  -0.0000  -0.0000  -0.0000   0.00    0.0
2020/10/22 08:07:56.000   1112776.9461  -4341475.9071   4522955.8833   6  10   0.0001   0.0001   0.0001  -0.0000  -0.0000  -0.0000   0.00    0.0
2020/10/22 08:07:57.000   1112776.9461  -4341475.9071   4522955.8833   6  10   0.0001   0.0001   0.0001  -0.0000  -0.0000  -0.0000   0.00    0.0
2020/10/22 08:07:58.000   1112776.9461  -4341475.9071   4522955.8833   6  10   0.0001   0.0001   0.0001  -0.0000  -0.0000  -0.0000   0.00    0.0
2020/10/22 08:07:59.000   1112776.9461  -4341475.9071   4522955.8833   6  10   0.0001   0.0001   0.0001  -0.0000  -0.0000  -0.0000   0.00    0.0
2020/10/22 08:08:00.000   1112776.9461  -4341475.9071   4522955.8833   6  10   0.0001   0.0001   0.0001  -0.0000  -0.0000  -0.0000   0.00    0.0
2020/10/22 08:08:01.000   1112776.9461  -4341475.9071   4522955.8833   6  10   0.0001   0.0001   0.0001  -0.0000  -0.0000  -0.0000   0.00    0.0
2020/10/22 08:08:02.000   1112776.9461  -4341475.9071   4522955.8833   6  10   0.0001   0.0001   0.0001  -0.0000  -0.0000  -0.0000   0.00    0.0
2020/10/22 08:08:03.000   1112776.9461  -4341475.9071   4522955.8833   6  10   0.0001   0.0001   0.0001  -0.0000  -0.0000  -0.0000   0.00    0.0
2020/10/22 08:08:04.000   1112776.9392  -4341475.8819   4522955.8693   6  10   0.0951   0.1554   0.1533  -0.0834  -0.1197   0.0615   0.00    0.0
2020/10/22 08:08:05.000   1112776.9375  -4341475.8895   4522955.8689   6  10   0.0951   0.1554   0.1533  -0.0834  -0.1197   0.0615   0.00    0.0
2020/10/22 08:08:06.000   1112776.9390  -4341475.8803   4522955.8707   6  10   0.0951   0.1554   0.1533  -0.0834  -0.1197   0.0615   0.00    0.0
2020/10/22 08:08:07.000   1112776.9456  -4341475.8875   4522955.8706   6  10   0.0951   0.1554   0.1533  -0.0834  -0.1197   0.0615   0.00    0.0
2020/10/22 08:08:08.000   1112776.9442  -4341475.8925   4522955.8859   6  10   0.0951   0.1554   0.1533  -0.0834  -0.1197   0.0615   0.00    0.0
2020/10/22 08:08:09.000   1112776.9398  -4341475.8889   4522955.8824   6  10   0.0951   0.1554   0.1532  -0.0834  -0.1197   0.0615   0.00    0.0
2020/10/22 08:08:10.000   1112776.9404  -4341475.8921   4522955.8839   6  10   0.0951   0.1554   0.1532  -0.0834  -0.1197   0.0615   0.00    0.0
2020/10/22 08:08:11.000   1112776.9375  -4341475.8831   4522955.8796   6  10   0.0951   0.1554   0.1532  -0.0834  -0.1196   0.0615   0.00    0.0
2020/10/22 08:08:12.000   1112776.9349  -4341475.8874   4522955.8781   6  10   0.0951   0.1554   0.1532  -0.0834  -0.1196   0.0615   0.00    0.0
2020/10/22 08:08:13.000   1112776.9341  -4341475.8905   4522955.8887   6  10   0.0952   0.1554   0.1532  -0.0834  -0.1196   0.0615   0.00    0.0
2020/10/22 08:08:14.000   1112776.9340  -4341475.8762   4522955.8737   6  10   0.0952   0.1554   0.1532  -0.0834  -0.1196   0.0615   0.00    0.0
2020/10/22 08:08:15.000   1112776.9367  -4341475.8949   4522955.8849   6  10   0.0952   0.1554   0.1532  -0.0834  -0.1196   0.0615   0.00    0.0
2020/10/22 08:08:16.000   1112776.9346  -4341475.8847   4522955.8811   6  10   0.0952   0.1554   0.1532  -0.0834  -0.1196   0.0615   0.00    0.0
2020/10/22 08:08:17.000   1112776.9287  -4341475.8748   4522955.8688   6  10   0.0952   0.1553   0.1532  -0.0834  -0.1196   0.0615   0.00    0.0
2020/10/22 08:08:18.000   1112776.9300  -4341475.8816   4522955.8803   6  10   0.0952   0.1553   0.1532  -0.0834  -0.1196   0.0615   0.00    0.0
2020/10/22 08:08:19.000   1112776.9346  -4341475.8818   4522955.8837   6  10   0.0952   0.1553   0.1532  -0.0834  -0.1196   0.0615   0.00    0.0
2020/10/22 08:08:20.000   1112776.9245  -4341475.8702   4522955.8794   6  10   0.0952   0.1553   0.1532  -0.0834  -0.1196   0.0615   0.00    0.0
2020/10/22 08:08:21.000   1112776.9300  -4341475.8851   4522955.8967   6  10   0.0952   0.1553   0.1532  -0.0834  -0.1196   0.0615   0.00    0.0
2020/10/22 08:08:22.000   1112776.9278  -4341475.8764   4522955.8874   6  10   0.0952   0.1553   0.1532  -0.0834  -0.1196   0.0615   0.00    0.0
2020/10/22 08:08:23.000   1112776.9277  -4341475.8738   4522955.8924   6  10   0.0952   0.1553   0.1532  -0.0834  -0.1196   0.0615   0.00    0.0
2020/10/22 08:08:24.000   1112776.9363  -4341475.8857   4522955.8978   6  10   0.0952   0.1553   0.1532  -0.0834  -0.1195   0.0615   0.00    0.0
2020/10/22 08:08:25.000   1112776.9289  -4341475.8797   4522955.8942   6  10   0.0952   0.1553   0.1532  -0.0834  -0.1195   0.0615   0.00    0.0
2020/10/22 08:08:26.000   1112776.9330  -4341475.8876   4522955.9041   6  10   0.0952   0.1553   0.1532  -0.0834  -0.1195   0.0615   0.00    0.0
2020/10/22 08:08:27.000   1112776.9314  -4341475.8857   4522955.8978   6  10   0.0952   0.1553   0.1532  -0.0834  -0.1195   0.0615   0.00    0.0
2020/10/22 08:08:28.000   1112776.9302  -4341475.8912   4522955.8958   6  10   0.0952   0.1553   0.1532  -0.0834  -0.1195   0.0615   0.00    0.0
2020/10/22 08:08:29.000   1112776.9342  -4341475.8915   4522955.8864   6  10   0.0952   0.1553   0.1532  -0.0834  -0.1195   0.0615   0.00    0.0
2020/10/22 08:08:30.000   1112776.9362  -4341475.9034   4522955.8984   6  10   0.0952   0.1552   0.1532  -0.0834  -0.1195   0.0615   0.00    0.0
2020/10/22 08:08:31.000   1112776.9354  -4341475.9061   4522955.8911   6  10   0.0952   0.1552   0.1532  -0.0834  -0.1195   0.0615   0.00    0.0
2020/10/22 08:08:32.000   1112776.8359  -4341474.8059   4522955.0401   6   9   0.1033   0.1935   0.1819  -0.1076  -0.1600   0.0877   0.00    0.0
2020/10/22 08:08:33.000   1112776.8399  -4341474.8062   4522955.0456   6   9   0.1033   0.1935   0.1819  -0.1076  -0.1600   0.0877   0.00    0.0
2020/10/22 08:08:34.000   1112776.8411  -4341474.8205   4522955.0589   6   9   0.1033   0.1935   0.1818  -0.1076  -0.1600   0.0877   0.00    0.0
2020/10/22 08:08:35.000   1112776.8438  -4341474.8219   4522955.0530   6   9   0.1033   0.1935   0.1818  -0.1076  -0.1599   0.0877   0.00    0.0
2020/10/22 08:08:36.000   1112776.8426  -4341474.8277   4522955.0593   6   9   0.1033   0.1934   0.1818  -0.1076  -0.1599   0.0877   0.00    0.0
2020/10/22 08:08:37.000   1112776.9647  -4341475.9535   4522955.9194   6  10   0.1031   0.1926   0.1811  -0.1071  -0.1590   0.0872   0.00    0.0
2020/10/22 08:08:38.000   1112776.9685  -4341475.9721   4522955.9419   6  10   0.0993   0.1753   0.1681  -0.0962  -0.1411   0.0757   0.00    0.0
2020/10/22 08:08:39.000   1112776.9726  -4341475.9748   4522955.9357   6  10   0.0981   0.1691   0.1635  -0.0924  -0.1345   0.0715   0.00    0.0
2020/10/22 08:08:40.000   1112776.9779  -4341475.9801   4522955.9408   6  10   0.0974   0.1660   0.1611  -0.0904  -0.1312   0.0693   0.00    0.0
2020/10/22 08:08:41.000   1112776.9746  -4341475.9800   4522955.9337   6  10   0.0970   0.1640   0.1597  -0.0891  -0.1291   0.0679   0.00    0.0
2020/10/22 08:08:42.000   1112776.9868  -4341476.0030   4522955.9514   6  10   0.0968   0.1627   0.1587  -0.0883  -0.1277   0.0670   0.00    0.0
2020/10/22 08:08:43.000   1112776.9883  -4341475.9956   4522955.9483   6  10   0.0966   0.1618   0.1581  -0.0877  -0.1267   0.0663   0.00    0.0
2020/10/22 08:08:44.000   1112776.9840  -4341475.9971   4522955.9465   6  10   0.0964   0.1611   0.1575  -0.0873  -0.1259   0.0658   0.00    0.0
2020/10/22 08:08:45.000   1112776.9897  -4341476.0033   4522955.9584   6  10   0.0963   0.1605   0.1571  -0.0869  -0.1253   0.0654   0.00    0.0
2020/10/22 08:08:46.000   1112776.9881  -4341475.9878   4522955.9483   6  10   0.0963   0.1601   0.1568  -0.0866  -0.1248   0.0651   0.00    0.0
2020/10/22 08:08:47.000   1112776.9908  -4341475.9954   4522955.9438   6  10   0.0962   0.1597   0.1565  -0.0864  -0.1244   0.0648   0.00    0.0
2020/10/22 08:08:48.000   1112776.9860  -4341475.9887   4522955.9320   6  10   0.0961   0.1594   0.1563  -0.0862  -0.1241   0.0646   0.00    0.0
2020/10/22 08:08:49.000   1112776.9875  -4341475.9873   4522955.9379   6  10   0.0961   0.1591   0.1561  -0.0860  -0.1238   0.0644   0.00    0.0
2020/10/22 08:08:50.000   1112776.9856  -4341475.9859   4522955.9413   6  10   0.0960   0.1589   0.1560  -0.0859  -0.1236   0.0643   0.00    0.0
2020/10/22 08:08:51.000   1112776.9816  -4341475.9830   4522955.9389   6  10   0.0960   0.1587   0.1558  -0.0858  -0.1233   0.0641   0.00    0.0
2020/10/22 08:08:52.000   1112776.9767  -4341475.9699   4522955.9275   6  10   0.0960   0.1586   0.1557  -0.0857  -0.1232   0.0640   0.00    0.0
2020/10/22 08:08:53.000   1112776.9681  -4341475.9630   4522955.9293   6  10   0.0960   0.1584   0.1556  -0.0856  -0.1230   0.0639   0.00    0.0
2020/10/22 08:08:54.000   1112776.9733  -4341475.9595   4522955.9296   6  10   0.0959   0.1583   0.1555  -0.0855  -0.1228   0.0638   0.00    0.0
2020/10/22 08:08:55.000   1112776.9770  -4341475.9550   4522955.9260   6  10   0.0959   0.1581   0.1554  -0.0854  -0.1227   0.0637   0.00    0.0
2020/10/22 08:08:56.000   1112776.9643  -4341475.9511   4522955.9226   6  10   0.0959   0.1580   0.1553  -0.0854  -0.1226   0.0636   0.00    0.0
2020/10/22 08:08:57.000   1112776.9718  -4341475.9619   4522955.9310   6  10   0.0959   0.1579   0.1553  -0.0853  -0.1225   0.0636   0.00    0.0
2020/10/22 08:08:58.000   1112776.9668  -4341475.9484   4522955.9265   6  10   0.0959   0.1578   0.1552  -0.0852  -0.1224   0.0635   0.00    0.0
2020/10/22 08:08:59.000   1112776.9720  -4341475.9482   4522955.9216   6  10   0.0959   0.1577   0.1552  -0.0852  -0.1223   0.0634   0.00    0.0
2020/10/22 08:09:00.000   1112776.9702  -4341475.9464   4522955.9149   6  10   0.0958   0.1577   0.1551  -0.0852  -0.1222   0.0634   0.00    0.0
2020/10/22 08:09:01.000   1112776.9655  -4341475.9464   4522955.9175   6  10   0.0958   0.1576   0.1551  -0.0851  -0.1221   0.0633   0.00    0.0
2020/10/22 08:09:02.000   1112776.9525  -4341475.9260   4522955.9196   6  10   0.0958   0.1575   0.1550  -0.0851  -0.1220   0.0633   0.00    0.0
2020/10/22 08:09:03.000   1112776.9542  -4341475.9306   4522955.9189   6  10   0.0958   0.1575   0.1550  -0.0850  -0.1220   0.0633   0.00    0.0
2020/10/22 08:09:04.000   1112776.9562  -4341475.9271   4522955.9150   6  10   0.0958   0.1574   0.1549  -0.0850  -0.1219   0.0632   0.00    0.0
2020/10/22 08:09:05.000   1112776.9479  -4341475.9252   4522955.9164   6  10   0.0958   0.1573   0.1549  -0.0850  -0.1218   0.0632   0.00    0.0
2020/10/22 08:09:06.000   1112776.9502  -4341475.9240   4522955.9191   6  10   0.0958   0.1573   0.1549  -0.0849  -0.1218   0.0631   0.00    0.0
2020/10/22 08:09:07.000   1112776.9399  -4341475.9038   4522955.9096   6  10   0.0958   0.1572   0.1548  -0.0849  -0.1217   0.0631   0.00    0.0
2020/10/22 08:09:08.000   1112776.9498  -4341475.9189   4522955.9151   6  10   0.0958   0.1572   0.1548  -0.0849  -0.1217   0.0631   0.00    0.0
2020/10/22 08:09:09.000   1112776.9379  -4341475.9016   4522955.9057   6  10   0.0958   0.1571   0.1548  -0.0849  -0.1216   0.0630   0.00    0.0
2020/10/22 08:09:10.000   1112776.9376  -4341475.9037   4522955.9101   6  10   0.0958   0.1571   0.1547  -0.0848  -0.1216   0.0630   0.00    0.0
2020/10/22 08:09:11.000   1112776.9322  -4341475.8919   4522955.8976   6  10   0.0958   0.1571   0.1547  -0.0848  -0.1216   0.0630   0.00    0.0
2020/10/22 08:09:12.000   1112776.9402  -4341475.9026   4522955.9061   6  10   0.0958   0.1570   0.1547  -0.0848  -0.1215   0.0630   0.00    0.0
2020/10/22 08:09:13.000   1112776.9366  -4341475.9018   4522955.9021   6  10   0.0958   0.1570   0.1547  -0.0848  -0.1215   0.0629   0.00    0.0
2020/10/22 08:09:14.000   1112776.9377  -4341475.9082   4522955.8954   6  10   0.0958   0.1570   0.1546  -0.0848  -0.1214   0.0629   0.00    0.0
2020/10/22 08:09:15.000   1112776.9385  -4341475.9058   4522955.9010   6  10   0.0958   0.1569   0.1546  -0.0848  -0.1214   0.0629   0.00    0.0
2020/10/22 08:09:16.000   1112776.9348  -4341475.9031   4522955.8987   6  10   0.0958   0.1569   0.1546  -0.0847  -0.1214   0.0629   0.00    0.0
2020/10/22 08:09:17.000   1112776.9331  -4341475.8874   4522955.8866   6  10   0.0958   0.1569   0.1546  -0.0847  -0.1213   0.0629   0.00    0.0
2020/10/22 08:09:18.000   1112776.9417  -4341475.9114   4522955.9029   6  10   0.0958   0.1568   0.1546  -0.0847  -0.1213   0.0628   0.00    0.0
2020/10/22 08:09:19.000   1112776.9350  -4341475.9034   4522955.8954   6  10   0.0958   0.1568   0.1546  -0.0847  -0.1213   0.0628   0.00    0.0
2020/10/22 08:09:20.000   1112776.9384  -4341475.9037   4522955.9049   6  10   0.0958   0.1568   0.1545  -0.0847  -0.1212   0.0628   0.00    0.0
2020/10/22 08:09:21.000   1112776.9367  -4341475.9036   4522955.9018   6  10   0.0958   0.1567   0.1545  -0.0847  -0.1212   0.0628   0.00    0.0
2020/10/22 08:09:22.000   1112776.9353  -4341475.9118   4522955.9107   6  10   0.0958   0.1567   0.1545  -0.0847  -0.1212   0.0628   0.00    0.0
2020/10/22 08:09:23.000   1112776.9321  -4341475.8986   4522955.9099   6  10   0.0958   0.1567   0.1545  -0.0847  -0.1212   0.0628   0.00    0.0
2020/10/22 08:09:24.000   1112776.9307  -4341475.8941   4522955.8987   6  10   0.0958   0.1567   0.1545  -0.0846  -0.1211   0.0627   0.00    0.0
2020/10/22 08:09:25.000   1112776.9286  -4341475.8934   4522955.9028   6  10   0.0958   0.1566   0.1545  -0.0846  -0.1211   0.0627   0.00    0.0
2020/10/22 08:09:26.000   1112776.9294  -4341475.8887   4522955.9000   6  10   0.0958   0.1566   0.1545  -0.0846  -0.1211   0.0627   0.00    0.0
2020/10/22 08:09:27.000   1112776.9243  -4341475.8871   4522955.8986   6  10   0.0958   0.1566   0.1545  -0.0846  -0.1211   0.0627   0.00    0.0
2020/10/22 08:09:28.000   1112776.9293  -4341475.8980   4522955.9102   6  10   0.0958   0.1566   0.1544  -0.0846  -0.1210   0.0627   0.00    0.0
2020/10/22 08:09:29.000   1112776.9269  -4341475.8964   4522955.9136   6  10   0.0958   0.1566   0.1544  -0.0846  -0.1210   0.0627   0.00    0.0
2020/10/22 08:09:30.000   1112776.9266  -4341475.9009   4522955.9160   6  10   0.0958   0.1565   0.1544  -0.0846  -0.1210   0.0627   0.00    0.0
2020/10/22 08:09:31.000   1112776.9264  -4341475.9028   4522955.9130   6  10   0.0958   0.1565   0.1544  -0.0846  -0.1210   0.0627   0.00    0.0
2020/10/22 08:09:32.000   1112776.9252  -4341475.9044   4522955.9157   6  10   0.0958   0.1565   0.1544  -0.0846  -0.1210   0.0627   0.00    0.0
2020/10/22 08:09:33.000   1112776.9275  -4341475.9063   4522955.9145   6  10   0.0958   0.1565   0.1544  -0.0846  -0.1209   0.0626   0.00    0.0
2020/10/22 08:09:34.000   1112776.9252  -4341475.9067   4522955.9144   6  10   0.0958   0.1565   0.1544  -0.0846  -0.1209   0.0626   0.00    0.0
2020/10/22 08:09:35.000   1112776.9274  -4341475.9043   4522955.9215   6  10   0.0958   0.1564   0.1544  -0.0846  -0.1209   0.0626   0.00    0.0
2020/10/22 08:09:36.000   1112776.9271  -4341475.9066   4522955.9140   6  10   0.0958   0.1564   0.1544  -0.0846  -0.1209   0.0626   0.00    0.0
2020/10/22 08:09:37.000   1112776.9166  -4341475.9008   4522955.9231   6  10   0.0958   0.1564   0.1544  -0.0845  -0.1209   0.0626   0.00    0.0
2020/10/22 08:09:38.000   1112776.9270  -4341475.9178   4522955.9232   6  10   0.0958   0.1564   0.1544  -0.0845  -0.1208   0.0626   0.00    0.0
2020/10/22 08:09:39.000   1112776.9315  -4341475.9137   4522955.9248   6  10   0.0958   0.1564   0.1543  -0.0845  -0.1208   0.0626   0.00    0.0
2020/10/22 08:09:40.000   1112776.9285  -4341475.9127   4522955.9197   6  10   0.0958   0.1564   0.1543  -0.0845  -0.1208   0.0626   0.00    0.0
2020/10/22 08:09:41.000   1112776.9337  -4341475.9196   4522955.9255   6  10   0.0958   0.1563   0.1543  -0.0845  -0.1208   0.0626   0.00    0.0
2020/10/22 08:09:42.000   1112776.9439  -4341475.9308   4522955.9250   6  10   0.0958   0.1563   0.1543  -0.0845  -0.1208   0.0626   0.00    0.0
2020/10/22 08:09:43.000   1112776.9375  -4341475.9347   4522955.9302   6  10   0.0958   0.1563   0.1543  -0.0845  -0.1208   0.0625   0.00    0.0
2020/10/22 08:09:44.000   1112776.9439  -4341475.9266   4522955.9261   6  10   0.0958   0.1563   0.1543  -0.0845  -0.1207   0.0625   0.00    0.0
2020/10/22 08:09:45.000   1112776.9428  -4341475.9242   4522955.9287   6  10   0.0958   0.1563   0.1543  -0.0845  -0.1207   0.0625   0.00    0.0
2020/10/22 08:09:46.000   1112776.9419  -4341475.9297   4522955.9296   6  10   0.0958   0.1563   0.1543  -0.0845  -0.1207   0.0625   0.00    0.0
2020/10/22 08:09:47.000   1112776.9402  -4341475.9265   4522955.9267   6  10   0.0958   0.1562   0.1543  -0.0845  -0.1207   0.0625   0.00    0.0
2020/10/22 08:09:48.000   1112776.9497  -4341475.9417   4522955.9303   6  10   0.0958   0.1562   0.1543  -0.0845  -0.1207   0.0625   0.00    0.0
2020/10/22 08:09:49.000   1112776.9547  -4341475.9470   4522955.9363   6  10   0.0958   0.1562   0.1543  -0.0845  -0.1207   0.0625   0.00    0.0
2020/10/22 08:09:50.000   1112776.9566  -4341475.9461   4522955.9396   6  10   0.0958   0.1562   0.1543  -0.0845  -0.1207   0.0625   0.00    0.0
2020/10/22 08:09:51.000   1112776.9543  -4341475.9421   4522955.9337   6  10   0.0958   0.1562   0.1543  -0.0845  -0.1206   0.0625   0.00    0.0
2020/10/22 08:09:52.000   1112776.9526  -4341475.9411   4522955.9326   6  10   0.0958   0.1562   0.1543  -0.0845  -0.1206   0.0625   0.00    0.0
2020/10/22 08:09:53.000   1112776.9540  -4341475.9482   4522955.9401   6  10   0.0958   0.1562   0.1543  -0.0845  -0.1206   0.0625   0.00    0.0
2020/10/22 08:09:54.000   1112776.9541  -4341475.9588   4522955.9487   6  10   0.0958   0.1561   0.1543  -0.0845  -0.1206   0.0625   0.00    0.0
2020/10/22 08:09:55.000   1112776.9482  -4341475.9403   4522955.9371   6  10   0.0958   0.1561   0.1542  -0.0845  -0.1206   0.0625   0.00    0.0
2020/10/22 08:09:56.000   1112776.9535  -4341475.9533   4522955.9461   6  10   0.0958   0.1561   0.1542  -0.0845  -0.1206   0.0625   0.00    0.0
2020/10/22 08:09:57.000   1112776.9648  -4341475.9648   4522955.9512   6  10   0.0958   0.1561   0.1542  -0.0845  -0.1206   0.0625   0.00    0.0
2020/10/22 08:09:58.000   1112776.9628  -4341475.9580   4522955.9498   6  10   0.0958   0.1561   0.1542  -0.0845  -0.1205   0.0625   0.00    0.0
2020/10/22 08:09:59.000   1112776.9563  -4341475.9635   4522955.9504   6  10   0.0958   0.1561   0.1542  -0.0845  -0.1205   0.0624   0.00    0.0
2020/10/22 08:10:00.000   1112776.9586  -4341475.9622   4522955.9454   6  10   0.0958   0.1561   0.1542  -0.0845  -0.1205   0.0624   0.00    0.0
2020/10/22 08:10:01.000   1112776.9582  -4341475.9593   4522955.9410   6  10   0.0958   0.1561   0.1542  -0.0845  -0.1205   0.0624   0.00    0.0
2020/10/22 08:10:02.000   1112776.9569  -4341475.9592   4522955.9492   6  10   0.0959   0.1560   0.1542  -0.0845  -0.1205   0.0624   0.00    0.0
2020/10/22 08:10:03.000   1112776.9606  -4341475.9664   4522955.9544   6  10   0.0959   0.1560   0.1542  -0.0845  -0.1205   0.0624   0.00    0.0
2020/10/22 08:10:04.000   1112776.9544  -4341475.9641   4522955.9507   6  10   0.0959   0.1560   0.1542  -0.0844  -0.1205   0.0624   0.00    0.0
2020/10/22 08:10:05.000   1112776.9520  -4341475.9597   4522955.9443   6  10   0.0959   0.1560   0.1542  -0.0844  -0.1205   0.0624   0.00    0.0
2020/10/22 08:10:06.000   1112776.9507  -4341475.9598   4522955.9523   6  10   0.0959   0.1560   0.1542  -0.0844  -0.1204   0.0624   0.00    0.0
2020/10/22 08:10:07.000   1112776.9518  -4341475.9680   4522955.9557   6  10   0.0959   0.1560   0.1542  -0.0844  -0.1204   0.0624   0.00    0.0
2020/10/22 08:10:08.000   1112776.9494  -4341475.9622   4522955.9580   6  10   0.0959   0.1560   0.1542  -0.0844  -0.1204   0.0624   0.00    0.0
2020/10/22 08:10:09.000   1112776.9426  -4341475.9650   4522955.9640   6  10   0.0959   0.1560   0.1542  -0.0844  -0.1204   0.0624   0.00    0.0
2020/10/22 08:10:10.000   1112776.9471  -4341475.9637   4522955.9620   6  10   0.0959   0.1560   0.1542  -0.0844  -0.1204   0.0624   0.00    0.0
2020/10/22 08:10:11.000   1112776.9495  -4341475.9603   4522955.9555   6  10   0.0959   0.1559   0.1542  -0.0844  -0.1204   0.0624   0.00    0.0
2020/10/22 08:10:12.000   1112776.9423  -4341475.9554   4522955.9510   6  10   0.0959   0.1559   0.1542  -0.0844  -0.1204   0.0624   0.00    0.0
2020/10/22 08:10:13.000   1112776.9491  -4341475.9570   4522955.9507   6  10   0.0959   0.1559   0.1542  -0.0844  -0.1204   0.0624   0.00    0.0
2020/10/22 08:10:14.000   1112776.9418  -4341475.9598   4522955.9550   6  10   0.0959   0.1559   0.1542  -0.0844  -0.1204   0.0624   0.00    0.0
2020/10/22 08:10:15.000   1112776.9502  -4341475.9630   4522955.9555   6  10   0.0959   0.1559   0.1542  -0.0844  -0.1203   0.0624   0.00    0.0
2020/10/22 08:10:16.000   1112776.9466  -4341475.9479   4522955.9495   6  10   0.0959   0.1559   0.1542  -0.0844  -0.1203   0.0624   0.00    0.0
2020/10/22 08:10:17.000   1112776.9535  -4341475.9495   4522955.9495   6  10   0.0959   0.1559   0.1542  -0.0844  -0.1203   0.0624   0.00    0.0
2020/10/22 08:10:18.000   1112776.9540  -4341475.9518   4522955.9491   6  10   0.0959   0.1559   0.1542  -0.0844  -0.1203   0.0624   0.00    0.0
2020/10/22 08:10:19.000   1112776.9598  -4341475.9530   4522955.9438   6  10   0.0959   0.1559   0.1541  -0.0844  -0.1203   0.0624   0.00    0.0
2020/10/22 08:10:20.000   1112776.9615  -4341475.9458   4522955.9325   6  10   0.0959   0.1558   0.1541  -0.0844  -0.1203   0.0624   0.00    0.0
2020/10/22 08:10:21.000   1112776.9634  -4341475.9507   4522955.9348   6  10   0.0959   0.1558   0.1541  -0.0844  -0.1203   0.0624   0.00    0.0
2020/10/22 08:10:22.000   1112776.9733  -4341475.9516   4522955.9271   6  10   0.0959   0.1558   0.1541  -0.0844  -0.1203   0.0623   0.00    0.0
2020/10/22 08:10:23.000   1112776.9655  -4341475.9501   4522955.9293   6  10   0.0959   0.1558   0.1541  -0.0844  -0.1203   0.0623   0.00    0.0
2020/10/22 08:10:24.000   1112776.9607  -4341475.9439   4522955.9236   6  10   0.0959   0.1558   0.1541  -0.0844  -0.1202   0.0623   0.00    0.0
2020/10/22 08:10:25.000   1112776.9619  -4341475.9368   4522955.9208   6  10   0.0959   0.1558   0.1541  -0.0844  -0.1202   0.0623   0.00    0.0
2020/10/22 08:10:26.000   1112776.9608  -4341475.9337   4522955.9201   6  10   0.0959   0.1558   0.1541  -0.0844  -0.1202   0.0623   0.00    0.0
2020/10/22 08:10:27.000   1112776.9693  -4341475.9412   4522955.9214   6  10   0.0959   0.1558   0.1541  -0.0844  -0.1202   0.0623   0.00    0.0
2020/10/22 08:10:28.000   1112776.9647  -4341475.9365   4522955.9103   6  10   0.0959   0.1558   0.1541  -0.0844  -0.1202   0.0623   0.00    0.0
2020/10/22 08:10:29.000   1112776.9694  -4341475.9421   4522955.9112   6  10   0.0959   0.1557   0.1541  -0.0844  -0.1202   0.0623   0.00    0.0
2020/10/22 08:10:30.000   1112776.9665  -4341475.9457   4522955.9123   6  10   0.0959   0.1557   0.1541  -0.0844  -0.1202   0.0623   0.00    0.0
2020/10/22 08:10:31.000   1112776.9748  -4341475.9355   4522955.9097   6  10   0.0959   0.1557   0.1541  -0.0844  -0.1202   0.0623   0.00    0.0
2020/10/22 08:10:32.000   1112776.9733  -4341475.9254   4522955.8966   6  10   0.0959   0.1557   0.1541  -0.0844  -0.1202   0.0623   0.00    0.0
2020/10/22 08:10:33.000   1112776.9719  -4341475.9293   4522955.9007   6  10   0.0959   0.1557   0.1541  -0.0844  -0.1202   0.0623   0.00    0.0
2020/10/22 08:10:34.000   1112776.9665  -4341475.9247   4522955.9005   6  10   0.0960   0.1557   0.1541  -0.0844  -0.1201   0.0623   0.00    0.0
2020/10/22 08:10:35.000   1112776.9712  -4341475.9310   4522955.9015   6  10   0.0960   0.1557   0.1541  -0.0844  -0.1201   0.0623   0.00    0.0
2020/10/22 08:10:36.000   1112776.9745  -4341475.9339   4522955.9102   6  10   0.0960   0.1557   0.1541  -0.0844  -0.1201   0.0623   0.00    0.0
2020/10/22 08:10:37.000   1112776.9706  -4341475.9227   4522955.9099   6  10   0.0960   0.1557   0.1541  -0.0844  -0.1201   0.0623   0.00    0.0
2020/10/22 08:10:38.000   1112776.9732  -4341475.9235   4522955.9133   6  10   0.0960   0.1557   0.1541  -0.0844  -0.1201   0.0623   0.00    0.0
2020/10/22 08:10:39.000   1112776.9638  -4341475.9155   4522955.9032   6  10   0.0960   0.1556   0.1541  -0.0844  -0.1201   0.0623   0.00    0.0
2020/10/22 08:10:40.000   1112776.9656  -4341475.9211   4522955.9031   6  10   0.0960   0.1556   0.1541  -0.0844  -0.1201   0.0623   0.00    0.0
2020/10/22 08:10:41.000   1112776.9668  -4341475.9126   4522955.8971   6  10   0.0960   0.1556   0.1541  -0.0844  -0.1201   0.0623   0.00    0.0
2020/10/22 08:10:42.000   1112776.9661  -4341475.9129   4522955.9032   6  10   0.0960   0.1556   0.1541  -0.0844  -0.1201   0.0623   0.00    0.0
2020/10/22 08:10:43.000   1112776.9642  -4341475.9080   4522955.8993   6  10   0.0960   0.1556   0.1541  -0.0844  -0.1200   0.0623   0.00    0.0
2020/10/22 08:10:44.000   1112776.9634  -4341475.9077   4522955.8932   6  10   0.0960   0.1556   0.1541  -0.0844  -0.1200   0.0623   0.00    0.0
2020/10/22 08:10:45.000   1112776.9685  -4341475.9145   4522955.8977   6  10   0.0960   0.1556   0.1541  -0.0844  -0.1200   0.0623   0.00    0.0
2020/10/22 08:10:46.000   1112776.9708  -4341475.9160   4522955.8912   6  10   0.0960   0.1556   0.1541  -0.0844  -0.1200   0.0623   0.00    0.0
2020/10/22 08:10:47.000   1112776.9662  -4341475.9056   4522955.8829   6  10   0.0960   0.1556   0.1541  -0.0844  -0.1200   0.0623   0.00    0.0
2020/10/22 08:10:48.000   1112776.9649  -4341475.9196   4522955.8954   6  10   0.0960   0.1556   0.1540  -0.0844  -0.1200   0.0623   0.00    0.0
2020/10/22 08:10:49.000   1112776.9635  -4341475.9226   4522955.8887   6  10   0.0960   0.1555   0.1540  -0.0844  -0.1200   0.0623   0.00    0.0
2020/10/22 08:10:50.000   1112776.9683  -4341475.9287   4522955.8953   6  10   0.0960   0.1555   0.1540  -0.0844  -0.1200   0.0623   0.00    0.0
2020/10/22 08:10:51.000   1112776.9633  -4341475.9230   4522955.8929   6  10   0.0960   0.1555   0.1540  -0.0844  -0.1200   0.0623   0.00    0.0
2020/10/22 08:10:52.000   1112776.9759  -4341475.9386   4522955.8998   6  10   0.0960   0.1555   0.1540  -0.0844  -0.1200   0.0623   0.00    0.0
2020/10/22 08:10:53.000   1112776.9731  -4341475.9317   4522955.8971   6  10   0.0960   0.1555   0.1540  -0.0844  -0.1199   0.0623   0.00    0.0
2020/10/22 08:10:54.000   1112776.9712  -4341475.9411   4522955.9099   6  10   0.0960   0.1555   0.1540  -0.0844  -0.1199   0.0623   0.00    0.0
2020/10/22 08:10:55.000   1112776.9731  -4341475.9383   4522955.9109   6  10   0.0960   0.1555   0.1540  -0.0844  -0.1199   0.0622   0.00    0.0
2020/10/22 08:10:56.000   1112776.9720  -4341475.9338   4522955.9075   6  10   0.0960   0.1555   0.1540  -0.0844  -0.1199   0.0622   0.00    0.0
2020/10/22 08:10:57.000   1112776.9694  -4341475.9359   4522955.9078   6  10   0.0960   0.1555   0.1540  -0.0844  -0.1199   0.0622   0.00    0.0
2020/10/22 08:10:58.000   1112776.9681  -4341475.9425   4522955.9151   6  10   0.0960   0.1555   0.1540  -0.0844  -0.1199   0.0622   0.00    0.0
2020/10/22 08:10:59.000   1112776.9681  -4341475.9408   4522955.9136   6  10   0.0960   0.1554   0.1540  -0.0844  -0.1199   0.0622   0.00    0.0
2020/10/22 08:11:00.000   1112776.9697  -4341475.9404   4522955.9116   6  10   0.0960   0.1554   0.1540  -0.0844  -0.1199   0.0622   0.00    0.0
2020/10/22 08:11:01.000   1112776.9693  -4341475.9387   4522955.9169   6  10   0.0960   0.1554   0.1540  -0.0844  -0.1199   0.0622   0.00    0.0
2020/10/22 08:11:02.000   1112776.9756  -4341475.9578   4522955.9313   6  10   0.0961   0.1554   0.1540  -0.0844  -0.1199   0.0622   0.00    0.0
2020/10/22 08:11:03.000   1112776.9802  -4341475.9612   4522955.9286   6  10   0.0961   0.1554   0.1540  -0.0844  -0.1198   0.0622   0.00    0.0
2020/10/22 08:11:04.000   1112776.9768  -4341475.9567   4522955.9197   6  10   0.0961   0.1554   0.1540  -0.0844  -0.1198   0.0622   0.00    0.0
2020/10/22 08:11:05.000   1112776.9774  -4341475.9618   4522955.9263   6  10   0.0961   0.1554   0.1540  -0.0844  -0.1198   0.0622   0.00    0.0
2020/10/22 08:11:06.000   1112776.9831  -4341475.9614   4522955.9180   6  10   0.0961   0.1554   0.1540  -0.0844  -0.1198   0.0622   0.00    0.0
2020/10/22 08:11:07.000   1112776.9783  -4341475.9666   4522955.9201   6  10   0.0961   0.1554   0.1540  -0.0844  -0.1198   0.0622   0.00    0.0
2020/10/22 08:11:08.000   1112776.9787  -4341475.9740   4522955.9391   6  10   0.0961   0.1554   0.1540  -0.0844  -0.1198   0.0622   0.00    0.0
2020/10/22 08:11:09.000   1112776.9773  -4341475.9862   4522955.9441   6  10   0.0961   0.1554   0.1540  -0.0844  -0.1198   0.0622   0.00    0.0
2020/10/22 08:11:10.000   1112776.9792  -4341475.9821   4522955.9509   6  10   0.0961   0.1553   0.1540  -0.0844  -0.1198   0.0622   0.00    0.0
2020/10/22 08:11:11.000   1112776.9693  -4341475.9802   4522955.9509   6  10   0.0961   0.1553   0.1540  -0.0844  -0.1198   0.0622   0.00    0.0
2020/10/22 08:11:12.000   1112776.9780  -4341475.9863   4522955.9585   6  10   0.0961   0.1553   0.1540  -0.0844  -0.1198   0.0622   0.00    0.0
2020/10/22 08:11:13.000   1112776.9768  -4341475.9729   4522955.9522   6  10   0.0961   0.1553   0.1540  -0.0844  -0.1197   0.0622   0.00    0.0
2020/10/22 08:11:14.000   1112776.9769  -4341475.9917   4522955.9608   6  10   0.0961   0.1553   0.1540  -0.0844  -0.1197   0.0622   0.00    0.0
2020/10/22 08:11:15.000   1112776.9763  -4341475.9917   4522955.9606   6  10   0.0961   0.1553   0.1540  -0.0844  -0.1197   0.0622   0.00    0.0
2020/10/22 08:11:16.000   1112776.9715  -4341475.9899   4522955.9667   6  10   0.0961   0.1553   0.1540  -0.0844  -0.1197   0.0622   0.00    0.0
2020/10/22 08:11:17.000   1112776.9693  -4341475.9776   4522955.9687   6  10   0.0961   0.1553   0.1540  -0.0844  -0.1197   0.0622   0.00    0.0
2020/10/22 08:11:18.000   1112776.9731  -4341475.9955   4522955.9714   6  10   0.0961   0.1553   0.1539  -0.0844  -0.1197   0.0622   0.00    0.0
2020/10/22 08:11:19.000   1112776.9731  -4341475.9951   4522955.9708   6  10   0.0961   0.1553   0.1539  -0.0844  -0.1197   0.0622   0.00    0.0
2020/10/22 08:11:20.000   1112776.9684  -4341475.9866   4522955.9762   6  10   0.0961   0.1552   0.1539  -0.0844  -0.1197   0.0622   0.00    0.0
2020/10/22 08:11:21.000   1112776.9783  -4341475.9967   4522955.9810   6  10   0.0961   0.1552   0.1539  -0.0844  -0.1197   0.0622   0.00    0.0
2020/10/22 08:11:22.000   1112776.9755  -4341475.9865   4522955.9671   6  10   0.0961   0.1552   0.1539  -0.0844  -0.1197   0.0622   0.00    0.0
2020/10/22 08:11:23.000   1112776.9729  -4341475.9846   4522955.9749   6  10   0.0961   0.1552   0.1539  -0.0844  -0.1196   0.0622   0.00    0.0
2020/10/22 08:11:24.000   1112776.9714  -4341475.9893   4522955.9660   6  10   0.0961   0.1552   0.1539  -0.0844  -0.1196   0.0622   0.00    0.0
2020/10/22 08:11:25.000   1112776.9683  -4341475.9834   4522955.9671   6  10   0.0961   0.1552   0.1539  -0.0844  -0.1196   0.0622   0.00    0.0
2020/10/22 08:11:26.000   1112776.9637  -4341475.9793   4522955.9682   6  10   0.0961   0.1552   0.1539  -0.0844  -0.1196   0.0622   0.00    0.0
2020/10/22 08:11:27.000   1112776.9633  -4341475.9853   4522955.9753   6  10   0.0961   0.1552   0.1539  -0.0844  -0.1196   0.0622   0.00    0.0
2020/10/22 08:11:28.000   1112776.9675  -4341475.9755   4522955.9656   6  10   0.0961   0.1552   0.1539  -0.0844  -0.1196   0.0622   0.00    0.0
2020/10/22 08:11:29.000   1112776.9573  -4341475.9618   4522955.9604   6  10   0.0961   0.1552   0.1539  -0.0844  -0.1196   0.0622   0.00    0.0
2020/10/22 08:11:30.000   1112776.9605  -4341475.9656   4522955.9567   6  10   0.0962   0.1552   0.1539  -0.0844  -0.1196   0.0622   0.00    0.0
2020/10/22 08:11:31.000   1112776.9572  -4341475.9667   4522955.9588   6  10   0.0962   0.1551   0.1539  -0.0844  -0.1196   0.0622   0.00    0.0
2020/10/22 08:11:32.000   1112776.9523  -4341475.9575   4522955.9526   6  10   0.0962   0.1551   0.1539  -0.0844  -0.1195   0.0622   0.00    0.0
2020/10/22 08:11:33.000   1112776.9590  -4341475.9680   4522955.9556   6  10   0.0962   0.1551   0.1539  -0.0844  -0.1195   0.0622   0.00    0.0
2020/10/22 08:11:34.000   1112776.9556  -4341475.9553   4522955.9487   6  10   0.0962   0.1551   0.1539  -0.0844  -0.1195   0.0622   0.00    0.0
2020/10/22 08:11:35.000   1112776.9574  -4341475.9608   4522955.9535   6  10   0.0962   0.1551   0.1539  -0.0844  -0.1195   0.0622   0.00    0.0
2020/10/22 08:11:36.000   1112776.9603  -4341475.9596   4522955.9509   6  10   0.0962   0.1551   0.1539  -0.0844  -0.1195   0.0622   0.00    0.0
2020/10/22 08:11:37.000   1112776.9549  -4341475.9555   4522955.9551   6  10   0.0962   0.1551   0.1539  -0.0844  -0.1195   0.0622   0.00    0.0
2020/10/22 08:11:38.000   1112776.9511  -4341475.9507   4522955.9513   6  10   0.0962   0.1551   0.1539  -0.0844  -0.1195   0.0622   0.00    0.0
2020/10/22 08:11:39.000   1112776.9586  -4341475.9596   4522955.9523   6  10   0.0962   0.1551   0.1539  -0.0844  -0.1195   0.0622   0.00    0.0
2020/10/22 08:11:40.000   1112776.9583  -4341475.9548   4522955.9491   6  10   0.0962   0.1551   0.1539  -0.0844  -0.1195   0.0622   0.00    0.0
2020/10/22 08:11:41.000   1112776.9553  -4341475.9505   4522955.9427   6  10   0.0962   0.1550   0.1539  -0.0844  -0.1195   0.0622   0.00    0.0
2020/10/22 08:11:42.000   1112776.9472  -4341475.9411   4522955.9408   6  10   0.0962   0.1550   0.1539  -0.0844  -0.1194   0.0622   0.00    0.0
2020/10/22 08:11:43.000   1112776.9452  -4341475.9349   4522955.9340   6  10   0.0962   0.1550   0.1539  -0.0844  -0.1194   0.0622   0.00    0.0
2020/10/22 08:11:44.000   1112776.9397  -4341475.9306   4522955.9307   6  10   0.0962   0.1550   0.1538  -0.0844  -0.1194   0.0622   0.00    0.0
2020/10/22 08:11:45.000   1112776.9427  -4341475.9398   4522955.9396   6  10   0.0962   0.1550   0.1538  -0.0844  -0.1194   0.0622   0.00    0.0
2020/10/22 08:11:46.000   1112776.9486  -4341475.9512   4522955.9443   6  10   0.0962   0.1550   0.1538  -0.0844  -0.1194   0.0622   0.00    0.0
2020/10/22 08:11:47.000   1112776.9433  -4341475.9466   4522955.9404   6  10   0.0962   0.1550   0.1538  -0.0844  -0.1194   0.0622   0.00    0.0
2020/10/22 08:11:48.000   1112776.9413  -4341475.9512   4522955.9428   6  10   0.0962   0.1550   0.1538  -0.0844  -0.1194   0.0622   0.00    0.0
2020/10/22 08:11:49.000   1112776.9461  -4341475.9496   4522955.9424   6  10   0.0962   0.1550   0.1538  -0.0844  -0.1194   0.0621   0.00    0.0
2020/10/22 08:11:50.000   1112776.9449  -4341475.9484   4522955.9385   6  10   0.0962   0.1550   0.1538  -0.0844  -0.1194   0.0621   0.00    0.0
2020/10/22 08:11:51.000   1112776.9455  -4341475.9505   4522955.9396   6  10   0.0962   0.1550   0.1538  -0.0844  -0.1193   0.0621   0.00    0.0
2020/10/22 08:11:52.000   1112776.9533  -4341475.9602   4522955.9449   6  10   0.0962   0.1549   0.1538  -0.0844  -0.1193   0.0621   0.00    0.0
2020/10/22 08:11:53.000   1112776.9539  -4341475.9634   4522955.9467   6  10   0.0962   0.1549   0.1538  -0.0844  -0.1193   0.0621   0.00    0.0
2020/10/22 08:11:54.000   1112776.9503  -4341475.9564   4522955.9440   6  10   0.0962   0.1549   0.1538  -0.0844  -0.1193   0.0621   0.00    0.0
2020/10/22 08:11:55.000   1112776.9474  -4341475.9576   4522955.9440   6  10   0.0962   0.1549   0.1538  -0.0844  -0.1193   0.0621   0.00    0.0
2020/10/22 08:11:56.000   1112776.9460  -4341475.9496   4522955.9405   6  10   0.0962   0.1549   0.1538  -0.0844  -0.1193   0.0621   0.00    0.0
2020/10/22 08:11:57.000   1112776.9409  -4341475.9586   4522955.9370   6  10   0.0963   0.1549   0.1538  -0.0844  -0.1193   0.0621   0.00    0.0
2020/10/22 08:11:58.000   1112776.9452  -4341475.9587   4522955.9368   6  10   0.0963   0.1549   0.1538  -0.0844  -0.1193   0.0621   0.00    0.0
2020/10/22 08:11:59.000   1112776.9455  -4341475.9572   4522955.9336   6  10   0.0963   0.1549   0.1538  -0.0844  -0.1193   0.0621   0.00    0.0
2020/10/22 08:12:00.000   1112776.9497  -4341475.9670   4522955.9403   6  10   0.0963   0.1549   0.1538  -0.0844  -0.1193   0.0621   0.00    0.0
2020/10/22 08:12:01.000   1112776.9536  -4341475.9705   4522955.9460   6  10   0.0963   0.1549   0.1538  -0.0844  -0.1192   0.0621   0.00    0.0
2020/10/22 08:12:02.000   1112776.9513  -4341475.9675   4522955.9400   6  10   0.0963   0.1548   0.1538  -0.0844  -0.1192   0.0621   0.00    0.0
2020/10/22 08:12:03.000   1112776.9481  -4341475.9606   4522955.9308   6  10   0.0963   0.1548   0.1538  -0.0844  -0.1192   0.0621   0.00    0.0
2020/10/22 08:12:04.000   1112776.9519  -4341475.9660   4522955.9397   6  10   0.0963   0.1548   0.1538  -0.0844  -0.1192   0.0621   0.00    0.0
2020/10/22 08:12:05.000   1112776.9585  -4341475.9671   4522955.9319   6  10   0.0963   0.1548   0.1538  -0.0844  -0.1192   0.0621   0.00    0.0
2020/10/22 08:12:06.000   1112776.9580  -4341475.9689   4522955.9370   6  10   0.0963   0.1548   0.1538  -0.0844  -0.1192   0.0621   0.00    0.0
2020/10/22 08:12:07.000   1112776.9728  -4341475.9727   4522955.9439   6  10   0.0963   0.1548   0.1538  -0.0845  -0.1192   0.0621   0.00    0.0
2020/10/22 08:12:08.000   1112776.9711  -4341475.9743   4522955.9439   6  10   0.0963   0.1548   0.1537  -0.0845  -0.1192   0.0621   0.00    0.0
2020/10/22 08:12:09.000   1112776.9695  -4341475.9679   4522955.9413   6  10   0.0963   0.1548   0.1537  -0.0845  -0.1192   0.0621   0.00    0.0
2020/10/22 08:12:10.000   1112776.9644  -4341475.9660   4522955.9424   6  10   0.0963   0.1548   0.1537  -0.0845  -0.1191   0.0621   0.00    0.0
2020/10/22 08:12:11.000   1112776.9736  -4341475.9727   4522955.9409   6  10   0.0963   0.1548   0.1537  -0.0845  -0.1191   0.0621   0.00    0.0
2020/10/22 08:12:12.000   1112776.9713  -4341475.9797   4522955.9440   6  10   0.0963   0.1547   0.1537  -0.0845  -0.1191   0.0621   0.00    0.0
2020/10/22 08:12:13.000   1112776.9703  -4341475.9730   4522955.9337   6  10   0.0963   0.1547   0.1537  -0.0845  -0.1191   0.0621   0.00    0.0
2020/10/22 08:12:14.000   1112776.9733  -4341475.9768   4522955.9362   6  10   0.0963   0.1547   0.1537  -0.0845  -0.1191   0.0621   0.00    0.0
2020/10/22 08:12:15.000   1112776.9692  -4341475.9707   4522955.9323   6  10   0.0963   0.1547   0.1537  -0.0845  -0.1191   0.0621   0.00    0.0
2020/10/22 08:12:16.000   1112776.9693  -4341475.9746   4522955.9374   6  10   0.0963   0.1547   0.1537  -0.0845  -0.1191   0.0621   0.00    0.0
2020/10/22 08:12:17.000   1112776.9731  -4341475.9814   4522955.9376   6  10   0.0963   0.1547   0.1537  -0.0845  -0.1191   0.0621   0.00    0.0
2020/10/22 08:12:18.000   1112776.9780  -4341475.9903   4522955.9389   6  10   0.0963   0.1547   0.1537  -0.0845  -0.1191   0.0621   0.00    0.0
2020/10/22 08:12:19.000   1112776.9713  -4341475.9915   4522955.9383   6  10   0.0963   0.1547   0.1537  -0.0845  -0.1190   0.0621   0.00    0.0
2020/10/22 08:12:20.000   1112776.9794  -4341475.9888   4522955.9338   6  10   0.0963   0.1547   0.1537  -0.0845  -0.1190   0.0621   0.00    0.0
2020/10/22 08:12:21.000   1112776.9818  -4341475.9911   4522955.9350   6  10   0.0963   0.1547   0.1537  -0.0845  -0.1190   0.0621   0.00    0.0
2020/10/22 08:12:22.000   1112776.9871  -4341476.0004   4522955.9286   6  10   0.0963   0.1547   0.1537  -0.0845  -0.1190   0.0621   0.00    0.0
2020/10/22 08:12:23.000   1112776.9827  -4341475.9891   4522955.9320   6  10   0.0964   0.1546   0.1537  -0.0845  -0.1190   0.0621   0.00    0.0
2020/10/22 08:12:24.000   1112776.9865  -4341475.9951   4522955.9302   6  10   0.0964   0.1546   0.1537  -0.0845  -0.1190   0.0621   0.00    0.0
2020/10/22 08:12:25.000   1112776.9817  -4341475.9983   4522955.9346   6  10   0.0964   0.1546   0.1537  -0.0845  -0.1190   0.0621   0.00    0.0
2020/10/22 08:12:26.000   1112776.9809  -4341475.9947   4522955.9346   6  10   0.0964   0.1546   0.1537  -0.0845  -0.1190   0.0621   0.00    0.0
2020/10/22 08:12:27.000   1112776.9744  -4341475.9893   4522955.9341   6  10   0.0964   0.1546   0.1537  -0.0845  -0.1190   0.0621   0.00    0.0
2020/10/22 08:12:28.000   1112776.9676  -4341475.9823   4522955.9334   6  10   0.0964   0.1546   0.1537  -0.0845  -0.1189   0.0621   0.00    0.0
2020/10/22 08:12:29.000   1112776.9696  -4341475.9712   4522955.9331   6  10   0.0964   0.1546   0.1536  -0.0845  -0.1189   0.0621   0.00    0.0
2020/10/22 08:12:30.000   1112776.9607  -4341475.9801   4522955.9423   6  10   0.0964   0.1546   0.1536  -0.0845  -0.1189   0.0621   0.00    0.0
2020/10/22 08:12:31.000   1112776.9555  -4341475.9629   4522955.9369   6  10   0.0964   0.1546   0.1536  -0.0845  -0.1189   0.0621   0.00    0.0
2020/10/22 08:12:32.000   1112776.9545  -4341475.9595   4522955.9443   6  10   0.0964   0.1546   0.1536  -0.0845  -0.1189   0.0621   0.00    0.0
2020/10/22 08:12:33.000   1112776.9509  -4341475.9556   4522955.9392   6  10   0.0964   0.1545   0.1536  -0.0845  -0.1189   0.0621   0.00    0.0
2020/10/22 08:12:34.000   1112776.9839  -4341475.8855   4522955.7966   6  10   0.0964   0.1545   0.1536  -0.0845  -0.1189   0.0621   0.00    0.0
2020/10/22 08:12:35.000   1112776.9794  -4341475.8738   4522955.7858   6  10   0.0964   0.1545   0.1536  -0.0845  -0.1189   0.0621   0.00    0.0
2020/10/22 08:12:36.000   1112776.9868  -4341475.8877   4522955.8004   6  10   0.0964   0.1545   0.1536  -0.0845  -0.1188   0.0621   0.00    0.0
2020/10/22 08:12:37.000   1112776.9797  -4341475.8802   4522955.7963   6  10   0.0964   0.1545   0.1536  -0.0845  -0.1188   0.0621   0.00    0.0
2020/10/22 08:12:38.000   1112776.9752  -4341475.8701   4522955.7854   6  10   0.0964   0.1545   0.1536  -0.0845  -0.1188   0.0621   0.00    0.0
2020/10/22 08:12:39.000   1112776.9701  -4341475.8747   4522955.7866   6  10   0.0964   0.1545   0.1536  -0.0845  -0.1188   0.0621   0.00    0.0
2020/10/22 08:12:40.000   1112776.9676  -4341475.8745   4522955.7875   6  10   0.0964   0.1545   0.1536  -0.0845  -0.1188   0.0621   0.00    0.0
2020/10/22 08:12:41.000   1112776.9741  -4341475.8878   4522955.8042   6  10   0.0964   0.1545   0.1536  -0.0845  -0.1188   0.0621   0.00    0.0
2020/10/22 08:12:42.000   1112776.9759  -4341475.8862   4522955.7956   6  10   0.0964   0.1545   0.1536  -0.0845  -0.1188   0.0621   0.00    0.0
2020/10/22 08:12:43.000   1112776.9729  -4341475.8872   4522955.7934   6  10   0.0964   0.1544   0.1536  -0.0845  -0.1188   0.0621   0.00    0.0
2020/10/22 08:12:44.000   1112776.9814  -4341475.8909   4522955.8035   6  10   0.0964   0.1544   0.1536  -0.0845  -0.1188   0.0621   0.00    0.0
2020/10/22 08:12:45.000   1112776.9849  -4341475.8971   4522955.8112   6  10   0.0964   0.1544   0.1536  -0.0845  -0.1187   0.0621   0.00    0.0
2020/10/22 08:12:46.000   1112776.9881  -4341475.8950   4522955.7985   6  10   0.0964   0.1544   0.1536  -0.0845  -0.1187   0.0621   0.00    0.0
2020/10/22 08:12:47.000   1112776.9813  -4341475.8927   4522955.7964   6  10   0.0964   0.1544   0.1536  -0.0845  -0.1187   0.0621   0.00    0.0
2020/10/22 08:12:48.000   1112776.9873  -4341475.9021   4522955.8011   6  10   0.0964   0.1544   0.1536  -0.0845  -0.1187   0.0621   0.00    0.0
2020/10/22 08:12:49.000   1112776.9819  -4341475.8871   4522955.7941   6  10   0.0965   0.1544   0.1535  -0.0845  -0.1187   0.0621   0.00    0.0
2020/10/22 08:12:50.000   1112776.9793  -4341475.8808   4522955.7862   6  10   0.0965   0.1544   0.1535  -0.0845  -0.1187   0.0621   0.00    0.0
2020/10/22 08:12:51.000   1112776.9822  -4341475.8792   4522955.7918   6  10   0.0965   0.1544   0.1535  -0.0845  -0.1187   0.0621   0.00    0.0
2020/10/22 08:12:52.000   1112776.9785  -4341475.8765   4522955.7916   6  10   0.0965   0.1544   0.1535  -0.0845  -0.1187   0.0621   0.00    0.0
2020/10/22 08:12:53.000   1112776.9752  -4341475.8753   4522955.7860   6  10   0.0965   0.1543   0.1535  -0.0845  -0.1187   0.0621   0.00    0.0
2020/10/22 08:12:54.000   1112776.9649  -4341475.8593   4522955.7765   6  10   0.0965   0.1543   0.1535  -0.0845  -0.1186   0.0621   0.00    0.0
2020/10/22 08:12:55.000   1112776.9719  -4341475.8674   4522955.7823   6  10   0.0965   0.1543   0.1535  -0.0845  -0.1186   0.0621   0.00    0.0
2020/10/22 08:12:56.000   1112776.9701  -4341475.8630   4522955.7772   6  10   0.0965   0.1543   0.1535  -0.0845  -0.1186   0.0621   0.00    0.0
2020/10/22 08:12:57.000   1112776.9757  -4341475.8630   4522955.7712   6  10   0.0965   0.1543   0.1535  -0.0845  -0.1186   0.0621   0.00    0.0
2020/10/22 08:12:58.000   1112776.9685  -4341475.8495   4522955.7654   6  10   0.0965   0.1543   0.1535  -0.0845  -0.1186   0.0621   0.00    0.0
2020/10/22 08:12:59.000   1112776.9729  -4341475.8588   4522955.7731   6  10   0.0965   0.1543   0.1535  -0.0845  -0.1186   0.0621   0.00    0.0
2020/10/22 08:13:00.000   1112776.9759  -4341475.8529   4522955.7670   6  10   0.0965   0.1543   0.1535  -0.0845  -0.1186   0.0621   0.00    0.0
2020/10/22 08:13:01.000   1112776.9696  -4341475.8511   4522955.7628   6  10   0.0965   0.1543   0.1535  -0.0845  -0.1186   0.0621   0.00    0.0
2020/10/22 08:13:02.000   1112776.9695  -4341475.8482   4522955.7604   6  10   0.0965   0.1543   0.1535  -0.0845  -0.1185   0.0621   0.00    0.0
2020/10/22 08:13:03.000   1112776.9772  -4341475.8490   4522955.7594   6  10   0.0965   0.1542   0.1535  -0.0845  -0.1185   0.0621   0.00    0.0
2020/10/22 08:13:04.000   1112776.9899  -4341475.8626   4522955.7659   6  10   0.0965   0.1542   0.1535  -0.0845  -0.1185   0.0621   0.00    0.0
2020/10/22 08:13:05.000   1112776.9974  -4341475.8708   4522955.7698   6  10   0.0965   0.1542   0.1535  -0.0845  -0.1185   0.0621   0.00    0.0
2020/10/22 08:13:06.000   1112776.9990  -4341475.8792   4522955.7753   6  10   0.0965   0.1542   0.1535  -0.0845  -0.1185   0.0621   0.00    0.0
2020/10/22 08:13:07.000   1112776.9986  -4341475.8749   4522955.7759   6  10   0.0965   0.1542   0.1535  -0.0845  -0.1185   0.0621   0.00    0.0
2020/10/22 08:13:08.000   1112777.0022  -4341475.8762   4522955.7769   6  10   0.0965   0.1542   0.1535  -0.0845  -0.1185   0.0621   0.00    0.0
2020/10/22 08:13:09.000   1112776.9956  -4341475.9109   4522955.8303   6  10   0.0965   0.1542   0.1534  -0.0845  -0.1185   0.0621   0.00    0.0
2020/10/22 08:13:10.000   1112776.9921  -4341475.9095   4522955.8341   6  10   0.0965   0.1542   0.1534  -0.0845  -0.1185   0.0621   0.00    0.0
2020/10/22 08:13:11.000   1112776.9915  -4341475.9049   4522955.8324   6  10   0.0965   0.1542   0.1534  -0.0845  -0.1184   0.0620   0.00    0.0
2020/10/22 08:13:12.000   1112776.9913  -4341475.9136   4522955.8356   6  10   0.0965   0.1542   0.1534  -0.0845  -0.1184   0.0620   0.00    0.0
2020/10/22 08:13:13.000   1112776.9937  -4341475.9086   4522955.8308   6  10   0.0965   0.1541   0.1534  -0.0845  -0.1184   0.0620   0.00    0.0
2020/10/22 08:13:14.000   1112776.9878  -4341475.8977   4522955.8288   6  10   0.0965   0.1541   0.1534  -0.0845  -0.1184   0.0620   0.00    0.0
2020/10/22 08:13:15.000   1112776.9866  -4341475.8971   4522955.8260   6  10   0.0966   0.1541   0.1534  -0.0845  -0.1184   0.0620   0.00    0.0
2020/10/22 08:13:16.000   1112776.9727  -4341475.9296   4522955.8372   6   6   0.1242   0.2098   0.1874  -0.1116  -0.1585   0.0832   0.00    0.0
2020/10/22 08:13:17.000   1112776.9779  -4341475.9204   4522955.8304   6   6   0.1242   0.2098   0.1874  -0.1117  -0.1585   0.0832   0.00    0.0
2020/10/22 08:13:18.000   1112776.9732  -4341475.9205   4522955.8323   6   6   0.1242   0.2098   0.1874  -0.1117  -0.1585   0.0832   0.00    0.0
2020/10/22 08:13:19.000   1112776.9742  -4341475.9270   4522955.8390   6   6   0.1242   0.2098   0.1874  -0.1117  -0.1584   0.0832   0.00    0.0
2020/10/22 08:13:20.000   1112776.9723  -4341475.7917   4522955.7157   6   6   0.1242   0.2098   0.1873  -0.1117  -0.1584   0.0832   0.00    0.0
2020/10/22 08:13:21.000   1112776.9752  -4341475.7910   4522955.7150   6   6   0.1242   0.2098   0.1873  -0.1117  -0.1584   0.0832   0.00    0.0
2020/10/22 08:13:22.000   1112776.9719  -4341475.7900   4522955.7046   6   6   0.1242   0.2098   0.1873  -0.1117  -0.1584   0.0832   0.00    0.0
2020/10/22 08:13:23.000   1112776.9737  -4341475.7827   4522955.7047   6   6   0.1242   0.2098   0.1873  -0.1117  -0.1584   0.0832   0.00    0.0
2020/10/22 08:13:24.000   1112776.9611  -4341475.7554   4522955.6831   6   6   0.1242   0.2098   0.1873  -0.1117  -0.1584   0.0832   0.00    0.0
2020/10/22 08:13:25.000   1112776.9620  -4341475.7591   4522955.6890   6   6   0.1242   0.2098   0.1873  -0.1118  -0.1583   0.0832   0.00    0.0
2020/10/22 08:13:26.000   1112776.9637  -4341475.7539   4522955.6912   6   6   0.1242   0.2098   0.1872  -0.1118  -0.1583   0.0832   0.00    0.0
2020/10/22 08:13:27.000   1112776.9536  -4341475.7505   4522955.6871   6   6   0.1243   0.2098   0.1872  -0.1118  -0.1583   0.0832   0.00    0.0
2020/10/22 08:13:28.000   1112776.9617  -4341475.7545   4522955.6838   6   6   0.1243   0.2098   0.1872  -0.1118  -0.1583   0.0832   0.00    0.0
2020/10/22 08:13:29.000   1112776.9645  -4341475.7538   4522955.6857   6   6   0.1243   0.2098   0.1872  -0.1118  -0.1583   0.0832   0.00    0.0
2020/10/22 08:13:30.000   1112776.9613  -4341475.7432   4522955.6735   6   6   0.1243   0.2098   0.1872  -0.1118  -0.1583   0.0832   0.00    0.0
2020/10/22 08:13:31.000   1112776.9614  -4341475.7384   4522955.6686   6   6   0.1243   0.2098   0.1871  -0.1118  -0.1583   0.0832   0.00    0.0
2020/10/22 08:13:32.000   1112776.9571  -4341475.7439   4522955.6657   6   6   0.1243   0.2098   0.1871  -0.1119  -0.1582   0.0832   0.00    0.0
2020/10/22 08:13:33.000   1112776.9620  -4341475.7471   4522955.6648   6   6   0.1243   0.2098   0.1871  -0.1119  -0.1582   0.0832   0.00    0.0
2020/10/22 08:13:34.000   1112776.9531  -4341475.7327   4522955.6476   6   6   0.1243   0.2098   0.1871  -0.1119  -0.1582   0.0832   0.00    0.0
2020/10/22 08:13:35.000   1112776.9597  -4341475.7401   4522955.6449   6   6   0.1243   0.2098   0.1871  -0.1119  -0.1582   0.0832   0.00    0.0
2020/10/22 08:13:36.000   1112776.9577  -4341475.7344   4522955.6475   6   6   0.1243   0.2098   0.1870  -0.1119  -0.1582   0.0832   0.00    0.0
2020/10/22 08:13:37.000   1112776.9558  -4341475.7380   4522955.6415   6   6   0.1243   0.2098   0.1870  -0.1119  -0.1582   0.0832   0.00    0.0
2020/10/22 08:13:38.000   1112776.9602  -4341475.7344   4522955.6417   6   6   0.1244   0.2098   0.1870  -0.1119  -0.1581   0.0832   0.00    0.0
2020/10/22 08:13:39.000   1112776.9550  -4341475.7322   4522955.6380   6   6   0.1244   0.2098   0.1870  -0.1119  -0.1581   0.0832   0.00    0.0
