%  GPST                      x-ecef(m)      y-ecef(m)      z-ecef(m)   Q  ns   sdx(m)   sdy(m)   sdz(m)  sdxy(m)  sdyz(m)  sdzx(m) age(s)  ratio
2020/10/22 08:27:47.000   1112776.9459  -4341475.9071   4522955.8833   6   8   0.0001   0.0001   0.0001  -0.0000  -0.0000   0.0000   0.00    0.0
2020/10/22 08:27:48.000   1112776.9459  -4341475.9071   4522955.8833   6   8   0.0001   0.0001   0.0001  -0.0000  -0.0000   0.0000   0.00    0.0
2020/10/22 08:27:49.000   1112776.9459  -4341475.9071   4522955.8833   6   8   0.0001   0.0001   0.0001  -0.0000  -0.0000   0.0000   0.00    0.0
2020/10/22 08:27:50.000   1112776.9459  -4341475.9071   4522955.8833   6   8   0.0001   0.0001   0.0001  -0.0000  -0.0000   0.0000   0.00    0.0
2020/10/22 08:27:51.000   1112776.9459  -4341475.9071   4522955.8833   6   8   0.0001   0.0001   0.0001  -0.0000  -0.0000   0.0000   0.00    0.0
2020/10/22 08:27:52.000   1112776.9459  -4341475.9071   4522955.8833   6   8   0.0001   0.0001   0.0001  -0.0000  -0.0000   0.0000   0.00    0.0
2020/10/22 08:27:53.000   1112776.9459  -4341475.9071   4522955.8833   6   8   0.0001   0.0001   0.0001  -0.0000  -0.0000   0.0000   0.00    0.0
2020/10/22 08:27:54.000   1112776.9459  -4341475.9071   4522955.8833   6   8   0.0001   0.0001   0.0001  -0.0000  -0.0000   0.0000   0.00    0.0
2020/10/22 08:27:55.000   1112776.9459  -4341475.9071   4522955.8833   6   8   0.0001   0.0001   0.0001  -0.0000  -0.0000   0.0000   0.00    0.0
2020/10/22 08:27:56.000   1112776.9459  -4341475.9071   4522955.8833   6   8   0.0001   0.0001   0.0001  -0.0000  -0.0000   0.0000   0.00    0.0
2020/10/22 08:27:57.000   1112776.9459  -4341475.9071   4522955.8833   6   8   0.0001   0.0001   0.0001  -0.0000  -0.0000   0.0000   0.00    0.0
2020/10/22 08:27:58.000   1112776.9459  -4341475.9071   4522955.8833   6   8   0.0001   0.0001   0.0001  -0.0000  -0.0000   0.0000   0.00    0.0
2020/10/22 08:27:59.000   1112776.9459  -4341475.9071   4522955.8833   6   8   0.0001   0.0001   0.0001  -0.0000  -0.0000   0.0000   0.00    0.0
2020/10/22 08:28:00.000   1112776.9459  -4341475.9071   4522955.8833   6   8   0.0001   0.0001   0.0001  -0.0000  -0.0000   0.0000   0.00    0.0
2020/10/22 08:28:01.000   1112776.9459  -4341475.9071   4522955.8833   6   8   0.0001   0.0001   0.0001  -0.0000  -0.0000   0.0000   0.00    0.0
2020/10/22 08:28:02.000   1112776.9459  -4341475.9071   4522955.8833   6   8   0.0001   0.0001   0.0001  -0.0000  -0.0000   0.0000   0.00    0.0
2020/10/22 08:28:03.000   1112776.9459  -4341475.9071   4522955.8833   6   8   0.0001   0.0001   0.0001  -0.0000  -0.0000   0.0000   0.00    0.0
2020/10/22 08:28:04.000   1112776.9459  -4341475.9071   4522955.8833   6   8   0.0001   0.0001   0.0001  -0.0000  -0.0000   0.0000   0.00    0.0
2020/10/22 08:28:05.000   1112776.9459  -4341475.9071   4522955.8833   6   8   0.0001   0.0001   0.0001  -0.0000  -0.0000   0.0000   0.00    0.0
2020/10/22 08:28:06.000   1112776.9459  -4341475.9071   4522955.8833   6   8   0.0001   0.0001   0.0001  -0.0000  -0.0000   0.0000   0.00    0.0
2020/10/22 08:28:07.000   1112776.9459  -4341475.9071   4522955.8833   6   8   0.0001   0.0001   0.0001  -0.0000  -0.0000   0.0000   0.00    0.0
2020/10/22 08:28:08.000   1112776.9459  -4341475.9071   4522955.8833   6   8   0.0001   0.0001   0.0001  -0.0000  -0.0000   0.0000   0.00    0.0
2020/10/22 08:28:09.000   1112776.9459  -4341475.9071   4522955.8833   6   8   0.0001   0.0001   0.0001  -0.0000  -0.0000   0.0000   0.00    0.0
2020/10/22 08:28:10.000   1112776.9459  -4341475.9071   4522955.8833   6   8   0.0001   0.0001   0.0001  -0.0000  -0.0000   0.0000   0.00    0.0
2020/10/22 08:28:11.000   1112776.9459  -4341475.9071   4522955.8833   6   8   0.0001   0.0001   0.0001  -0.0000  -0.0000   0.0000   0.00    0.0
2020/10/22 08:28:12.000   1112776.9459  -4341475.9071   4522955.8833   6   8   0.0001   0.0001   0.0001  -0.0000  -0.0000   0.0000   0.00    0.0
2020/10/22 08:28:13.000   1112776.9459  -4341475.9071   4522955.8833   6   8   0.0001   0.0001   0.0001  -0.0000  -0.0000   0.0000   0.00    0.0
2020/10/22 08:28:14.000   1112776.9459  -4341475.9071   4522955.8833   6   6   0.0001   0.0001   0.0001  -0.0000  -0.0000  -0.0000   0.00    0.0
2020/10/22 08:28:15.000   1112776.9459  -4341475.9071   4522955.8833   6   6   0.0001   0.0001   0.0001  -0.0000  -0.0000  -0.0000   0.00    0.0
2020/10/22 08:28:16.000   1112776.9459  -4341475.9071   4522955.8833   6   6   0.0001   0.0001   0.0001  -0.0000  -0.0000  -0.0000   0.00    0.0
2020/10/22 08:28:17.000   1112776.9459  -4341475.9071   4522955.8833   6   6   0.0001   0.0001   0.0001  -0.0000  -0.0000  -0.0000   0.00    0.0
2020/10/22 08:28:18.000   1112776.9486  -4341475.9161   4522955.8739   6   8   0.1013   0.1797   0.2608  -0.0873  -0.1678   0.0833   0.00    0.0
2020/10/22 08:28:19.000   1112776.9560  -4341475.9157   4522955.8715   6   8   0.1013   0.1797   0.2608  -0.0873  -0.1678   0.0833   0.00    0.0
2020/10/22 08:28:20.000   1112776.9399  -4341475.9020   4522955.8501   6   8   0.1014   0.1797   0.2609  -0.0873  -0.1678   0.0833   0.00    0.0
2020/10/22 08:28:21.000   1112776.9361  -4341475.9065   4522955.8364   6   8   0.1014   0.1797   0.2609  -0.0873  -0.1678   0.0834   0.00    0.0
2020/10/22 08:28:22.000   1112776.9465  -4341475.9208   4522955.8469   6   8   0.1014   0.1797   0.2610  -0.0873  -0.1678   0.0834   0.00    0.0
2020/10/22 08:28:23.000   1112776.9464  -4341475.9234   4522955.8551   6   8   0.1014   0.1797   0.2610  -0.0873  -0.1679   0.0834   0.00    0.0
2020/10/22 08:28:24.000   1112776.9432  -4341475.9147   4522955.8495   6   8   0.1014   0.1797   0.2610  -0.0874  -0.1679   0.0834   0.00    0.0
2020/10/22 08:28:25.000   1112776.9479  -4341475.9232   4522955.8533   6   8   0.1014   0.1797   0.2611  -0.0874  -0.1679   0.0834   0.00    0.0
2020/10/22 08:28:26.000   1112776.9458  -4341475.9106   4522955.8377   6   8   0.1014   0.1797   0.2611  -0.0874  -0.1679   0.0834   0.00    0.0
2020/10/22 08:28:27.000   1112776.9459  -4341475.9153   4522955.8306   6   8   0.1014   0.1797   0.2612  -0.0874  -0.1679   0.0834   0.00    0.0
2020/10/22 08:28:28.000   1112776.9575  -4341475.9379   4522955.8547   6   8   0.1014   0.1796   0.2612  -0.0874  -0.1679   0.0834   0.00    0.0
2020/10/22 08:28:29.000   1112776.9544  -4341475.9412   4522955.8718   6   8   0.1014   0.1796   0.2613  -0.0874  -0.1679   0.0834   0.00    0.0
2020/10/22 08:28:30.000   1112776.9565  -4341475.9406   4522955.8761   6   8   0.1014   0.1796   0.2613  -0.0874  -0.1680   0.0835   0.00    0.0
2020/10/22 08:28:31.000   1112776.9504  -4341475.9429   4522955.8777   6   8   0.1014   0.1796   0.2614  -0.0874  -0.1680   0.0835   0.00    0.0
2020/10/22 08:28:32.000   1112776.9523  -4341475.9388   4522955.8810   6   8   0.1014   0.1796   0.2614  -0.0874  -0.1680   0.0835   0.00    0.0
2020/10/22 08:28:33.000   1112776.9555  -4341475.9558   4522955.8973   6   8   0.1014   0.1796   0.2614  -0.0874  -0.1680   0.0835   0.00    0.0
2020/10/22 08:28:34.000   1112776.9563  -4341475.9513   4522955.8997   6   8   0.1014   0.1796   0.2615  -0.0874  -0.1680   0.0835   0.00    0.0
2020/10/22 08:28:35.000   1112776.9562  -4341475.9505   4522955.9026   6   8   0.1014   0.1796   0.2615  -0.0874  -0.1680   0.0835   0.00    0.0
2020/10/22 08:28:36.000   1112776.9553  -4341475.9619   4522955.9027   6   8   0.1014   0.1796   0.2616  -0.0874  -0.1680   0.0835   0.00    0.0
2020/10/22 08:28:37.000   1112776.9546  -4341475.9669   4522955.9196   6   8   0.1015   0.1796   0.2616  -0.0874  -0.1680   0.0835   0.00    0.0
2020/10/22 08:28:38.000   1112776.9563  -4341475.9672   4522955.9162   6   8   0.1015   0.1796   0.2617  -0.0874  -0.1681   0.0836   0.00    0.0
