%  GPST                      x-ecef(m)      y-ecef(m)      z-ecef(m)   Q  ns   sdx(m)   sdy(m)   sdz(m)  sdxy(m)  sdyz(m)  sdzx(m) age(s)  ratio
2020/10/22 08:15:32.000   1112776.9461  -4341475.9071   4522955.8833   6  10   0.0001   0.0001   0.0001  -0.0000  -0.0000   0.0000   0.00    0.0
2020/10/22 08:15:33.000   1112776.9461  -4341475.9071   4522955.8833   6  10   0.0001   0.0001   0.0001  -0.0000  -0.0000  -0.0000   0.00    0.0
2020/10/22 08:15:34.000   1112776.9461  -4341475.9071   4522955.8833   6  10   0.0001   0.0001   0.0001  -0.0000  -0.0000  -0.0000   0.00    0.0
2020/10/22 08:15:35.000   1112776.9461  -4341475.9071   4522955.8833   6  10   0.0001   0.0001   0.0001  -0.0000  -0.0000  -0.0000   0.00    0.0
2020/10/22 08:15:36.000   1112776.9461  -4341475.9071   4522955.8833   6  10   0.0001   0.0001   0.0001  -0.0000  -0.0000  -0.0000   0.00    0.0
2020/10/22 08:15:37.000   1112776.9460  -4341475.9071   4522955.8833   6  10   0.0001   0.0001   0.0001  -0.0000  -0.0000  -0.0000   0.00    0.0
2020/10/22 08:15:38.000   1112776.9460  -4341475.9071   4522955.8833   6  10   0.0001   0.0001   0.0001  -0.0000  -0.0000  -0.0000   0.00    0.0
2020/10/22 08:15:39.000   1112776.9460  -4341475.9071   4522955.8833   6  10   0.0001   0.0001   0.0001  -0.0000  -0.0000  -0.0000   0.00    0.0
2020/10/22 08:15:40.000   1112776.9461  -4341475.9071   4522955.8833   6  10   0.0001   0.0001   0.0001  -0.0000  -0.0000  -0.0000   0.00    0.0
2020/10/22 08:15:41.000   1112776.9461  -4341475.9071   4522955.8833   6  10   0.0001   0.0001   0.0001  -0.0000  -0.0000  -0.0000   0.00    0.0
2020/10/22 08:15:42.000   1112776.9461  -4341475.9071   4522955.8833   6  10   0.0001   0.0001   0.0001  -0.0000  -0.0000  -0.0000   0.00    0.0
2020/10/22 08:15:43.000   1112776.9461  -4341475.9071   4522955.8833   6  10   0.0001   0.0001   0.0001  -0.0000  -0.0000  -0.0000   0.00    0.0
2020/10/22 08:15:44.000   1112776.9461  -4341475.9071   4522955.8833   6  10   0.0001   0.0001   0.0001  -0.0000  -0.0000  -0.0000   0.00    0.0
2020/10/22 08:15:45.000   1112776.9461  -4341475.9071   4522955.8833   6  10   0.0001   0.0001   0.0001  -0.0000  -0.0000  -0.0000   0.00    0.0
2020/10/22 08:15:46.000   1112776.9461  -4341475.9071   4522955.8833   6  10   0.0001   0.0001   0.0001  -0.0000  -0.0000  -0.0000   0.00    0.0
2020/10/22 08:15:47.000   1112776.9461  -4341475.9071   4522955.8833   6  10   0.0001   0.0001   0.0001  -0.0000  -0.0000  -0.0000   0.00    0.0
2020/10/22 08:15:48.000   1112776.9461  -4341475.9071   4522955.8833   6  10   0.0001   0.0001   0.0001  -0.0000  -0.0000  -0.0000   0.00    0.0
2020/10/22 08:15:49.000   1112776.9461  -4341475.9071   4522955.8833   6  10   0.0001   0.0001   0.0001  -0.0000  -0.0000  -0.0000   0.00    0.0
2020/10/22 08:15:50.000   1112776.9461  -4341475.9071   4522955.8833   6  10   0.0001   0.0001   0.0001  -0.0000  -0.0000  -0.0000   0.00    0.0
2020/10/22 08:15:51.000   1112776.9461  -4341475.9071   4522955.8833   6  10   0.0001   0.0001   0.0001  -0.0000  -0.0000  -0.0000   0.00    0.0
2020/10/22 08:15:52.000   1112776.9460  -4341475.9071   4522955.8833   6  10   0.0001   0.0001   0.0001  -0.0000  -0.0000  -0.0000   0.00    0.0
2020/10/22 08:15:53.000   1112776.9222  -4341475.8741   4522955.8946   6  10   0.0966   0.1502   0.1496  -0.0837  -0.1134   0.0610   0.00    0.0
2020/10/22 08:15:54.000   1112776.9217  -4341475.8741   4522955.8921   6  10   0.0966   0.1502   0.1496  -0.0837  -0.1134   0.0610   0.00    0.0
2020/10/22 08:15:55.000   1112776.9142  -4341475.8681   4522955.8804   6  10   0.0967   0.1502   0.1496  -0.0837  -0.1134   0.0610   0.00    0.0
2020/10/22 08:15:56.000   1112776.9164  -4341475.8598   4522955.8823   6  10   0.0967   0.1502   0.1496  -0.0837  -0.1134   0.0610   0.00    0.0
2020/10/22 08:15:57.000   1112776.9208  -4341475.8644   4522955.8811   6  10   0.0967   0.1501   0.1496  -0.0837  -0.1134   0.0610   0.00    0.0
2020/10/22 08:15:58.000   1112776.9517  -4341475.9054   4522955.8906   6  10   0.0967   0.1501   0.1496  -0.0837  -0.1134   0.0610   0.00    0.0
2020/10/22 08:15:59.000   1112776.9521  -4341475.9078   4522955.8851   6  10   0.0967   0.1501   0.1496  -0.0837  -0.1134   0.0610   0.00    0.0
2020/10/22 08:16:00.000   1112776.9455  -4341475.8955   4522955.8901   6  10   0.0967   0.1501   0.1496  -0.0837  -0.1134   0.0610   0.00    0.0
2020/10/22 08:16:01.000   1112776.9541  -4341475.9015   4522955.8878   6  10   0.0967   0.1501   0.1496  -0.0837  -0.1134   0.0610   0.00    0.0
2020/10/22 08:16:02.000   1112776.9597  -4341475.9069   4522955.8876   6  10   0.0967   0.1501   0.1496  -0.0837  -0.1134   0.0610   0.00    0.0
2020/10/22 08:16:03.000   1112776.9542  -4341475.9068   4522955.8878   6  10   0.0967   0.1501   0.1496  -0.0837  -0.1134   0.0610   0.00    0.0
2020/10/22 08:16:04.000   1112776.9512  -4341475.9032   4522955.8914   6  10   0.0967   0.1501   0.1496  -0.0837  -0.1133   0.0610   0.00    0.0
2020/10/22 08:16:05.000   1112776.9579  -4341475.9137   4522955.8892   6  10   0.0967   0.1501   0.1496  -0.0837  -0.1133   0.0610   0.00    0.0
2020/10/22 08:16:06.000   1112776.9618  -4341475.9084   4522955.8930   6  10   0.0967   0.1501   0.1496  -0.0838  -0.1133   0.0610   0.00    0.0
2020/10/22 08:16:07.000   1112776.9565  -4341475.9075   4522955.8961   6  10   0.0967   0.1501   0.1496  -0.0838  -0.1133   0.0610   0.00    0.0
2020/10/22 08:16:08.000   1112776.9575  -4341475.9089   4522955.8911   6  10   0.0967   0.1501   0.1496  -0.0838  -0.1133   0.0610   0.00    0.0
2020/10/22 08:16:09.000   1112776.9605  -4341475.9187   4522955.8975   6  10   0.0967   0.1501   0.1496  -0.0838  -0.1133   0.0610   0.00    0.0
2020/10/22 08:16:10.000   1112776.9631  -4341475.9129   4522955.8787   6  10   0.0967   0.1501   0.1497  -0.0838  -0.1133   0.0610   0.00    0.0
2020/10/22 08:16:11.000   1112776.9647  -4341475.9150   4522955.8815   6  10   0.0967   0.1501   0.1497  -0.0838  -0.1133   0.0610   0.00    0.0
2020/10/22 08:16:12.000   1112776.9712  -4341475.9111   4522955.8774   6  10   0.0967   0.1501   0.1497  -0.0838  -0.1133   0.0610   0.00    0.0
2020/10/22 08:16:13.000   1112776.9726  -4341475.9172   4522955.8887   6  10   0.0967   0.1501   0.1497  -0.0838  -0.1133   0.0610   0.00    0.0
2020/10/22 08:16:14.000   1112776.9620  -4341475.9066   4522955.8787   6  10   0.0967   0.1501   0.1497  -0.0838  -0.1133   0.0610   0.00    0.0
2020/10/22 08:16:15.000   1112776.9596  -4341475.9011   4522955.8787   6  10   0.0967   0.1500   0.1497  -0.0838  -0.1133   0.0610   0.00    0.0
2020/10/22 08:16:16.000   1112776.9532  -4341475.8968   4522955.8816   6  10   0.0967   0.1500   0.1497  -0.0838  -0.1133   0.0610   0.00    0.0
2020/10/22 08:16:17.000   1112776.9577  -4341475.8952   4522955.8785   6  10   0.0967   0.1500   0.1497  -0.0838  -0.1133   0.0610   0.00    0.0
2020/10/22 08:16:18.000   1112776.9664  -4341475.9072   4522955.8820   6  10   0.0968   0.1500   0.1497  -0.0838  -0.1133   0.0610   0.00    0.0
2020/10/22 08:16:19.000   1112776.9604  -4341475.9100   4522955.8878   6  10   0.0968   0.1500   0.1497  -0.0838  -0.1133   0.0610   0.00    0.0
2020/10/22 08:16:20.000   1112776.9596  -4341475.8970   4522955.8753   6  10   0.0968   0.1500   0.1497  -0.0838  -0.1133   0.0610   0.00    0.0
2020/10/22 08:16:21.000   1112776.9575  -4341475.9001   4522955.8799   6  10   0.0968   0.1500   0.1497  -0.0838  -0.1133   0.0610   0.00    0.0
2020/10/22 08:16:22.000   1112776.9546  -4341475.9178   4522955.8838   6   9   0.0970   0.1779   0.1580  -0.0799  -0.1329   0.0582   0.00    0.0
2020/10/22 08:16:23.000   1112776.9602  -4341475.9055   4522955.8769   6  10   0.0968   0.1500   0.1497  -0.0838  -0.1133   0.0610   0.00    0.0
2020/10/22 08:16:24.000   1112776.9514  -4341475.8941   4522955.8716   6  10   0.0968   0.1500   0.1497  -0.0838  -0.1133   0.0610   0.00    0.0
2020/10/22 08:16:25.000   1112776.9596  -4341475.9043   4522955.8702   6  10   0.0968   0.1500   0.1497  -0.0838  -0.1133   0.0610   0.00    0.0
2020/10/22 08:16:26.000   1112776.9575  -4341475.8981   4522955.8672   6  10   0.0968   0.1500   0.1497  -0.0838  -0.1133   0.0610   0.00    0.0
2020/10/22 08:16:27.000   1112776.9659  -4341475.9039   4522955.8651   6  10   0.0968   0.1500   0.1497  -0.0838  -0.1133   0.0610   0.00    0.0
2020/10/22 08:16:28.000   1112776.9600  -4341475.8965   4522955.8650   6  10   0.0968   0.1500   0.1497  -0.0838  -0.1133   0.0610   0.00    0.0
2020/10/22 08:16:29.000   1112776.9582  -4341475.8932   4522955.8639   6  10   0.0968   0.1500   0.1497  -0.0838  -0.1133   0.0610   0.00    0.0
2020/10/22 08:16:30.000   1112776.9553  -4341475.8860   4522955.8637   6  10   0.0968   0.1500   0.1497  -0.0838  -0.1133   0.0610   0.00    0.0
2020/10/22 08:16:31.000   1112776.9502  -4341475.8857   4522955.8522   6  10   0.0968   0.1500   0.1498  -0.0838  -0.1133   0.0610   0.00    0.0
2020/10/22 08:16:32.000   1112776.9494  -4341475.8814   4522955.8526   6  10   0.0968   0.1500   0.1498  -0.0838  -0.1133   0.0610   0.00    0.0
2020/10/22 08:16:33.000   1112776.9471  -4341475.8800   4522955.8531   6  10   0.0968   0.1500   0.1498  -0.0838  -0.1132   0.0610   0.00    0.0
2020/10/22 08:16:34.000   1112776.9371  -4341475.8677   4522955.8471   6  10   0.0968   0.1500   0.1498  -0.0838  -0.1132   0.0610   0.00    0.0
2020/10/22 08:16:35.000   1112776.9397  -4341475.8786   4522955.8479   6  10   0.0968   0.1500   0.1498  -0.0838  -0.1132   0.0610   0.00    0.0
2020/10/22 08:16:36.000   1112776.9370  -4341475.8734   4522955.8486   6  10   0.0968   0.1500   0.1498  -0.0838  -0.1132   0.0610   0.00    0.0
2020/10/22 08:16:37.000   1112776.9379  -4341475.8736   4522955.8492   6  10   0.0968   0.1500   0.1498  -0.0838  -0.1132   0.0610   0.00    0.0
2020/10/22 08:16:38.000   1112776.9436  -4341475.8833   4522955.8560   6  10   0.0968   0.1499   0.1498  -0.0838  -0.1132   0.0609   0.00    0.0
2020/10/22 08:16:39.000   1112776.9420  -4341475.8789   4522955.8572   6  10   0.0968   0.1499   0.1498  -0.0838  -0.1132   0.0609   0.00    0.0
2020/10/22 08:16:40.000   1112776.9420  -4341475.8826   4522955.8520   6  10   0.0968   0.1499   0.1498  -0.0838  -0.1132   0.0609   0.00    0.0
2020/10/22 08:16:41.000   1112776.9428  -4341475.8859   4522955.8637   6  10   0.0969   0.1499   0.1498  -0.0838  -0.1132   0.0609   0.00    0.0
2020/10/22 08:16:42.000   1112776.9736  -4341475.9248   4522955.8792   6   9   0.0971   0.1776   0.1580  -0.0799  -0.1327   0.0582   0.00    0.0
2020/10/22 08:16:43.000   1112776.9701  -4341475.9176   4522955.8807   6   9   0.0971   0.1776   0.1580  -0.0800  -0.1327   0.0582   0.00    0.0
2020/10/22 08:16:44.000   1112776.9720  -4341475.9145   4522955.8790   6   9   0.0971   0.1776   0.1580  -0.0800  -0.1327   0.0582   0.00    0.0
2020/10/22 08:16:45.000   1112776.9726  -4341475.9314   4522955.8929   6   9   0.0971   0.1776   0.1580  -0.0800  -0.1327   0.0582   0.00    0.0
2020/10/22 08:16:46.000   1112776.9749  -4341475.9378   4522955.9038   6   9   0.0971   0.1776   0.1580  -0.0800  -0.1327   0.0582   0.00    0.0
2020/10/22 08:16:47.000   1112776.9734  -4341475.9357   4522955.8995   6   9   0.0971   0.1776   0.1581  -0.0800  -0.1327   0.0582   0.00    0.0
2020/10/22 08:16:48.000   1112776.9806  -4341475.9437   4522955.9100   6   9   0.0971   0.1776   0.1581  -0.0800  -0.1327   0.0582   0.00    0.0
2020/10/22 08:16:49.000   1112776.9761  -4341475.9417   4522955.9093   6   9   0.0971   0.1776   0.1581  -0.0800  -0.1327   0.0582   0.00    0.0
2020/10/22 08:16:50.000   1112776.9822  -4341475.9361   4522955.9052   6   9   0.0971   0.1776   0.1581  -0.0800  -0.1327   0.0582   0.00    0.0
2020/10/22 08:16:51.000   1112776.9811  -4341475.9405   4522955.9094   6   9   0.0971   0.1776   0.1581  -0.0800  -0.1326   0.0582   0.00    0.0
2020/10/22 08:16:52.000   1112776.9833  -4341475.9514   4522955.9134   6   9   0.0971   0.1775   0.1581  -0.0800  -0.1326   0.0582   0.00    0.0
2020/10/22 08:16:53.000   1112776.9796  -4341475.9498   4522955.9205   6   9   0.0971   0.1775   0.1581  -0.0800  -0.1326   0.0582   0.00    0.0
2020/10/22 08:16:54.000   1112776.9833  -4341475.9443   4522955.9204   6   9   0.0971   0.1775   0.1581  -0.0800  -0.1326   0.0582   0.00    0.0
2020/10/22 08:16:55.000   1112776.9814  -4341475.9371   4522955.9166   6   9   0.0971   0.1775   0.1581  -0.0800  -0.1326   0.0582   0.00    0.0
2020/10/22 08:16:56.000   1112776.9791  -4341475.9422   4522955.9144   6   9   0.0971   0.1775   0.1581  -0.0800  -0.1326   0.0582   0.00    0.0
2020/10/22 08:16:57.000   1112776.9898  -4341475.9695   4522955.9369   6   9   0.0971   0.1775   0.1581  -0.0800  -0.1326   0.0581   0.00    0.0
2020/10/22 08:16:58.000   1112776.9833  -4341475.9552   4522955.9297   6   9   0.0971   0.1775   0.1581  -0.0800  -0.1326   0.0582   0.00    0.0
2020/10/22 08:16:59.000   1112776.9866  -4341475.9671   4522955.9275   6   9   0.0972   0.1775   0.1581  -0.0800  -0.1326   0.0581   0.00    0.0
2020/10/22 08:17:00.000   1112776.9854  -4341475.9613   4522955.9258   6   9   0.0972   0.1775   0.1581  -0.0800  -0.1326   0.0581   0.00    0.0
2020/10/22 08:17:01.000   1112776.9933  -4341475.9750   4522955.9336   6   9   0.0972   0.1775   0.1581  -0.0800  -0.1326   0.0581   0.00    0.0
2020/10/22 08:17:02.000   1112776.9921  -4341475.9817   4522955.9327   6   9   0.0972   0.1775   0.1581  -0.0800  -0.1326   0.0581   0.00    0.0
2020/10/22 08:17:03.000   1112776.9949  -4341475.9797   4522955.9305   6   9   0.0972   0.1774   0.1581  -0.0800  -0.1326   0.0581   0.00    0.0
2020/10/22 08:17:04.000   1112776.9944  -4341475.9678   4522955.9213   6   9   0.0972   0.1774   0.1581  -0.0800  -0.1326   0.0581   0.00    0.0
2020/10/22 08:17:05.000   1112776.9909  -4341475.9543   4522955.9165   6   9   0.0972   0.1774   0.1582  -0.0800  -0.1326   0.0581   0.00    0.0
2020/10/22 08:17:06.000   1112776.9943  -4341475.9506   4522955.9165   6   9   0.0972   0.1774   0.1582  -0.0800  -0.1326   0.0581   0.00    0.0
2020/10/22 08:17:07.000   1112776.9865  -4341475.9419   4522955.9029   6   9   0.0972   0.1774   0.1582  -0.0800  -0.1326   0.0581   0.00    0.0
2020/10/22 08:17:08.000   1112776.9856  -4341475.9384   4522955.9017   6   9   0.0972   0.1774   0.1582  -0.0800  -0.1326   0.0581   0.00    0.0
2020/10/22 08:17:09.000   1112776.9858  -4341475.9458   4522955.9142   6   9   0.0972   0.1774   0.1582  -0.0800  -0.1326   0.0581   0.00    0.0
2020/10/22 08:17:10.000   1112776.9776  -4341475.9399   4522955.9051   6   9   0.0972   0.1774   0.1582  -0.0800  -0.1325   0.0581   0.00    0.0
2020/10/22 08:17:11.000   1112776.9797  -4341475.9347   4522955.9068   6   9   0.0972   0.1774   0.1582  -0.0800  -0.1325   0.0581   0.00    0.0
2020/10/22 08:17:12.000   1112776.9709  -4341475.9248   4522955.9047   6   9   0.0972   0.1774   0.1582  -0.0800  -0.1325   0.0581   0.00    0.0
2020/10/22 08:17:13.000   1112776.9737  -4341475.9323   4522955.9103   6   9   0.0972   0.1774   0.1582  -0.0800  -0.1325   0.0581   0.00    0.0
2020/10/22 08:17:14.000   1112776.9758  -4341475.9305   4522955.9129   6   9   0.0972   0.1773   0.1582  -0.0800  -0.1325   0.0581   0.00    0.0
2020/10/22 08:17:15.000   1112776.9818  -4341475.9380   4522955.9107   6   9   0.0972   0.1773   0.1582  -0.0800  -0.1325   0.0581   0.00    0.0
2020/10/22 08:17:16.000   1112776.9822  -4341475.9442   4522955.9133   6   9   0.0972   0.1773   0.1582  -0.0800  -0.1325   0.0581   0.00    0.0
2020/10/22 08:17:17.000   1112776.9788  -4341475.9404   4522955.9086   6   9   0.0972   0.1773   0.1582  -0.0800  -0.1325   0.0581   0.00    0.0
2020/10/22 08:17:18.000   1112776.9862  -4341475.9372   4522955.9087   6   9   0.0972   0.1773   0.1582  -0.0800  -0.1325   0.0581   0.00    0.0
2020/10/22 08:17:19.000   1112776.9801  -4341475.9475   4522955.9106   6   9   0.0972   0.1773   0.1582  -0.0801  -0.1325   0.0581   0.00    0.0
2020/10/22 08:17:20.000   1112776.9805  -4341475.9384   4522955.9024   6   9   0.0972   0.1773   0.1582  -0.0801  -0.1325   0.0581   0.00    0.0
2020/10/22 08:17:21.000   1112776.9789  -4341475.9253   4522955.9036   6   9   0.0972   0.1773   0.1582  -0.0801  -0.1325   0.0581   0.00    0.0
2020/10/22 08:17:22.000   1112776.9805  -4341475.9387   4522955.9197   6   9   0.0973   0.1773   0.1583  -0.0801  -0.1325   0.0581   0.00    0.0
2020/10/22 08:17:23.000   1112776.9794  -4341475.9233   4522955.9151   6   9   0.0973   0.1773   0.1583  -0.0801  -0.1325   0.0581   0.00    0.0
2020/10/22 08:17:24.000   1112776.9797  -4341475.9362   4522955.9337   6   8   0.0981   0.1818   0.2299  -0.0833  -0.1557   0.0747   0.00    0.0
2020/10/22 08:17:25.000   1112776.9821  -4341475.9392   4522955.9251   6   8   0.0982   0.1818   0.2299  -0.0833  -0.1558   0.0747   0.00    0.0
2020/10/22 08:17:26.000   1112776.9796  -4341475.9426   4522955.9314   6   8   0.0982   0.1818   0.2300  -0.0833  -0.1558   0.0747   0.00    0.0
2020/10/22 08:17:27.000   1112776.9743  -4341475.9456   4522955.9474   6   8   0.0982   0.1818   0.2300  -0.0833  -0.1558   0.0747   0.00    0.0
2020/10/22 08:17:28.000   1112776.9806  -4341475.9418   4522955.9315   6   8   0.0982   0.1818   0.2301  -0.0833  -0.1558   0.0747   0.00    0.0
2020/10/22 08:17:29.000   1112776.9831  -4341475.9376   4522955.9362   6   8   0.0982   0.1817   0.2301  -0.0833  -0.1558   0.0748   0.00    0.0
2020/10/22 08:17:30.000   1112776.9860  -4341475.9516   4522955.9497   6   8   0.0982   0.1817   0.2302  -0.0834  -0.1559   0.0748   0.00    0.0
2020/10/22 08:17:31.000   1112776.9827  -4341475.9560   4522955.9564   6   8   0.0982   0.1817   0.2302  -0.0834  -0.1559   0.0748   0.00    0.0
2020/10/22 08:17:32.000   1112776.9922  -4341475.9585   4522955.9400   6   8   0.0982   0.1817   0.2302  -0.0834  -0.1559   0.0748   0.00    0.0
2020/10/22 08:17:33.000   1112776.9996  -4341475.9669   4522955.9486   6   8   0.0982   0.1817   0.2303  -0.0834  -0.1559   0.0748   0.00    0.0
2020/10/22 08:17:34.000   1112776.9959  -4341475.9743   4522955.9590   6   8   0.0982   0.1817   0.2303  -0.0834  -0.1559   0.0748   0.00    0.0
2020/10/22 08:17:35.000   1112776.9994  -4341475.9763   4522955.9543   6   8   0.0982   0.1817   0.2304  -0.0834  -0.1559   0.0748   0.00    0.0
2020/10/22 08:17:36.000   1112777.0024  -4341475.9777   4522955.9523   6   8   0.0982   0.1817   0.2304  -0.0834  -0.1560   0.0748   0.00    0.0
2020/10/22 08:17:37.000   1112777.0048  -4341475.9837   4522955.9650   6   8   0.0982   0.1817   0.2305  -0.0834  -0.1560   0.0749   0.00    0.0
2020/10/22 08:17:38.000   1112777.0017  -4341475.9718   4522955.9452   6   8   0.0982   0.1817   0.2305  -0.0834  -0.1560   0.0749   0.00    0.0
2020/10/22 08:17:39.000   1112777.0109  -4341475.9749   4522955.9572   6   8   0.0982   0.1817   0.2305  -0.0834  -0.1560   0.0749   0.00    0.0
2020/10/22 08:17:40.000   1112777.0022  -4341475.9734   4522955.9496   6   8   0.0982   0.1817   0.2306  -0.0834  -0.1560   0.0749   0.00    0.0
2020/10/22 08:17:41.000   1112777.0089  -4341475.9804   4522955.9541   6   8   0.0982   0.1817   0.2306  -0.0834  -0.1561   0.0749   0.00    0.0
2020/10/22 08:17:42.000   1112777.0052  -4341475.9620   4522955.9522   6   8   0.0982   0.1817   0.2307  -0.0834  -0.1561   0.0749   0.00    0.0
2020/10/22 08:17:43.000   1112777.0096  -4341475.9723   4522955.9533   6   8   0.0983   0.1817   0.2307  -0.0834  -0.1561   0.0749   0.00    0.0
2020/10/22 08:17:44.000   1112777.0073  -4341475.9687   4522955.9368   6   8   0.0983   0.1817   0.2308  -0.0835  -0.1561   0.0749   0.00    0.0
2020/10/22 08:17:45.000   1112777.0095  -4341475.9654   4522955.9597   6   8   0.0983   0.1817   0.2308  -0.0835  -0.1561   0.0750   0.00    0.0
2020/10/22 08:17:46.000   1112777.0113  -4341475.9682   4522955.9533   6   8   0.0983   0.1817   0.2309  -0.0835  -0.1562   0.0750   0.00    0.0
2020/10/22 08:17:47.000   1112777.0126  -4341475.9671   4522955.9559   6   8   0.0983   0.1817   0.2309  -0.0835  -0.1562   0.0750   0.00    0.0
2020/10/22 08:17:48.000   1112777.0089  -4341475.9594   4522955.9352   6   8   0.0983   0.1817   0.2309  -0.0835  -0.1562   0.0750   0.00    0.0
2020/10/22 08:17:49.000   1112777.0083  -4341475.9636   4522955.9553   6   8   0.0983   0.1817   0.2310  -0.0835  -0.1562   0.0750   0.00    0.0
2020/10/22 08:17:50.000   1112777.0048  -4341475.9621   4522955.9455   6   8   0.0983   0.1817   0.2310  -0.0835  -0.1562   0.0750   0.00    0.0
2020/10/22 08:17:51.000   1112777.0038  -4341475.9556   4522955.9496   6   8   0.0983   0.1817   0.2311  -0.0835  -0.1562   0.0750   0.00    0.0
2020/10/22 08:17:52.000   1112776.9983  -4341475.9519   4522955.9493   6   8   0.0983   0.1817   0.2311  -0.0835  -0.1563   0.0751   0.00    0.0
2020/10/22 08:17:53.000   1112777.0079  -4341475.9666   4522955.9602   6   8   0.0983   0.1817   0.2312  -0.0835  -0.1563   0.0751   0.00    0.0
2020/10/22 08:17:54.000   1112776.9996  -4341475.9627   4522955.9689   6   8   0.0983   0.1817   0.2312  -0.0835  -0.1563   0.0751   0.00    0.0
2020/10/22 08:17:55.000   1112777.0000  -4341475.9674   4522955.9670   6   8   0.0983   0.1817   0.2312  -0.0835  -0.1563   0.0751   0.00    0.0
2020/10/22 08:17:56.000   1112777.0031  -4341475.9762   4522955.9802   6   8   0.0983   0.1817   0.2313  -0.0835  -0.1563   0.0751   0.00    0.0
2020/10/22 08:17:57.000   1112777.0017  -4341475.9686   4522955.9821   6   8   0.0983   0.1817   0.2313  -0.0835  -0.1564   0.0751   0.00    0.0
2020/10/22 08:17:58.000   1112777.0079  -4341475.9787   4522955.9872   6   8   0.0983   0.1817   0.2314  -0.0835  -0.1564   0.0751   0.00    0.0
2020/10/22 08:17:59.000   1112777.0114  -4341475.9857   4522955.9947   6   8   0.0983   0.1817   0.2314  -0.0836  -0.1564   0.0751   0.00    0.0
2020/10/22 08:18:00.000   1112777.0119  -4341475.9884   4522955.9939   6   8   0.0983   0.1817   0.2315  -0.0836  -0.1564   0.0752   0.00    0.0
2020/10/22 08:18:01.000   1112777.0063  -4341475.9889   4522955.9908   6   8   0.0983   0.1817   0.2315  -0.0836  -0.1564   0.0752   0.00    0.0
2020/10/22 08:18:02.000   1112777.0028  -4341475.9944   4522955.9856   6   8   0.0984   0.1817   0.2315  -0.0836  -0.1564   0.0752   0.00    0.0
2020/10/22 08:18:03.000   1112777.0126  -4341476.0128   4522956.0094   6   8   0.0984   0.1817   0.2316  -0.0836  -0.1565   0.0752   0.00    0.0
2020/10/22 08:18:04.000   1112777.0148  -4341476.0206   4522956.0169   6   8   0.0984   0.1817   0.2316  -0.0836  -0.1565   0.0752   0.00    0.0
2020/10/22 08:18:05.000   1112776.9989  -4341476.0363   4522956.2691   6   8   0.0984   0.1817   0.2317  -0.0836  -0.1565   0.0752   0.00    0.0
2020/10/22 08:18:06.000   1112777.0055  -4341476.0558   4522956.2706   6   8   0.0984   0.1817   0.2317  -0.0836  -0.1565   0.0752   0.00    0.0
2020/10/22 08:18:07.000   1112777.0028  -4341476.0553   4522956.2713   6   8   0.0984   0.1817   0.2318  -0.0836  -0.1565   0.0752   0.00    0.0
2020/10/22 08:18:08.000   1112777.0117  -4341476.0538   4522956.2657   6   8   0.0984   0.1817   0.2318  -0.0836  -0.1566   0.0753   0.00    0.0
2020/10/22 08:18:09.000   1112777.0062  -4341476.0596   4522956.2686   6   8   0.0984   0.1817   0.2319  -0.0836  -0.1566   0.0753   0.00    0.0
2020/10/22 08:18:10.000   1112777.0106  -4341476.0666   4522956.2692   6   8   0.0984   0.1817   0.2319  -0.0836  -0.1566   0.0753   0.00    0.0
2020/10/22 08:18:11.000   1112777.0149  -4341476.0664   4522956.2740   6   8   0.0984   0.1817   0.2319  -0.0836  -0.1566   0.0753   0.00    0.0
2020/10/22 08:18:12.000   1112777.0170  -4341476.0249   4522955.9984   6   8   0.0984   0.1817   0.2320  -0.0836  -0.1566   0.0753   0.00    0.0
2020/10/22 08:18:13.000   1112777.0150  -4341476.0134   4522955.9985   6   8   0.0984   0.1817   0.2320  -0.0836  -0.1567   0.0753   0.00    0.0
2020/10/22 08:18:14.000   1112777.0181  -4341476.0295   4522956.0049   6   8   0.0984   0.1817   0.2321  -0.0837  -0.1567   0.0753   0.00    0.0
2020/10/22 08:18:15.000   1112777.0210  -4341476.0266   4522956.0035   6   8   0.0984   0.1816   0.2321  -0.0837  -0.1567   0.0754   0.00    0.0
2020/10/22 08:18:16.000   1112777.0237  -4341476.0295   4522956.0111   6   8   0.0984   0.1816   0.2322  -0.0837  -0.1567   0.0754   0.00    0.0
2020/10/22 08:18:17.000   1112777.0237  -4341476.0180   4522955.9863   6   8   0.0984   0.1816   0.2322  -0.0837  -0.1567   0.0754   0.00    0.0
2020/10/22 08:18:18.000   1112777.0277  -4341476.0207   4522955.9935   6   8   0.0984   0.1816   0.2323  -0.0837  -0.1567   0.0754   0.00    0.0
2020/10/22 08:18:19.000   1112777.0195  -4341476.0105   4522955.9925   6   8   0.0984   0.1816   0.2323  -0.0837  -0.1568   0.0754   0.00    0.0
2020/10/22 08:18:20.000   1112777.0230  -4341476.0066   4522955.9830   6   8   0.0984   0.1816   0.2323  -0.0837  -0.1568   0.0754   0.00    0.0
2020/10/22 08:18:21.000   1112777.0230  -4341476.0106   4522955.9966   6   8   0.0985   0.1816   0.2324  -0.0837  -0.1568   0.0754   0.00    0.0
2020/10/22 08:18:22.000   1112777.0202  -4341475.9994   4522955.9914   6   8   0.0985   0.1816   0.2324  -0.0837  -0.1568   0.0754   0.00    0.0
2020/10/22 08:18:23.000   1112777.0207  -4341476.0064   4522956.0004   6   8   0.0985   0.1816   0.2325  -0.0837  -0.1568   0.0755   0.00    0.0
2020/10/22 08:18:24.000   1112777.0185  -4341475.9955   4522955.9832   6   8   0.0985   0.1816   0.2325  -0.0837  -0.1569   0.0755   0.00    0.0
2020/10/22 08:18:25.000   1112777.0208  -4341475.9863   4522955.9649   6   8   0.0985   0.1816   0.2326  -0.0837  -0.1569   0.0755   0.00    0.0
2020/10/22 08:18:26.000   1112777.0139  -4341475.9906   4522955.9739   6   8   0.0985   0.1816   0.2326  -0.0837  -0.1569   0.0755   0.00    0.0
2020/10/22 08:18:27.000   1112777.0202  -4341475.9959   4522955.9823   6   8   0.0985   0.1816   0.2326  -0.0837  -0.1569   0.0755   0.00    0.0
2020/10/22 08:18:28.000   1112777.0111  -4341475.9789   4522955.9582   6   8   0.0985   0.1816   0.2327  -0.0838  -0.1569   0.0755   0.00    0.0
2020/10/22 08:18:29.000   1112777.0102  -4341475.9843   4522955.9537   6   8   0.0985   0.1816   0.2327  -0.0838  -0.1569   0.0755   0.00    0.0
2020/10/22 08:18:30.000   1112777.0107  -4341475.9738   4522955.9567   6   8   0.0985   0.1816   0.2328  -0.0838  -0.1570   0.0755   0.00    0.0
2020/10/22 08:18:31.000   1112777.0087  -4341475.9878   4522955.9693   6   8   0.0985   0.1816   0.2328  -0.0838  -0.1570   0.0756   0.00    0.0
2020/10/22 08:18:32.000   1112777.0038  -4341475.9805   4522955.9652   6   8   0.0985   0.1816   0.2329  -0.0838  -0.1570   0.0756   0.00    0.0
2020/10/22 08:18:33.000   1112777.0057  -4341475.9875   4522955.9535   6   8   0.0985   0.1816   0.2329  -0.0838  -0.1570   0.0756   0.00    0.0
2020/10/22 08:18:34.000   1112777.0106  -4341475.9927   4522955.9533   6   8   0.0985   0.1816   0.2330  -0.0838  -0.1570   0.0756   0.00    0.0
2020/10/22 08:18:35.000   1112777.0163  -4341476.0122   4522955.9702   6   8   0.0985   0.1816   0.2330  -0.0838  -0.1571   0.0756   0.00    0.0
2020/10/22 08:18:36.000   1112777.0143  -4341475.9965   4522955.9443   6   8   0.0985   0.1816   0.2330  -0.0838  -0.1571   0.0756   0.00    0.0
2020/10/22 08:18:37.000   1112777.0136  -4341475.9977   4522955.9508   6   8   0.0985   0.1816   0.2331  -0.0838  -0.1571   0.0756   0.00    0.0
2020/10/22 08:18:38.000   1112777.0063  -4341475.9994   4522955.9518   6   8   0.0985   0.1816   0.2331  -0.0838  -0.1571   0.0757   0.00    0.0
2020/10/22 08:18:39.000   1112777.0110  -4341476.0069   4522955.9612   6   8   0.0986   0.1816   0.2332  -0.0838  -0.1571   0.0757   0.00    0.0
2020/10/22 08:18:40.000   1112777.0142  -4341476.0071   4522955.9688   6   8   0.0986   0.1816   0.2332  -0.0838  -0.1572   0.0757   0.00    0.0
2020/10/22 08:18:41.000   1112777.0094  -4341475.9902   4522955.9537   6   8   0.0986   0.1816   0.2333  -0.0838  -0.1572   0.0757   0.00    0.0
2020/10/22 08:18:42.000   1112777.0088  -4341476.0075   4522955.9602   6   8   0.0986   0.1816   0.2333  -0.0838  -0.1572   0.0757   0.00    0.0
2020/10/22 08:18:43.000   1112777.0101  -4341475.9988   4522955.9604   6   8   0.0986   0.1816   0.2334  -0.0839  -0.1572   0.0757   0.00    0.0
2020/10/22 08:18:44.000   1112777.0031  -4341475.9960   4522955.9556   6   8   0.0986   0.1816   0.2334  -0.0839  -0.1572   0.0757   0.00    0.0
2020/10/22 08:18:45.000   1112777.0073  -4341475.9930   4522955.9516   6   8   0.0986   0.1816   0.2334  -0.0839  -0.1572   0.0757   0.00    0.0
2020/10/22 08:18:46.000   1112777.0113  -4341476.0019   4522955.9551   6   8   0.0986   0.1816   0.2335  -0.0839  -0.1573   0.0758   0.00    0.0
2020/10/22 08:18:47.000   1112777.0127  -4341476.0116   4522955.9810   6   8   0.0986   0.1816   0.2335  -0.0839  -0.1573   0.0758   0.00    0.0
2020/10/22 08:18:48.000   1112777.0096  -4341476.0065   4522955.9682   6   8   0.0986   0.1816   0.2336  -0.0839  -0.1573   0.0758   0.00    0.0
2020/10/22 08:18:49.000   1112777.0095  -4341476.0097   4522955.9734   6   8   0.0986   0.1816   0.2336  -0.0839  -0.1573   0.0758   0.00    0.0
2020/10/22 08:18:50.000   1112777.0094  -4341476.0213   4522955.9802   6   8   0.0986   0.1816   0.2337  -0.0839  -0.1573   0.0758   0.00    0.0
2020/10/22 08:18:51.000   1112777.0095  -4341476.0095   4522955.9829   6   8   0.0986   0.1816   0.2337  -0.0839  -0.1574   0.0758   0.00    0.0
2020/10/22 08:18:52.000   1112777.0032  -4341476.0004   4522955.9597   6   8   0.0986   0.1816   0.2337  -0.0839  -0.1574   0.0758   0.00    0.0
2020/10/22 08:18:53.000   1112777.0051  -4341476.0013   4522955.9719   6   8   0.0986   0.1816   0.2338  -0.0839  -0.1574   0.0758   0.00    0.0
2020/10/22 08:18:54.000   1112777.0041  -4341475.9987   4522955.9658   6   8   0.0986   0.1816   0.2338  -0.0839  -0.1574   0.0759   0.00    0.0
2020/10/22 08:18:55.000   1112777.0047  -4341476.0041   4522955.9593   6   8   0.0986   0.1816   0.2339  -0.0839  -0.1574   0.0759   0.00    0.0
2020/10/22 08:18:56.000   1112777.0109  -4341476.0021   4522955.9645   6   8   0.0986   0.1816   0.2339  -0.0839  -0.1574   0.0759   0.00    0.0
2020/10/22 08:18:57.000   1112776.9970  -4341475.9949   4522955.9535   6   8   0.0986   0.1815   0.2340  -0.0839  -0.1575   0.0759   0.00    0.0
2020/10/22 08:18:58.000   1112776.9966  -4341475.9831   4522955.9571   6   8   0.0987   0.1815   0.2340  -0.0840  -0.1575   0.0759   0.00    0.0
2020/10/22 08:18:59.000   1112776.9976  -4341475.9903   4522955.9588   6   8   0.0987   0.1815   0.2341  -0.0840  -0.1575   0.0759   0.00    0.0
2020/10/22 08:19:00.000   1112776.9910  -4341475.9790   4522955.9606   6   8   0.0987   0.1815   0.2341  -0.0840  -0.1575   0.0759   0.00    0.0
2020/10/22 08:19:01.000   1112776.9928  -4341475.9855   4522955.9626   6   8   0.0987   0.1815   0.2341  -0.0840  -0.1575   0.0760   0.00    0.0
2020/10/22 08:19:02.000   1112776.9848  -4341475.9731   4522955.9611   6   8   0.0987   0.1815   0.2342  -0.0840  -0.1576   0.0760   0.00    0.0
2020/10/22 08:19:03.000   1112776.9906  -4341475.9814   4522955.9548   6   8   0.0987   0.1815   0.2342  -0.0840  -0.1576   0.0760   0.00    0.0
2020/10/22 08:19:04.000   1112776.9869  -4341475.9743   4522955.9583   6   8   0.0987   0.1815   0.2343  -0.0840  -0.1576   0.0760   0.00    0.0
2020/10/22 08:19:05.000   1112776.9879  -4341475.9730   4522955.9602   6   8   0.0987   0.1815   0.2343  -0.0840  -0.1576   0.0760   0.00    0.0
2020/10/22 08:19:06.000   1112776.9830  -4341475.9724   4522955.9513   6   8   0.0987   0.1815   0.2344  -0.0840  -0.1576   0.0760   0.00    0.0
2020/10/22 08:19:07.000   1112776.9849  -4341475.9751   4522955.9521   6   8   0.0987   0.1815   0.2344  -0.0840  -0.1577   0.0760   0.00    0.0
2020/10/22 08:19:08.000   1112776.9845  -4341475.9714   4522955.9623   6   8   0.0987   0.1815   0.2345  -0.0840  -0.1577   0.0760   0.00    0.0
2020/10/22 08:19:09.000   1112776.9813  -4341475.9649   4522955.9489   6   8   0.0987   0.1815   0.2345  -0.0840  -0.1577   0.0761   0.00    0.0
2020/10/22 08:19:10.000   1112776.9819  -4341475.9637   4522955.9376   6   8   0.0987   0.1815   0.2345  -0.0840  -0.1577   0.0761   0.00    0.0
2020/10/22 08:19:11.000   1112776.9781  -4341475.9710   4522955.9333   6   8   0.0987   0.1815   0.2346  -0.0840  -0.1577   0.0761   0.00    0.0
2020/10/22 08:19:12.000   1112777.2422  -4341476.6210   4522956.5853   6   8   0.0987   0.1815   0.2346  -0.0840  -0.1577   0.0761   0.00    0.0
2020/10/22 08:19:13.000   1112777.2424  -4341476.6100   4522956.5695   6   8   0.0987   0.1815   0.2347  -0.0841  -0.1578   0.0761   0.00    0.0
2020/10/22 08:19:14.000   1112777.2449  -4341476.6164   4522956.5912   6   8   0.0987   0.1815   0.2347  -0.0841  -0.1578   0.0761   0.00    0.0
2020/10/22 08:19:15.000   1112777.2436  -4341476.6032   4522956.5821   6   8   0.0987   0.1815   0.2348  -0.0841  -0.1578   0.0761   0.00    0.0
2020/10/22 08:19:16.000   1112777.2452  -4341476.6194   4522956.5849   6   8   0.0988   0.1815   0.2348  -0.0841  -0.1578   0.0762   0.00    0.0
2020/10/22 08:19:17.000   1112776.9754  -4341475.9563   4522955.9431   6   8   0.0988   0.1815   0.2349  -0.0841  -0.1578   0.0762   0.00    0.0
2020/10/22 08:19:18.000   1112776.9764  -4341475.9659   4522955.9476   6   8   0.0988   0.1815   0.2349  -0.0841  -0.1579   0.0762   0.00    0.0
2020/10/22 08:19:19.000   1112776.9850  -4341475.9588   4522955.9618   6   8   0.0988   0.1815   0.2349  -0.0841  -0.1579   0.0762   0.00    0.0
2020/10/22 08:19:20.000   1112776.9865  -4341475.9606   4522955.9475   6   8   0.0988   0.1815   0.2350  -0.0841  -0.1579   0.0762   0.00    0.0
2020/10/22 08:19:21.000   1112776.9860  -4341475.9609   4522955.9538   6   8   0.0988   0.1815   0.2350  -0.0841  -0.1579   0.0762   0.00    0.0
2020/10/22 08:19:22.000   1112776.9791  -4341475.9450   4522955.9377   6   8   0.0988   0.1815   0.2351  -0.0841  -0.1579   0.0762   0.00    0.0
2020/10/22 08:19:23.000   1112776.9790  -4341475.9525   4522955.9382   6   8   0.0988   0.1815   0.2351  -0.0841  -0.1579   0.0762   0.00    0.0
2020/10/22 08:19:24.000   1112776.9884  -4341475.9564   4522955.9337   6   8   0.0988   0.1815   0.2352  -0.0841  -0.1580   0.0763   0.00    0.0
2020/10/22 08:19:25.000   1112776.9825  -4341475.9562   4522955.9392   6   8   0.0988   0.1815   0.2352  -0.0841  -0.1580   0.0763   0.00    0.0
2020/10/22 08:19:26.000   1112776.9843  -4341475.9541   4522955.9281   6   8   0.0988   0.1815   0.2353  -0.0841  -0.1580   0.0763   0.00    0.0
2020/10/22 08:19:27.000   1112776.9879  -4341475.9417   4522955.9200   6   8   0.0988   0.1815   0.2353  -0.0842  -0.1580   0.0763   0.00    0.0
2020/10/22 08:19:28.000   1112776.9853  -4341475.9329   4522955.9161   6   8   0.0988   0.1815   0.2353  -0.0842  -0.1580   0.0763   0.00    0.0
2020/10/22 08:19:29.000   1112776.9900  -4341475.9534   4522955.9140   6   8   0.0988   0.1815   0.2354  -0.0842  -0.1581   0.0763   0.00    0.0
2020/10/22 08:19:30.000   1112776.9882  -4341475.9425   4522955.9080   6   8   0.0988   0.1815   0.2354  -0.0842  -0.1581   0.0763   0.00    0.0
2020/10/22 08:19:31.000   1112776.9869  -4341475.9381   4522955.8949   6   8   0.0988   0.1815   0.2355  -0.0842  -0.1581   0.0764   0.00    0.0
2020/10/22 08:19:32.000   1112776.9924  -4341475.9408   4522955.9221   6   8   0.0988   0.1815   0.2355  -0.0842  -0.1581   0.0764   0.00    0.0
2020/10/22 08:19:33.000   1112776.9895  -4341475.9247   4522955.9025   6   8   0.0988   0.1815   0.2356  -0.0842  -0.1581   0.0764   0.00    0.0
2020/10/22 08:19:34.000   1112776.9843  -4341475.9214   4522955.8833   6   8   0.0989   0.1815   0.2356  -0.0842  -0.1581   0.0764   0.00    0.0
2020/10/22 08:19:35.000   1112776.9840  -4341475.9178   4522955.8811   6   8   0.0989   0.1815   0.2357  -0.0842  -0.1582   0.0764   0.00    0.0
2020/10/22 08:19:36.000   1112776.9864  -4341475.9328   4522955.8796   6   8   0.0989   0.1815   0.2357  -0.0842  -0.1582   0.0764   0.00    0.0
2020/10/22 08:19:37.000   1112776.9907  -4341475.9295   4522955.8756   6   8   0.0989   0.1814   0.2357  -0.0842  -0.1582   0.0764   0.00    0.0
2020/10/22 08:19:38.000   1112776.9900  -4341475.9354   4522955.8823   6   8   0.0989   0.1814   0.2358  -0.0842  -0.1582   0.0764   0.00    0.0
2020/10/22 08:19:39.000   1112776.9923  -4341475.9401   4522955.8883   6   8   0.0989   0.1814   0.2358  -0.0842  -0.1582   0.0765   0.00    0.0
2020/10/22 08:19:40.000   1112776.9923  -4341475.9427   4522955.8915   6   8   0.0989   0.1814   0.2359  -0.0842  -0.1583   0.0765   0.00    0.0
2020/10/22 08:19:41.000   1112776.9967  -4341475.9522   4522955.8996   6   8   0.0989   0.1814   0.2359  -0.0842  -0.1583   0.0765   0.00    0.0
2020/10/22 08:19:42.000   1112776.9891  -4341475.9425   4522955.8944   6   8   0.0989   0.1814   0.2360  -0.0843  -0.1583   0.0765   0.00    0.0
2020/10/22 08:19:43.000   1112776.9899  -4341475.9469   4522955.8858   6   8   0.0989   0.1814   0.2360  -0.0843  -0.1583   0.0765   0.00    0.0
2020/10/22 08:19:44.000   1112776.9918  -4341475.9461   4522955.8887   6   8   0.0989   0.1814   0.2361  -0.0843  -0.1583   0.0765   0.00    0.0
2020/10/22 08:19:45.000   1112776.9829  -4341475.9356   4522955.8771   6   8   0.0989   0.1814   0.2361  -0.0843  -0.1583   0.0765   0.00    0.0
2020/10/22 08:19:46.000   1112776.9928  -4341475.9407   4522955.9023   6   8   0.0989   0.1814   0.2361  -0.0843  -0.1584   0.0765   0.00    0.0
2020/10/22 08:19:47.000   1112776.9898  -4341475.9464   4522955.9078   6   8   0.0989   0.1814   0.2362  -0.0843  -0.1584   0.0766   0.00    0.0
2020/10/22 08:19:48.000   1112776.9946  -4341475.9596   4522955.9163   6   8   0.0989   0.1814   0.2362  -0.0843  -0.1584   0.0766   0.00    0.0
2020/10/22 08:19:49.000   1112776.9892  -4341475.9484   4522955.9036   6   8   0.0989   0.1814   0.2363  -0.0843  -0.1584   0.0766   0.00    0.0
2020/10/22 08:19:50.000   1112776.9907  -4341475.9577   4522955.9189   6   8   0.0989   0.1814   0.2363  -0.0843  -0.1584   0.0766   0.00    0.0
2020/10/22 08:19:51.000   1112776.9919  -4341475.9478   4522955.9007   6   8   0.0989   0.1814   0.2364  -0.0843  -0.1585   0.0766   0.00    0.0
2020/10/22 08:19:52.000   1112776.9824  -4341475.9446   4522955.9051   6   8   0.0990   0.1814   0.2364  -0.0843  -0.1585   0.0766   0.00    0.0
2020/10/22 08:19:53.000   1112776.9814  -4341475.9405   4522955.9109   6   8   0.0990   0.1814   0.2365  -0.0843  -0.1585   0.0766   0.00    0.0
2020/10/22 08:19:54.000   1112776.9821  -4341475.9360   4522955.9063   6   8   0.0990   0.1814   0.2365  -0.0843  -0.1585   0.0767   0.00    0.0
2020/10/22 08:19:55.000   1112776.9769  -4341475.9406   4522955.9168   6   8   0.0990   0.1814   0.2366  -0.0843  -0.1585   0.0767   0.00    0.0
2020/10/22 08:19:56.000   1112776.9774  -4341475.9342   4522955.9165   6   8   0.0990   0.1814   0.2366  -0.0843  -0.1585   0.0767   0.00    0.0
2020/10/22 08:19:57.000   1112776.9735  -4341475.9315   4522955.9105   6   8   0.0990   0.1814   0.2366  -0.0844  -0.1586   0.0767   0.00    0.0
2020/10/22 08:19:58.000   1112776.9696  -4341475.9328   4522955.9174   6   8   0.0990   0.1814   0.2367  -0.0844  -0.1586   0.0767   0.00    0.0
2020/10/22 08:19:59.000   1112776.9650  -4341475.9336   4522955.9211   6   8   0.0990   0.1814   0.2367  -0.0844  -0.1586   0.0767   0.00    0.0
2020/10/22 08:20:00.000   1112776.9705  -4341475.9329   4522955.9157   6   8   0.0990   0.1814   0.2368  -0.0844  -0.1586   0.0767   0.00    0.0
2020/10/22 08:20:01.000   1112776.9722  -4341475.9380   4522955.9144   6   8   0.0990   0.1814   0.2368  -0.0844  -0.1586   0.0767   0.00    0.0
2020/10/22 08:20:02.000   1112776.9367  -4341475.8759   4522955.8860   6   8   0.0990   0.1814   0.2369  -0.0844  -0.1587   0.0768   0.00    0.0
2020/10/22 08:20:03.000   1112776.9362  -4341475.8660   4522955.8941   6   8   0.0990   0.1814   0.2369  -0.0844  -0.1587   0.0768   0.00    0.0
2020/10/22 08:20:04.000   1112776.9287  -4341475.8698   4522955.8928   6   8   0.0990   0.1814   0.2370  -0.0844  -0.1587   0.0768   0.00    0.0
2020/10/22 08:20:05.000   1112776.9179  -4341475.8480   4522955.8809   6   8   0.0990   0.1814   0.2370  -0.0844  -0.1587   0.0768   0.00    0.0
2020/10/22 08:20:06.000   1112776.9189  -4341475.8478   4522955.8773   6   8   0.0990   0.1814   0.2370  -0.0844  -0.1587   0.0768   0.00    0.0
2020/10/22 08:20:07.000   1112776.9154  -4341475.8454   4522955.8897   6   8   0.0990   0.1814   0.2371  -0.0844  -0.1587   0.0768   0.00    0.0
2020/10/22 08:20:08.000   1112776.9166  -4341475.8356   4522955.8642   6   8   0.0990   0.1814   0.2371  -0.0844  -0.1588   0.0768   0.00    0.0
2020/10/22 08:20:09.000   1112776.9197  -4341475.8338   4522955.8742   6   8   0.0990   0.1814   0.2372  -0.0844  -0.1588   0.0769   0.00    0.0
2020/10/22 08:20:10.000   1112776.9226  -4341475.8368   4522955.8798   6   8   0.0990   0.1814   0.2372  -0.0844  -0.1588   0.0769   0.00    0.0
2020/10/22 08:20:11.000   1112776.9166  -4341475.8391   4522955.8700   6   8   0.0991   0.1814   0.2373  -0.0844  -0.1588   0.0769   0.00    0.0
2020/10/22 08:20:12.000   1112776.9236  -4341475.8438   4522955.8683   6   8   0.0991   0.1814   0.2373  -0.0845  -0.1588   0.0769   0.00    0.0
2020/10/22 08:20:13.000   1112776.9266  -4341475.8466   4522955.8681   6   8   0.0991   0.1814   0.2374  -0.0845  -0.1589   0.0769   0.00    0.0
2020/10/22 08:20:14.000   1112776.9224  -4341475.8429   4522955.8824   6   8   0.0991   0.1814   0.2374  -0.0845  -0.1589   0.0769   0.00    0.0
2020/10/22 08:20:15.000   1112776.9189  -4341475.8476   4522955.8782   6   8   0.0991   0.1813   0.2374  -0.0845  -0.1589   0.0769   0.00    0.0
2020/10/22 08:20:16.000   1112776.8167  -4341474.9002   4522954.7857   6   7   0.1092   0.2288   0.2658  -0.1164  -0.2047   0.1068   0.00    0.0
2020/10/22 08:20:17.000   1112776.8240  -4341474.9036   4522954.7907   6   7   0.1092   0.2288   0.2658  -0.1164  -0.2047   0.1068   0.00    0.0
2020/10/22 08:20:18.000   1112776.8174  -4341474.9021   4522954.7878   6   7   0.1092   0.2288   0.2658  -0.1164  -0.2047   0.1068   0.00    0.0
2020/10/22 08:20:19.000   1112776.8222  -4341474.9085   4522954.7977   6   7   0.1092   0.2288   0.2659  -0.1164  -0.2047   0.1068   0.00    0.0
2020/10/22 08:20:20.000   1112776.8198  -4341474.9053   4522954.7947   6   7   0.1092   0.2288   0.2659  -0.1164  -0.2047   0.1068   0.00    0.0
2020/10/22 08:20:21.000   1112776.8398  -4341474.9522   4522954.8318   6   8   0.1090   0.2277   0.2652  -0.1157  -0.2037   0.1062   0.00    0.0
2020/10/22 08:20:22.000   1112776.7960  -4341475.3970   4522955.4667   6   8   0.1042   0.2059   0.2519  -0.1014  -0.1828   0.0928   0.00    0.0
2020/10/22 08:20:23.000   1112776.8604  -4341475.5662   4522955.6182   6   8   0.1025   0.1981   0.2473  -0.0961  -0.1753   0.0879   0.00    0.0
2020/10/22 08:20:24.000   1112776.8893  -4341475.6549   4522955.6980   6   8   0.1017   0.1941   0.2450  -0.0934  -0.1714   0.0853   0.00    0.0
2020/10/22 08:20:25.000   1112776.9102  -4341475.7226   4522955.7571   6   8   0.1012   0.1916   0.2437  -0.0917  -0.1690   0.0838   0.00    0.0
2020/10/22 08:20:26.000   1112776.9146  -4341475.7519   4522955.7725   6   8   0.1009   0.1900   0.2428  -0.0906  -0.1674   0.0827   0.00    0.0
2020/10/22 08:20:27.000   1112776.9354  -4341475.7833   4522955.8000   6   8   0.1006   0.1888   0.2421  -0.0898  -0.1663   0.0820   0.00    0.0
2020/10/22 08:20:28.000   1112776.9308  -4341475.7985   4522955.8179   6   8   0.1005   0.1879   0.2417  -0.0892  -0.1654   0.0814   0.00    0.0
2020/10/22 08:20:29.000   1112776.9383  -4341475.8181   4522955.8342   6   8   0.1003   0.1872   0.2413  -0.0887  -0.1648   0.0809   0.00    0.0
2020/10/22 08:20:30.000   1112776.9453  -4341475.8340   4522955.8326   6   8   0.1002   0.1866   0.2410  -0.0883  -0.1643   0.0806   0.00    0.0
2020/10/22 08:20:31.000   1112776.9523  -4341475.8558   4522955.8537   6   8   0.1001   0.1861   0.2408  -0.0880  -0.1638   0.0803   0.00    0.0
2020/10/22 08:20:32.000   1112776.9627  -4341475.8828   4522955.8734   6   8   0.1001   0.1857   0.2406  -0.0877  -0.1635   0.0801   0.00    0.0
2020/10/22 08:20:33.000   1112776.9619  -4341475.8786   4522955.8668   6   8   0.1000   0.1854   0.2405  -0.0875  -0.1632   0.0799   0.00    0.0
2020/10/22 08:20:34.000   1112776.9606  -4341475.8896   4522955.8783   6   8   0.1000   0.1851   0.2404  -0.0873  -0.1629   0.0797   0.00    0.0
2020/10/22 08:20:35.000   1112776.9631  -4341475.8877   4522955.8762   6   8   0.0999   0.1849   0.2403  -0.0871  -0.1627   0.0795   0.00    0.0
2020/10/22 08:20:36.000   1112776.9716  -4341475.9045   4522955.9033   6   8   0.0999   0.1847   0.2402  -0.0870  -0.1625   0.0794   0.00    0.0
2020/10/22 08:20:37.000   1112776.9656  -4341475.8981   4522955.8848   6   8   0.0998   0.1845   0.2402  -0.0869  -0.1623   0.0793   0.00    0.0
2020/10/22 08:20:38.000   1112776.9654  -4341475.9199   4522955.9038   6   8   0.0998   0.1843   0.2401  -0.0868  -0.1622   0.0792   0.00    0.0
2020/10/22 08:20:39.000   1112776.9677  -4341475.9223   4522955.9087   6   8   0.0998   0.1842   0.2401  -0.0867  -0.1621   0.0791   0.00    0.0
2020/10/22 08:20:40.000   1112776.9710  -4341475.9176   4522955.8986   6   8   0.0998   0.1840   0.2400  -0.0866  -0.1620   0.0790   0.00    0.0
2020/10/22 08:20:41.000   1112776.9788  -4341475.9213   4522955.8962   6   8   0.0997   0.1839   0.2400  -0.0865  -0.1619   0.0790   0.00    0.0
2020/10/22 08:20:42.000   1112777.2270  -4341476.8199   4522956.9905   6   7   0.0997   0.2113   0.2960  -0.0862  -0.2103   0.0785   0.00    0.0
2020/10/22 08:20:43.000   1112777.2256  -4341476.8137   4522956.9685   6   7   0.0997   0.2112   0.2960  -0.0862  -0.2102   0.0785   0.00    0.0
2020/10/22 08:20:44.000   1112777.2278  -4341476.7956   4522956.9769   6   7   0.0997   0.2111   0.2960  -0.0861  -0.2102   0.0784   0.00    0.0
2020/10/22 08:20:45.000   1112777.2280  -4341476.7789   4522956.9487   6   7   0.0997   0.2110   0.2960  -0.0861  -0.2101   0.0784   0.00    0.0
2020/10/22 08:20:46.000   1112777.2121  -4341476.7483   4522956.9347   6   7   0.0997   0.2109   0.2960  -0.0860  -0.2100   0.0783   0.00    0.0
2020/10/22 08:20:47.000   1112776.9583  -4341475.8122   4522955.7627   6   8   0.0997   0.2103   0.2948  -0.0860  -0.2090   0.0783   0.00    0.0
2020/10/22 08:20:48.000   1112776.9574  -4341475.8275   4522955.7990   6   8   0.0997   0.1984   0.2702  -0.0864  -0.1883   0.0791   0.00    0.0
2020/10/22 08:20:49.000   1112776.9586  -4341475.8216   4522955.7852   6   8   0.0997   0.1942   0.2615  -0.0865  -0.1808   0.0794   0.00    0.0
2020/10/22 08:20:50.000   1112776.9605  -4341475.8251   4522955.7926   6   8   0.0997   0.1920   0.2570  -0.0866  -0.1769   0.0795   0.00    0.0
2020/10/22 08:20:51.000   1112776.9649  -4341475.8343   4522955.7901   6   8   0.0997   0.1906   0.2542  -0.0866  -0.1745   0.0795   0.00    0.0
2020/10/22 08:20:52.000   1112776.9663  -4341475.8399   4522955.8085   6   8   0.0997   0.1897   0.2524  -0.0866  -0.1729   0.0795   0.00    0.0
2020/10/22 08:20:53.000   1112776.9724  -4341475.8478   4522955.8088   6   8   0.0997   0.1890   0.2510  -0.0866  -0.1717   0.0796   0.00    0.0
2020/10/22 08:20:54.000   1112776.9654  -4341475.8399   4522955.8069   6   8   0.0997   0.1885   0.2500  -0.0866  -0.1707   0.0796   0.00    0.0
2020/10/22 08:20:55.000   1112776.9617  -4341475.8507   4522955.8103   6   8   0.0997   0.1881   0.2492  -0.0865  -0.1700   0.0796   0.00    0.0
2020/10/22 08:20:56.000   1112776.9644  -4341475.8466   4522955.8023   6   8   0.0997   0.1877   0.2486  -0.0865  -0.1694   0.0795   0.00    0.0
2020/10/22 08:20:57.000   1112776.9652  -4341475.8554   4522955.8105   6   8   0.0997   0.1874   0.2481  -0.0865  -0.1689   0.0795   0.00    0.0
2020/10/22 08:20:58.000   1112776.9570  -4341475.8445   4522955.7910   6   8   0.0997   0.1872   0.2476  -0.0865  -0.1685   0.0795   0.00    0.0
2020/10/22 08:20:59.000   1112776.9630  -4341475.8565   4522955.8132   6   8   0.0997   0.1869   0.2473  -0.0865  -0.1681   0.0795   0.00    0.0
2020/10/22 08:21:00.000   1112776.9621  -4341475.8515   4522955.8050   6   8   0.0997   0.1867   0.2470  -0.0865  -0.1678   0.0795   0.00    0.0
2020/10/22 08:21:01.000   1112776.9615  -4341475.8570   4522955.8104   6   8   0.0997   0.1865   0.2467  -0.0864  -0.1675   0.0795   0.00    0.0
2020/10/22 08:21:02.000   1112776.9571  -4341475.8518   4522955.8026   6   8   0.0997   0.1864   0.2464  -0.0864  -0.1673   0.0795   0.00    0.0
2020/10/22 08:21:03.000   1112776.9596  -4341475.8728   4522955.8246   6   8   0.0997   0.1862   0.2462  -0.0864  -0.1670   0.0795   0.00    0.0
2020/10/22 08:21:04.000   1112776.9565  -4341475.8663   4522955.8267   6   8   0.0997   0.1861   0.2460  -0.0864  -0.1668   0.0795   0.00    0.0
2020/10/22 08:21:05.000   1112776.9576  -4341475.8657   4522955.8284   6   8   0.0997   0.1860   0.2459  -0.0864  -0.1666   0.0795   0.00    0.0
2020/10/22 08:21:06.000   1112776.9643  -4341475.8709   4522955.8288   6   8   0.0997   0.1858   0.2457  -0.0864  -0.1665   0.0794   0.00    0.0
2020/10/22 08:21:07.000   1112776.9543  -4341475.8607   4522955.8233   6   8   0.0997   0.1857   0.2456  -0.0864  -0.1663   0.0794   0.00    0.0
2020/10/22 08:21:08.000   1112776.9553  -4341475.8590   4522955.8186   6   8   0.0997   0.1856   0.2455  -0.0863  -0.1662   0.0794   0.00    0.0
2020/10/22 08:21:09.000   1112776.9600  -4341475.8613   4522955.8253   6   8   0.0997   0.1855   0.2454  -0.0863  -0.1660   0.0794   0.00    0.0
2020/10/22 08:21:10.000   1112776.9589  -4341475.8662   4522955.8373   6   8   0.0997   0.1854   0.2453  -0.0863  -0.1659   0.0794   0.00    0.0
2020/10/22 08:21:11.000   1112776.9510  -4341475.8470   4522955.8080   6   8   0.0997   0.1853   0.2452  -0.0863  -0.1658   0.0794   0.00    0.0
2020/10/22 08:21:12.000   1112776.9501  -4341475.8534   4522955.8164   6   8   0.0997   0.1853   0.2451  -0.0863  -0.1657   0.0794   0.00    0.0
2020/10/22 08:21:13.000   1112776.9463  -4341475.8534   4522955.8232   6   8   0.0997   0.1852   0.2450  -0.0863  -0.1656   0.0794   0.00    0.0
2020/10/22 08:21:14.000   1112776.9545  -4341475.8630   4522955.8272   6   8   0.0997   0.1851   0.2450  -0.0863  -0.1655   0.0794   0.00    0.0
2020/10/22 08:21:15.000   1112776.9486  -4341475.8506   4522955.8249   6   8   0.0997   0.1850   0.2449  -0.0863  -0.1654   0.0794   0.00    0.0
2020/10/22 08:21:16.000   1112776.9515  -4341475.8515   4522955.8207   6   8   0.0997   0.1850   0.2449  -0.0863  -0.1653   0.0794   0.00    0.0
2020/10/22 08:21:17.000   1112776.9460  -4341475.8589   4522955.8324   6   8   0.0997   0.1849   0.2448  -0.0863  -0.1652   0.0794   0.00    0.0
2020/10/22 08:21:18.000   1112776.9473  -4341475.8659   4522955.8303   6   8   0.0997   0.1849   0.2448  -0.0862  -0.1652   0.0794   0.00    0.0
2020/10/22 08:21:19.000   1112776.9486  -4341475.8606   4522955.8192   6   8   0.0997   0.1848   0.2447  -0.0862  -0.1651   0.0794   0.00    0.0
2020/10/22 08:21:20.000   1112776.9482  -4341475.8629   4522955.8456   6   8   0.0997   0.1847   0.2447  -0.0862  -0.1650   0.0794   0.00    0.0
2020/10/22 08:21:21.000   1112776.9555  -4341475.8591   4522955.8422   6   8   0.0997   0.1847   0.2447  -0.0862  -0.1650   0.0794   0.00    0.0
2020/10/22 08:21:22.000   1112776.9570  -4341475.8643   4522955.8323   6   8   0.0997   0.1846   0.2446  -0.0862  -0.1649   0.0794   0.00    0.0
2020/10/22 08:21:23.000   1112776.9544  -4341475.8701   4522955.8361   6   8   0.0997   0.1846   0.2446  -0.0862  -0.1649   0.0794   0.00    0.0
2020/10/22 08:21:24.000   1112776.9572  -4341475.8653   4522955.8243   6   8   0.0997   0.1845   0.2446  -0.0862  -0.1648   0.0794   0.00    0.0
2020/10/22 08:21:25.000   1112776.9616  -4341475.8746   4522955.8277   6   8   0.0997   0.1845   0.2446  -0.0862  -0.1648   0.0793   0.00    0.0
2020/10/22 08:21:26.000   1112776.9616  -4341475.8736   4522955.8351   6   8   0.0997   0.1844   0.2446  -0.0862  -0.1647   0.0793   0.00    0.0
2020/10/22 08:21:27.000   1112776.9581  -4341475.8244   4522955.6615   6   8   0.0997   0.1844   0.2446  -0.0862  -0.1647   0.0793   0.00    0.0
2020/10/22 08:21:28.000   1112776.9522  -4341475.8218   4522955.6480   6   8   0.0997   0.1843   0.2445  -0.0862  -0.1646   0.0793   0.00    0.0
2020/10/22 08:21:29.000   1112776.9539  -4341475.8100   4522955.6369   6   8   0.0997   0.1843   0.2445  -0.0862  -0.1646   0.0793   0.00    0.0
2020/10/22 08:21:30.000   1112776.9583  -4341475.8200   4522955.6428   6   8   0.0997   0.1843   0.2445  -0.0862  -0.1645   0.0793   0.00    0.0
2020/10/22 08:21:31.000   1112776.9599  -4341475.8249   4522955.6483   6   8   0.0997   0.1842   0.2445  -0.0862  -0.1645   0.0793   0.00    0.0
2020/10/22 08:21:32.000   1112776.9727  -4341475.8256   4522955.7430   6   8   0.0997   0.1842   0.2445  -0.0862  -0.1645   0.0794   0.00    0.0
2020/10/22 08:21:33.000   1112776.9788  -4341475.8353   4522955.7617   6   8   0.0998   0.1841   0.2445  -0.0862  -0.1644   0.0794   0.00    0.0
2020/10/22 08:21:34.000   1112776.9724  -4341475.8336   4522955.7498   6   8   0.0998   0.1841   0.2445  -0.0862  -0.1644   0.0794   0.00    0.0
2020/10/22 08:21:35.000   1112776.9774  -4341475.8507   4522955.7720   6   8   0.0998   0.1841   0.2445  -0.0862  -0.1644   0.0794   0.00    0.0
2020/10/22 08:21:36.000   1112776.9778  -4341475.8367   4522955.7613   6   8   0.0998   0.1840   0.2445  -0.0862  -0.1644   0.0794   0.00    0.0
2020/10/22 08:21:37.000   1112777.2334  -4341476.8338   4522956.9886   6   7   0.0998   0.2093   0.2984  -0.0856  -0.2099   0.0782   0.00    0.0
2020/10/22 08:21:38.000   1112777.2333  -4341476.8351   4522957.0028   6   7   0.0998   0.2092   0.2985  -0.0856  -0.2099   0.0783   0.00    0.0
2020/10/22 08:21:39.000   1112777.2266  -4341476.8417   4522957.0149   6   7   0.0998   0.2092   0.2986  -0.0856  -0.2099   0.0783   0.00    0.0
2020/10/22 08:21:40.000   1112777.2230  -4341476.8212   4522956.9875   6   7   0.0998   0.2092   0.2986  -0.0856  -0.2100   0.0783   0.00    0.0
2020/10/22 08:21:41.000   1112776.9657  -4341475.8722   4522955.8090   6   8   0.0998   0.1839   0.2446  -0.0861  -0.1643   0.0794   0.00    0.0
2020/10/22 08:21:42.000   1112776.9661  -4341475.8849   4522955.8201   6   8   0.0998   0.1839   0.2446  -0.0861  -0.1643   0.0794   0.00    0.0
2020/10/22 08:21:43.000   1112776.9651  -4341475.8791   4522955.8256   6   8   0.0998   0.1839   0.2446  -0.0861  -0.1643   0.0794   0.00    0.0
2020/10/22 08:21:44.000   1112776.9611  -4341475.8664   4522955.8158   6   8   0.0998   0.1838   0.2447  -0.0861  -0.1642   0.0794   0.00    0.0
2020/10/22 08:21:45.000   1112776.9627  -4341475.8786   4522955.8264   6   8   0.0998   0.1838   0.2447  -0.0861  -0.1642   0.0794   0.00    0.0
2020/10/22 08:21:46.000   1112776.9634  -4341475.8774   4522955.8284   6   8   0.0998   0.1838   0.2447  -0.0861  -0.1642   0.0794   0.00    0.0
2020/10/22 08:21:47.000   1112776.9664  -4341475.8800   4522955.8233   6   8   0.0998   0.1837   0.2447  -0.0861  -0.1642   0.0794   0.00    0.0
2020/10/22 08:21:48.000   1112776.9646  -4341475.8690   4522955.8168   6   8   0.0998   0.1837   0.2447  -0.0861  -0.1642   0.0794   0.00    0.0
2020/10/22 08:21:49.000   1112776.9655  -4341475.8821   4522955.8357   6   8   0.0998   0.1837   0.2447  -0.0861  -0.1641   0.0794   0.00    0.0
2020/10/22 08:21:50.000   1112776.9638  -4341475.8824   4522955.8287   6   8   0.0998   0.1837   0.2447  -0.0861  -0.1641   0.0794   0.00    0.0
2020/10/22 08:21:51.000   1112776.9722  -4341475.8897   4522955.8314   6   8   0.0998   0.1836   0.2447  -0.0861  -0.1641   0.0794   0.00    0.0
2020/10/22 08:21:52.000   1112776.9670  -4341475.8833   4522955.8385   6   8   0.0998   0.1836   0.2448  -0.0861  -0.1641   0.0794   0.00    0.0
2020/10/22 08:21:53.000   1112776.9665  -4341475.8826   4522955.8234   6   8   0.0998   0.1836   0.2448  -0.0861  -0.1641   0.0794   0.00    0.0
2020/10/22 08:21:54.000   1112776.9662  -4341475.8807   4522955.8340   6   8   0.0998   0.1836   0.2448  -0.0861  -0.1641   0.0794   0.00    0.0
2020/10/22 08:21:55.000   1112776.9650  -4341475.8903   4522955.8165   6   8   0.0998   0.1835   0.2448  -0.0861  -0.1641   0.0794   0.00    0.0
2020/10/22 08:21:56.000   1112776.9614  -4341475.8656   4522955.8086   6   8   0.0998   0.1835   0.2448  -0.0861  -0.1640   0.0794   0.00    0.0
2020/10/22 08:21:57.000   1112776.9591  -4341475.8700   4522955.8145   6   8   0.0998   0.1835   0.2449  -0.0861  -0.1640   0.0794   0.00    0.0
2020/10/22 08:21:58.000   1112776.9653  -4341475.8724   4522955.8064   6   8   0.0999   0.1835   0.2449  -0.0861  -0.1640   0.0794   0.00    0.0
