%  GPST                      x-ecef(m)      y-ecef(m)      z-ecef(m)   Q  ns   sdx(m)   sdy(m)   sdz(m)  sdxy(m)  sdyz(m)  sdzx(m) age(s)  ratio
2020/11/02 09:12:47.000   1112776.9459  -4341475.9071   4522955.8833   6   7   0.0001   0.0001   0.0001  -0.0000  -0.0000   0.0000   0.00    0.0
2020/11/02 09:12:48.000   1112776.9459  -4341475.9071   4522955.8833   6   7   0.0001   0.0001   0.0001  -0.0000  -0.0000  -0.0000   0.00    0.0
2020/11/02 09:12:49.000   1112776.9459  -4341475.9071   4522955.8833   6   7   0.0001   0.0001   0.0001  -0.0000  -0.0000  -0.0000   0.00    0.0
2020/11/02 09:12:50.000   1112776.9459  -4341475.9071   4522955.8833   6   7   0.0001   0.0001   0.0001  -0.0000  -0.0000  -0.0000   0.00    0.0
2020/11/02 09:12:51.000   1112776.9459  -4341475.9071   4522955.8833   6   7   0.0001   0.0001   0.0001  -0.0000  -0.0000  -0.0000   0.00    0.0
2020/11/02 09:12:52.000   1112776.9459  -4341475.9071   4522955.8833   6   7   0.0001   0.0001   0.0001  -0.0000  -0.0000  -0.0000   0.00    0.0
2020/11/02 09:12:53.000   1112776.9459  -4341475.9071   4522955.8833   6   7   0.0001   0.0001   0.0001  -0.0000  -0.0000  -0.0000   0.00    0.0
2020/11/02 09:12:54.000   1112776.9459  -4341475.9071   4522955.8833   6   7   0.0001   0.0001   0.0001  -0.0000  -0.0000  -0.0000   0.00    0.0
2020/11/02 09:12:55.000   1112776.9459  -4341475.9071   4522955.8833   6   7   0.0001   0.0001   0.0001  -0.0000  -0.0000  -0.0000   0.00    0.0
2020/11/02 09:12:56.000   1112776.9459  -4341475.9071   4522955.8833   6   7   0.0001   0.0001   0.0001  -0.0000  -0.0000  -0.0000   0.00    0.0
2020/11/02 09:12:57.000   1112776.9459  -4341475.9071   4522955.8833   6   7   0.0001   0.0001   0.0001  -0.0000  -0.0000  -0.0000   0.00    0.0
2020/11/02 09:12:58.000   1112776.9459  -4341475.9071   4522955.8833   6   7   0.0001   0.0001   0.0001  -0.0000  -0.0000  -0.0000   0.00    0.0
2020/11/02 09:12:59.000   1112776.9459  -4341475.9071   4522955.8833   6   7   0.0001   0.0001   0.0001  -0.0000  -0.0000  -0.0000   0.00    0.0
2020/11/02 09:13:00.000   1112776.9459  -4341475.9071   4522955.8833   6   7   0.0001   0.0001   0.0001  -0.0000  -0.0000  -0.0000   0.00    0.0
2020/11/02 09:13:01.000   1112776.9459  -4341475.9071   4522955.8833   6   7   0.0001   0.0001   0.0001  -0.0000  -0.0000  -0.0000   0.00    0.0
2020/11/02 09:13:02.000   1112776.9459  -4341475.9071   4522955.8833   6   7   0.0001   0.0001   0.0001  -0.0000  -0.0000  -0.0000   0.00    0.0
2020/11/02 09:13:03.000   1112776.9459  -4341475.9071   4522955.8833   6   7   0.0001   0.0001   0.0001  -0.0000  -0.0000  -0.0000   0.00    0.0
2020/11/02 09:13:04.000   1112776.9459  -4341475.9071   4522955.8833   6   7   0.0001   0.0001   0.0001  -0.0000  -0.0000  -0.0000   0.00    0.0
2020/11/02 09:13:05.000   1112776.9459  -4341475.9071   4522955.8833   6   7   0.0001   0.0001   0.0001  -0.0000  -0.0000  -0.0000   0.00    0.0
2020/11/02 09:13:06.000   1112776.9459  -4341475.9071   4522955.8833   6   7   0.0001   0.0001   0.0001  -0.0000  -0.0000  -0.0000   0.00    0.0
2020/11/02 09:13:07.000   1112776.9459  -4341475.9071   4522955.8833   6   7   0.0001   0.0001   0.0001  -0.0000  -0.0000  -0.0000   0.00    0.0
2020/11/02 09:13:08.000   1112776.9459  -4341475.9071   4522955.8833   6   7   0.0001   0.0001   0.0001  -0.0000  -0.0000  -0.0000   0.00    0.0
2020/11/02 09:13:09.000   1112776.9459  -4341475.9071   4522955.8833   6   7   0.0001   0.0001   0.0001  -0.0000  -0.0000  -0.0000   0.00    0.0
2020/11/02 09:13:10.000   1112776.9459  -4341475.9071   4522955.8833   6   7   0.0001   0.0001   0.0001  -0.0000  -0.0000  -0.0000   0.00    0.0
2020/11/02 09:13:11.000   1112776.9459  -4341475.9071   4522955.8833   6   7   0.0001   0.0001   0.0001  -0.0000  -0.0000  -0.0000   0.00    0.0
2020/11/02 09:13:12.000   1112776.9459  -4341475.9071   4522955.8833   6   7   0.0001   0.0001   0.0001  -0.0000  -0.0000  -0.0000   0.00    0.0
2020/11/02 09:13:13.000   1112776.9459  -4341475.9071   4522955.8833   6   7   0.0001   0.0001   0.0001  -0.0000  -0.0000  -0.0000   0.00    0.0
2020/11/02 09:13:14.000   1112776.9459  -4341475.9071   4522955.8833   6   7   0.0001   0.0001   0.0001  -0.0000  -0.0000  -0.0000   0.00    0.0
2020/11/02 09:13:15.000   1112776.9459  -4341475.9071   4522955.8833   6   7   0.0001   0.0001   0.0001  -0.0000  -0.0000  -0.0000   0.00    0.0
2020/11/02 09:13:16.000   1112776.9459  -4341475.9071   4522955.8833   6   7   0.0001   0.0001   0.0001  -0.0000  -0.0000  -0.0000   0.00    0.0
2020/11/02 09:13:17.000   1112776.9459  -4341475.9071   4522955.8833   6   7   0.0001   0.0001   0.0001  -0.0000  -0.0000  -0.0000   0.00    0.0
