%  GPST                      x-ecef(m)      y-ecef(m)      z-ecef(m)   Q  ns   sdx(m)   sdy(m)   sdz(m)  sdxy(m)  sdyz(m)  sdzx(m) age(s)  ratio
2020/10/20 09:43:37.000   1112776.9461  -4341475.9071   4522955.8833   6   4   0.0001   0.0001   0.0001   0.0000  -0.0000   0.0000   0.00    0.0
2020/10/20 09:43:38.000   1112776.9461  -4341475.9071   4522955.8833   6   4   0.0001   0.0001   0.0001  -0.0000  -0.0000   0.0000   0.00    0.0
2020/10/20 09:43:39.000   1112776.9461  -4341475.9071   4522955.8833   6   4   0.0001   0.0001   0.0001  -0.0000  -0.0000   0.0000   0.00    0.0
2020/10/20 09:43:40.000   1112776.9461  -4341475.9071   4522955.8833   6   4   0.0001   0.0001   0.0001  -0.0000  -0.0000   0.0000   0.00    0.0
2020/10/20 09:43:41.000   1112776.9461  -4341475.9071   4522955.8833   6   4   0.0001   0.0001   0.0001  -0.0000  -0.0000   0.0000   0.00    0.0
2020/10/20 09:43:42.000   1112776.9461  -4341475.9071   4522955.8833   6   4   0.0001   0.0001   0.0001  -0.0000  -0.0000   0.0000   0.00    0.0
2020/10/20 09:43:43.000   1112776.9461  -4341475.9071   4522955.8833   6   4   0.0001   0.0001   0.0001  -0.0000  -0.0000   0.0000   0.00    0.0
2020/10/20 09:43:44.000   1112776.9461  -4341475.9071   4522955.8833   6   4   0.0001   0.0001   0.0001  -0.0000  -0.0000   0.0000   0.00    0.0
2020/10/20 09:43:45.000   1112776.9461  -4341475.9071   4522955.8833   6   4   0.0001   0.0001   0.0001  -0.0000  -0.0000   0.0000   0.00    0.0
2020/10/20 09:43:46.000   1112776.9461  -4341475.9071   4522955.8833   6   4   0.0001   0.0001   0.0001  -0.0000  -0.0000   0.0000   0.00    0.0
2020/10/20 09:43:47.000   1112776.9461  -4341475.9071   4522955.8833   6   4   0.0001   0.0001   0.0001  -0.0000  -0.0000   0.0000   0.00    0.0
2020/10/20 09:43:48.000   1112776.9461  -4341475.9071   4522955.8833   6   4   0.0001   0.0001   0.0001  -0.0000  -0.0000   0.0000   0.00    0.0
2020/10/20 09:43:49.000   1112776.9461  -4341475.9071   4522955.8833   6   4   0.0001   0.0001   0.0001  -0.0000  -0.0000   0.0000   0.00    0.0
2020/10/20 09:43:50.000   1112776.9461  -4341475.9071   4522955.8833   6   4   0.0001   0.0001   0.0001  -0.0000  -0.0000   0.0000   0.00    0.0
2020/10/20 09:43:51.000   1112776.9461  -4341475.9071   4522955.8833   6   4   0.0001   0.0001   0.0001  -0.0000  -0.0000   0.0000   0.00    0.0
2020/10/20 09:43:52.000   1112776.9461  -4341475.9071   4522955.8833   6   4   0.0001   0.0001   0.0001  -0.0000  -0.0000   0.0000   0.00    0.0
2020/10/20 09:43:53.000   1112776.9461  -4341475.9071   4522955.8833   6   4   0.0001   0.0001   0.0001  -0.0000  -0.0000   0.0000   0.00    0.0
2020/10/20 09:43:54.000   1112776.9461  -4341475.9071   4522955.8833   6   4   0.0001   0.0001   0.0001  -0.0000  -0.0000   0.0000   0.00    0.0
2020/10/20 09:43:55.000   1112776.9461  -4341475.9071   4522955.8833   6   4   0.0001   0.0001   0.0001  -0.0000  -0.0000   0.0000   0.00    0.0
2020/10/20 09:43:56.000   1112776.9461  -4341475.9071   4522955.8833   6   4   0.0001   0.0001   0.0001  -0.0000  -0.0000   0.0000   0.00    0.0
2020/10/20 09:43:57.000   1112776.9461  -4341475.9071   4522955.8833   6   4   0.0001   0.0001   0.0001  -0.0000  -0.0000   0.0000   0.00    0.0
2020/10/20 09:43:58.000   1112776.9461  -4341475.9071   4522955.8833   6   4   0.0001   0.0001   0.0001  -0.0000  -0.0000   0.0000   0.00    0.0
2020/10/20 09:43:59.000   1112776.9461  -4341475.9071   4522955.8833   6   4   0.0001   0.0001   0.0001  -0.0000  -0.0000   0.0000   0.00    0.0
2020/10/20 09:44:00.000   1112776.9461  -4341475.9071   4522955.8833   6   4   0.0001   0.0001   0.0001  -0.0000  -0.0000   0.0000   0.00    0.0
2020/10/20 09:44:01.000   1112776.9461  -4341475.9071   4522955.8833   6   4   0.0001   0.0001   0.0001  -0.0000  -0.0000   0.0000   0.00    0.0
2020/10/20 09:44:02.000   1112776.9461  -4341475.9071   4522955.8833   6   4   0.0001   0.0001   0.0001  -0.0000  -0.0000   0.0000   0.00    0.0
2020/10/20 09:44:03.000   1112776.9461  -4341475.9071   4522955.8833   6   4   0.0001   0.0001   0.0001  -0.0000  -0.0000   0.0000   0.00    0.0
2020/10/20 09:44:04.000   1112776.9461  -4341475.9071   4522955.8833   6   4   0.0001   0.0001   0.0001  -0.0000  -0.0000   0.0000   0.00    0.0
2020/10/20 09:44:05.000   1112776.9461  -4341475.9071   4522955.8833   6   4   0.0001   0.0001   0.0001  -0.0000  -0.0000   0.0000   0.00    0.0
2020/10/20 09:44:06.000   1112776.9461  -4341475.9071   4522955.8833   6   4   0.0001   0.0001   0.0001  -0.0000  -0.0000   0.0000   0.00    0.0
2020/10/20 09:44:07.000   1112776.9461  -4341475.9071   4522955.8833   6   4   0.0001   0.0001   0.0001  -0.0000  -0.0000   0.0000   0.00    0.0
2020/10/20 09:44:08.000   1112776.9713  -4341475.9613   4522955.9408   6   4   0.1356   0.1994   0.2634  -0.0654  -0.1740   0.0641   0.00    0.0
2020/10/20 09:44:09.000   1112776.9564  -4341475.9586   4522955.9479   6   4   0.1356   0.1994   0.2634  -0.0654  -0.1740   0.0641   0.00    0.0
2020/10/20 09:44:10.000   1112776.9686  -4341475.9546   4522955.9484   6   4   0.1356   0.1994   0.2633  -0.0654  -0.1740   0.0640   0.00    0.0
2020/10/20 09:44:11.000   1112776.9624  -4341475.9420   4522955.9387   6   4   0.1356   0.1993   0.2633  -0.0653  -0.1739   0.0640   0.00    0.0
2020/10/20 09:44:12.000   1112776.9620  -4341475.9557   4522955.9373   6   4   0.1356   0.1993   0.2633  -0.0653  -0.1739   0.0640   0.00    0.0
2020/10/20 09:44:13.000   1112776.9650  -4341475.9576   4522955.9484   6   4   0.1356   0.1993   0.2632  -0.0653  -0.1739   0.0639   0.00    0.0
2020/10/20 09:44:14.000   1112776.9633  -4341475.9545   4522955.9432   6   4   0.1356   0.1993   0.2632  -0.0653  -0.1739   0.0639   0.00    0.0
2020/10/20 09:44:15.000   1112777.0191  -4341475.9422   4522955.9426   6   4   0.1356   0.1993   0.2631  -0.0653  -0.1739   0.0639   0.00    0.0
2020/10/20 09:44:16.000   1112777.0135  -4341475.9412   4522955.9519   6   4   0.1356   0.1993   0.2631  -0.0653  -0.1738   0.0638   0.00    0.0
2020/10/20 09:44:17.000   1112776.9865  -4341475.9556   4522955.9287   6   4   0.1356   0.1993   0.2630  -0.0653  -0.1738   0.0638   0.00    0.0
2020/10/20 09:44:18.000   1112776.9973  -4341475.9551   4522955.9354   6   4   0.1356   0.1993   0.2630  -0.0653  -0.1738   0.0638   0.00    0.0
2020/10/20 09:44:19.000   1112776.9988  -4341475.9662   4522955.9305   6   4   0.1356   0.1992   0.2629  -0.0653  -0.1738   0.0638   0.00    0.0
2020/10/20 09:44:20.000   1112776.9995  -4341475.9567   4522955.9330   6   4   0.1356   0.1992   0.2629  -0.0653  -0.1737   0.0637   0.00    0.0
2020/10/20 09:44:21.000   1112776.9960  -4341475.9594   4522955.9430   6   4   0.1356   0.1992   0.2628  -0.0653  -0.1737   0.0637   0.00    0.0
2020/10/20 09:44:22.000   1112777.0082  -4341475.9811   4522955.9426   6   4   0.1356   0.1992   0.2628  -0.0652  -0.1737   0.0637   0.00    0.0
2020/10/20 09:44:23.000   1112776.9940  -4341475.9668   4522955.9446   6   4   0.1356   0.1992   0.2627  -0.0652  -0.1737   0.0636   0.00    0.0
2020/10/20 09:44:24.000   1112776.9997  -4341475.9594   4522955.9324   6   4   0.1356   0.1992   0.2627  -0.0652  -0.1737   0.0636   0.00    0.0
2020/10/20 09:44:25.000   1112777.0305  -4341475.9438   4522955.9426   6   4   0.1356   0.1992   0.2627  -0.0652  -0.1736   0.0636   0.00    0.0
2020/10/20 09:44:26.000   1112776.9921  -4341475.9576   4522955.9298   6   4   0.1356   0.1992   0.2626  -0.0652  -0.1736   0.0635   0.00    0.0
2020/10/20 09:44:27.000   1112776.9982  -4341475.9593   4522955.9244   6   4   0.1356   0.1992   0.2626  -0.0652  -0.1736   0.0635   0.00    0.0
2020/10/20 09:44:28.000   1112776.9845  -4341475.9611   4522955.9325   6   4   0.1356   0.1991   0.2625  -0.0652  -0.1736   0.0635   0.00    0.0
2020/10/20 09:44:29.000   1112776.9860  -4341475.9602   4522955.9245   6   4   0.1356   0.1991   0.2625  -0.0652  -0.1735   0.0634   0.00    0.0
2020/10/20 09:44:30.000   1112776.9829  -4341475.9643   4522955.9378   6   4   0.1356   0.1991   0.2624  -0.0652  -0.1735   0.0634   0.00    0.0
2020/10/20 09:44:31.000   1112776.9820  -4341475.9654   4522955.9476   6   4   0.1356   0.1991   0.2624  -0.0652  -0.1735   0.0634   0.00    0.0
2020/10/20 09:44:32.000   1112776.9866  -4341475.9594   4522955.9284   6   4   0.1356   0.1991   0.2623  -0.0652  -0.1735   0.0634   0.00    0.0
2020/10/20 09:44:33.000   1112776.9940  -4341475.9667   4522955.9388   6   4   0.1356   0.1991   0.2623  -0.0651  -0.1735   0.0633   0.00    0.0
2020/10/20 09:44:34.000   1112776.9938  -4341475.9723   4522955.9290   6   4   0.1356   0.1991   0.2622  -0.0651  -0.1734   0.0633   0.00    0.0
2020/10/20 09:44:35.000   1112777.0228  -4341475.9377   4522955.9124   6   4   0.1356   0.1991   0.2622  -0.0651  -0.1734   0.0633   0.00    0.0
2020/10/20 09:44:36.000   1112776.9839  -4341475.9428   4522955.9118   6   4   0.1356   0.1991   0.2621  -0.0651  -0.1734   0.0632   0.00    0.0
2020/10/20 09:44:37.000   1112776.9974  -4341475.9523   4522955.9165   6   4   0.1356   0.1990   0.2621  -0.0651  -0.1734   0.0632   0.00    0.0
2020/10/20 09:44:38.000   1112776.9886  -4341475.9612   4522955.9290   6   4   0.1356   0.1990   0.2621  -0.0651  -0.1734   0.0632   0.00    0.0
2020/10/20 09:44:39.000   1112776.9867  -4341475.9672   4522955.9375   6   4   0.1356   0.1990   0.2620  -0.0651  -0.1733   0.0631   0.00    0.0
2020/10/20 09:44:40.000   1112776.9877  -4341475.9482   4522955.9157   6   4   0.1356   0.1990   0.2620  -0.0651  -0.1733   0.0631   0.00    0.0
2020/10/20 09:44:41.000   1112776.9862  -4341475.9570   4522955.9182   6   4   0.1356   0.1990   0.2619  -0.0651  -0.1733   0.0631   0.00    0.0
2020/10/20 09:44:42.000   1112777.0050  -4341475.9622   4522955.9233   6   4   0.1356   0.1990   0.2619  -0.0651  -0.1733   0.0630   0.00    0.0
2020/10/20 09:44:43.000   1112776.9974  -4341475.9543   4522955.9289   6   4   0.1356   0.1990   0.2618  -0.0651  -0.1732   0.0630   0.00    0.0
2020/10/20 09:44:44.000   1112777.0038  -4341475.9649   4522955.9353   6   4   0.1356   0.1990   0.2618  -0.0650  -0.1732   0.0630   0.00    0.0
2020/10/20 09:44:45.000   1112777.0252  -4341475.9223   4522955.8791   6   4   0.1356   0.1990   0.2617  -0.0650  -0.1732   0.0630   0.00    0.0
2020/10/20 09:44:46.000   1112777.0166  -4341475.9180   4522955.8935   6   4   0.1356   0.1989   0.2617  -0.0650  -0.1732   0.0629   0.00    0.0
