%  GPST                      x-ecef(m)      y-ecef(m)      z-ecef(m)   Q  ns   sdx(m)   sdy(m)   sdz(m)  sdxy(m)  sdyz(m)  sdzx(m) age(s)  ratio
2020/11/02 08:29:12.000   1112776.9459  -4341475.9071   4522955.8833   6   8   0.0001   0.0001   0.0001  -0.0000  -0.0000   0.0000   0.00    0.0
2020/11/02 08:29:13.000   1112776.9459  -4341475.9071   4522955.8833   6   8   0.0001   0.0001   0.0001  -0.0000  -0.0000  -0.0000   0.00    0.0
2020/11/02 08:29:14.000   1112776.9459  -4341475.9071   4522955.8833   6   8   0.0001   0.0001   0.0001  -0.0000  -0.0000  -0.0000   0.00    0.0
2020/11/02 08:29:15.000   1112776.9459  -4341475.9071   4522955.8833   6   8   0.0001   0.0001   0.0001  -0.0000  -0.0000  -0.0000   0.00    0.0
2020/11/02 08:29:16.000   1112776.9459  -4341475.9071   4522955.8833   6   8   0.0001   0.0001   0.0001  -0.0000  -0.0000  -0.0000   0.00    0.0
2020/11/02 08:29:17.000   1112776.9459  -4341475.9071   4522955.8833   6   8   0.0001   0.0001   0.0001  -0.0000  -0.0000  -0.0000   0.00    0.0
2020/11/02 08:29:18.000   1112776.9459  -4341475.9071   4522955.8833   6   8   0.0001   0.0001   0.0001  -0.0000  -0.0000  -0.0000   0.00    0.0
2020/11/02 08:29:19.000   1112776.9459  -4341475.9071   4522955.8833   6   8   0.0001   0.0001   0.0001  -0.0000  -0.0000  -0.0000   0.00    0.0
2020/11/02 08:29:20.000   1112776.9459  -4341475.9071   4522955.8833   6   8   0.0001   0.0001   0.0001  -0.0000  -0.0000  -0.0000   0.00    0.0
2020/11/02 08:29:21.000   1112776.9459  -4341475.9071   4522955.8833   6   8   0.0001   0.0001   0.0001  -0.0000  -0.0000  -0.0000   0.00    0.0
2020/11/02 08:29:22.000   1112776.9459  -4341475.9071   4522955.8833   6   8   0.0001   0.0001   0.0001  -0.0000  -0.0000  -0.0000   0.00    0.0
2020/11/02 08:29:23.000   1112776.9459  -4341475.9071   4522955.8833   6   8   0.0001   0.0001   0.0001  -0.0000  -0.0000  -0.0000   0.00    0.0
2020/11/02 08:29:24.000   1112776.9459  -4341475.9071   4522955.8833   6   8   0.0001   0.0001   0.0001  -0.0000  -0.0000  -0.0000   0.00    0.0
2020/11/02 08:29:25.000   1112776.9459  -4341475.9071   4522955.8833   6   8   0.0001   0.0001   0.0001  -0.0000  -0.0000  -0.0000   0.00    0.0
2020/11/02 08:29:26.000   1112776.9459  -4341475.9071   4522955.8833   6   8   0.0001   0.0001   0.0001  -0.0000  -0.0000  -0.0000   0.00    0.0
2020/11/02 08:29:27.000   1112776.9459  -4341475.9071   4522955.8833   6   8   0.0001   0.0001   0.0001  -0.0000  -0.0000  -0.0000   0.00    0.0
2020/11/02 08:29:28.000   1112776.9459  -4341475.9071   4522955.8833   6   8   0.0001   0.0001   0.0001  -0.0000  -0.0000  -0.0000   0.00    0.0
2020/11/02 08:29:29.000   1112776.9666  -4341475.9123   4522955.8542   6   8   0.1166   0.1553   0.2643  -0.0842  -0.1388   0.0628   0.00    0.0
2020/11/02 08:29:30.000   1112776.9565  -4341475.9054   4522955.8525   6   8   0.1166   0.1525   0.2632  -0.0846  -0.1362   0.0633   0.00    0.0
2020/11/02 08:29:31.000   1112776.9459  -4341475.9071   4522955.8833   6   8   0.0001   0.0001   0.0001  -0.0000  -0.0000  -0.0000   0.00    0.0
2020/11/02 08:29:32.000   1112776.9459  -4341475.9071   4522955.8833   6   8   0.0001   0.0001   0.0001  -0.0000  -0.0000  -0.0000   0.00    0.0
2020/11/02 08:29:33.000   1112776.9459  -4341475.9071   4522955.8833   6   8   0.0001   0.0001   0.0001  -0.0000  -0.0000  -0.0000   0.00    0.0
2020/11/02 08:29:34.000   1112776.9459  -4341475.9071   4522955.8833   6   8   0.0001   0.0001   0.0001  -0.0000  -0.0000  -0.0000   0.00    0.0
2020/11/02 08:29:35.000   1112776.9459  -4341475.9071   4522955.8833   6   8   0.0001   0.0001   0.0001  -0.0000  -0.0000  -0.0000   0.00    0.0
2020/11/02 08:29:36.000   1112776.9459  -4341475.9071   4522955.8833   6   8   0.0001   0.0001   0.0001  -0.0000  -0.0000  -0.0000   0.00    0.0
2020/11/02 08:29:37.000   1112776.9459  -4341475.9071   4522955.8833   6   8   0.0001   0.0001   0.0001  -0.0000  -0.0000  -0.0000   0.00    0.0
2020/11/02 08:29:38.000   1112776.9459  -4341475.9071   4522955.8833   6   8   0.0001   0.0001   0.0001  -0.0000  -0.0000  -0.0000   0.00    0.0
2020/11/02 08:29:39.000   1112776.9459  -4341475.9071   4522955.8833   6   8   0.0001   0.0001   0.0001  -0.0000  -0.0000  -0.0000   0.00    0.0
2020/11/02 08:29:40.000   1112776.9459  -4341475.9071   4522955.8833   6   8   0.0001   0.0001   0.0001  -0.0000  -0.0000  -0.0000   0.00    0.0
2020/11/02 08:29:41.000   1112776.9459  -4341475.9071   4522955.8833   6   8   0.0001   0.0001   0.0001  -0.0000  -0.0000  -0.0000   0.00    0.0
2020/11/02 08:29:42.000   1112776.9459  -4341475.9071   4522955.8833   6   8   0.0001   0.0001   0.0001  -0.0000  -0.0000  -0.0000   0.00    0.0
2020/11/02 08:29:43.000   1112776.9459  -4341475.9071   4522955.8833   6   8   0.0001   0.0001   0.0001  -0.0000  -0.0000  -0.0000   0.00    0.0
2020/11/02 08:29:44.000   1112776.9578  -4341475.8991   4522955.8619   6   8   0.1151   0.1421   0.2561  -0.0848  -0.1263   0.0636   0.00    0.0
2020/11/02 08:29:45.000   1112776.9560  -4341475.9020   4522955.8643   6   8   0.1151   0.1421   0.2560  -0.0848  -0.1263   0.0636   0.00    0.0
2020/11/02 08:29:46.000   1112776.9668  -4341475.9011   4522955.8491   6   8   0.1151   0.1421   0.2560  -0.0848  -0.1262   0.0635   0.00    0.0
2020/11/02 08:29:47.000   1112776.9564  -4341475.8998   4522955.8545   6   8   0.1151   0.1421   0.2559  -0.0848  -0.1262   0.0635   0.00    0.0
2020/11/02 08:29:48.000   1112776.9711  -4341475.9046   4522955.8644   6   8   0.1151   0.1420   0.2559  -0.0848  -0.1262   0.0635   0.00    0.0
2020/11/02 08:29:49.000   1112776.9681  -4341475.9083   4522955.8544   6   8   0.1151   0.1420   0.2558  -0.0848  -0.1261   0.0635   0.00    0.0
2020/11/02 08:29:50.000   1112776.9667  -4341475.9015   4522955.8568   6   8   0.1151   0.1420   0.2558  -0.0848  -0.1261   0.0634   0.00    0.0
2020/11/02 08:29:51.000   1112776.9565  -4341475.8934   4522955.8299   6   8   0.1151   0.1420   0.2557  -0.0848  -0.1260   0.0634   0.00    0.0
2020/11/02 08:29:52.000   1112776.9617  -4341475.8989   4522955.8413   6   8   0.1151   0.1420   0.2557  -0.0848  -0.1260   0.0634   0.00    0.0
2020/11/02 08:29:53.000   1112776.9641  -4341475.8966   4522955.8232   6   8   0.1151   0.1419   0.2556  -0.0848  -0.1260   0.0634   0.00    0.0
2020/11/02 08:29:54.000   1112776.9664  -4341475.8984   4522955.8352   6   8   0.1152   0.1419   0.2556  -0.0848  -0.1259   0.0634   0.00    0.0
2020/11/02 08:29:55.000   1112776.9619  -4341475.8954   4522955.8204   6   8   0.1152   0.1419   0.2556  -0.0848  -0.1259   0.0633   0.00    0.0
2020/11/02 08:29:56.000   1112776.9602  -4341475.8953   4522955.8259   6   8   0.1152   0.1419   0.2555  -0.0848  -0.1258   0.0633   0.00    0.0
2020/11/02 08:29:57.000   1112776.9603  -4341475.9013   4522955.8366   6   8   0.1152   0.1419   0.2555  -0.0848  -0.1258   0.0633   0.00    0.0
2020/11/02 08:29:58.000   1112776.9597  -4341475.8935   4522955.8291   6   8   0.1152   0.1419   0.2554  -0.0848  -0.1258   0.0633   0.00    0.0
2020/11/02 08:29:59.000   1112776.9628  -4341475.8994   4522955.8305   6   8   0.1152   0.1418   0.2554  -0.0848  -0.1257   0.0632   0.00    0.0
2020/11/02 08:30:00.000   1112776.9675  -4341475.8988   4522955.8362   6   8   0.1152   0.1418   0.2553  -0.0848  -0.1257   0.0632   0.00    0.0
2020/11/02 08:30:01.000   1112776.9675  -4341475.8943   4522955.8415   6   8   0.1152   0.1418   0.2553  -0.0848  -0.1257   0.0632   0.00    0.0
2020/11/02 08:30:02.000   1112776.9747  -4341475.9046   4522955.8355   6   8   0.1152   0.1418   0.2552  -0.0848  -0.1256   0.0632   0.00    0.0
2020/11/02 08:30:03.000   1112776.9763  -4341475.9031   4522955.8446   6   8   0.1155   0.1729   0.2682  -0.0793  -0.1548   0.0569   0.00    0.0
2020/11/02 08:30:04.000   1112776.9709  -4341475.8932   4522955.8269   6   8   0.1154   0.1582   0.2618  -0.0821  -0.1410   0.0601   0.00    0.0
2020/11/02 08:30:05.000   1112776.9459  -4341475.9071   4522955.8833   6   8   0.0001   0.0001   0.0001  -0.0000  -0.0000  -0.0000   0.00    0.0
2020/11/02 08:30:06.000   1112776.9459  -4341475.9071   4522955.8833   6   8   0.0001   0.0001   0.0001  -0.0000  -0.0000  -0.0000   0.00    0.0
2020/11/02 08:30:07.000   1112776.9459  -4341475.9071   4522955.8833   6   8   0.0001   0.0001   0.0001  -0.0000  -0.0000  -0.0000   0.00    0.0
2020/11/02 08:30:08.000   1112776.9459  -4341475.9071   4522955.8833   6   8   0.0001   0.0001   0.0001  -0.0000  -0.0000  -0.0000   0.00    0.0
2020/11/02 08:30:09.000   1112776.9703  -4341475.9013   4522955.8396   6   8   0.1150   0.1439   0.2554  -0.0842  -0.1275   0.0624   0.00    0.0
2020/11/02 08:30:10.000   1112776.9704  -4341475.9013   4522955.8504   6   8   0.1150   0.1437   0.2553  -0.0842  -0.1272   0.0624   0.00    0.0
2020/11/02 08:30:11.000   1112776.9705  -4341475.9038   4522955.8544   6   8   0.1150   0.1434   0.2551  -0.0843  -0.1270   0.0624   0.00    0.0
2020/11/02 08:30:12.000   1112776.9694  -4341475.9032   4522955.8563   6   8   0.1150   0.1433   0.2550  -0.0843  -0.1268   0.0624   0.00    0.0
2020/11/02 08:30:13.000   1112776.9655  -4341475.8942   4522955.8508   6   8   0.1150   0.1431   0.2549  -0.0843  -0.1267   0.0624   0.00    0.0
2020/11/02 08:30:14.000   1112776.9739  -4341475.9052   4522955.8609   6   8   0.1150   0.1430   0.2548  -0.0843  -0.1265   0.0624   0.00    0.0
2020/11/02 08:30:15.000   1112776.9711  -4341475.8939   4522955.8311   6   8   0.1150   0.1428   0.2547  -0.0843  -0.1264   0.0624   0.00    0.0
2020/11/02 08:30:16.000   1112776.9768  -4341475.9018   4522955.8393   6   8   0.1150   0.1427   0.2547  -0.0843  -0.1263   0.0624   0.00    0.0
2020/11/02 08:30:17.000   1112776.9715  -4341475.9028   4522955.8278   6   8   0.1150   0.1426   0.2546  -0.0843  -0.1262   0.0624   0.00    0.0
2020/11/02 08:30:18.000   1112776.9656  -4341475.9030   4522955.8220   6   8   0.1150   0.1426   0.2545  -0.0843  -0.1261   0.0624   0.00    0.0
2020/11/02 08:30:19.000   1112776.9637  -4341475.9017   4522955.8220   6   8   0.1150   0.1425   0.2544  -0.0844  -0.1260   0.0624   0.00    0.0
2020/11/02 08:30:20.000   1112776.9604  -4341475.8889   4522955.8196   6   8   0.1150   0.1424   0.2544  -0.0844  -0.1259   0.0624   0.00    0.0
2020/11/02 08:30:21.000   1112776.9653  -4341475.9016   4522955.8069   6   8   0.1150   0.1423   0.2543  -0.0844  -0.1258   0.0624   0.00    0.0
2020/11/02 08:30:22.000   1112776.9724  -4341475.9104   4522955.8115   6   8   0.1150   0.1423   0.2542  -0.0844  -0.1257   0.0623   0.00    0.0
2020/11/02 08:30:23.000   1112776.9747  -4341475.9108   4522955.8073   6   8   0.1150   0.1422   0.2542  -0.0844  -0.1256   0.0623   0.00    0.0
2020/11/02 08:30:24.000   1112776.9781  -4341475.9169   4522955.8291   6   8   0.1151   0.1422   0.2541  -0.0844  -0.1256   0.0623   0.00    0.0
2020/11/02 08:30:25.000   1112776.9844  -4341475.9195   4522955.7930   6   8   0.1151   0.1421   0.2541  -0.0844  -0.1255   0.0623   0.00    0.0
2020/11/02 08:30:26.000   1112776.9898  -4341475.9222   4522955.8195   6   8   0.1151   0.1421   0.2540  -0.0844  -0.1254   0.0623   0.00    0.0
2020/11/02 08:30:27.000   1112776.9914  -4341475.9251   4522955.8182   6   8   0.1151   0.1420   0.2539  -0.0844  -0.1254   0.0623   0.00    0.0
2020/11/02 08:30:28.000   1112776.9987  -4341475.9247   4522955.8192   6   8   0.1151   0.1420   0.2539  -0.0844  -0.1253   0.0622   0.00    0.0
2020/11/02 08:30:29.000   1112777.0015  -4341475.9252   4522955.8125   6   8   0.1151   0.1419   0.2538  -0.0844  -0.1252   0.0622   0.00    0.0
2020/11/02 08:30:30.000   1112777.0001  -4341475.9234   4522955.8096   6   8   0.1151   0.1419   0.2538  -0.0844  -0.1252   0.0622   0.00    0.0
2020/11/02 08:30:31.000   1112776.9971  -4341475.9253   4522955.8113   6   8   0.1151   0.1419   0.2537  -0.0844  -0.1251   0.0622   0.00    0.0
2020/11/02 08:30:32.000   1112776.9970  -4341475.9304   4522955.8422   6   8   0.1151   0.1418   0.2537  -0.0844  -0.1251   0.0621   0.00    0.0
2020/11/02 08:30:33.000   1112776.9956  -4341475.9295   4522955.8261   6   8   0.1151   0.1418   0.2536  -0.0844  -0.1250   0.0621   0.00    0.0
