%  GPST                      x-ecef(m)      y-ecef(m)      z-ecef(m)   Q  ns   sdx(m)   sdy(m)   sdz(m)  sdxy(m)  sdyz(m)  sdzx(m) age(s)  ratio
2020/10/22 07:52:46.000   1112776.9461  -4341475.9071   4522955.8833   6   5   0.0001   0.0001   0.0001  -0.0000  -0.0000  -0.0000   0.00    0.0
2020/10/22 07:52:47.000   1112776.9461  -4341475.9071   4522955.8833   6   5   0.0001   0.0001   0.0001  -0.0000  -0.0000  -0.0000   0.00    0.0
2020/10/22 07:52:48.000   1112776.9461  -4341475.9071   4522955.8833   6   5   0.0001   0.0001   0.0001  -0.0000  -0.0000  -0.0000   0.00    0.0
2020/10/22 07:52:49.000   1112776.9461  -4341475.9071   4522955.8833   6   5   0.0001   0.0001   0.0001  -0.0000  -0.0000  -0.0000   0.00    0.0
2020/10/22 07:52:50.000   1112776.9461  -4341475.9071   4522955.8833   6   5   0.0001   0.0001   0.0001  -0.0000  -0.0000  -0.0000   0.00    0.0
2020/10/22 07:52:51.000   1112776.9461  -4341475.9071   4522955.8833   6   5   0.0001   0.0001   0.0001  -0.0000  -0.0000  -0.0000   0.00    0.0
2020/10/22 07:52:52.000   1112776.9461  -4341475.9071   4522955.8833   6   5   0.0001   0.0001   0.0001  -0.0000  -0.0000  -0.0000   0.00    0.0
2020/10/22 07:52:53.000   1112776.9461  -4341475.9071   4522955.8833   6   5   0.0001   0.0001   0.0001  -0.0000  -0.0000  -0.0000   0.00    0.0
2020/10/22 07:52:54.000   1112776.9461  -4341475.9071   4522955.8833   6   5   0.0001   0.0001   0.0001  -0.0000  -0.0000  -0.0000   0.00    0.0
2020/10/22 07:52:55.000   1112776.9461  -4341475.9071   4522955.8833   6   5   0.0001   0.0001   0.0001  -0.0000  -0.0000  -0.0000   0.00    0.0
2020/10/22 07:52:56.000   1112776.9461  -4341475.9071   4522955.8833   6   5   0.0001   0.0001   0.0001  -0.0000  -0.0000  -0.0000   0.00    0.0
2020/10/22 07:52:57.000   1112776.9461  -4341475.9071   4522955.8833   6   5   0.0001   0.0001   0.0001  -0.0000  -0.0000  -0.0000   0.00    0.0
2020/10/22 07:52:58.000   1112776.9461  -4341475.9071   4522955.8833   6   5   0.0001   0.0001   0.0001  -0.0000  -0.0000  -0.0000   0.00    0.0
2020/10/22 07:52:59.000   1112776.9461  -4341475.9071   4522955.8833   6   5   0.0001   0.0001   0.0001  -0.0000  -0.0000  -0.0000   0.00    0.0
2020/10/22 07:53:00.000   1112776.9461  -4341475.9071   4522955.8833   6   5   0.0001   0.0001   0.0001  -0.0000  -0.0000  -0.0000   0.00    0.0
2020/10/22 07:53:01.000   1112776.9461  -4341475.9071   4522955.8833   6   5   0.0001   0.0001   0.0001  -0.0000  -0.0000  -0.0000   0.00    0.0
2020/10/22 07:53:02.000   1112776.9715  -4341475.8905   4522955.8664   6   5   0.1434   0.1834   0.2097   0.0259  -0.1560  -0.0682   0.00    0.0
2020/10/22 07:53:03.000   1112776.9730  -4341475.9016   4522955.8769   6   5   0.1434   0.1834   0.2097   0.0258  -0.1560  -0.0681   0.00    0.0
2020/10/22 07:53:04.000   1112776.9655  -4341475.9049   4522955.8732   6   5   0.1434   0.1834   0.2096   0.0258  -0.1559  -0.0681   0.00    0.0
2020/10/22 07:53:05.000   1112776.9804  -4341475.8888   4522955.8569   6   5   0.1434   0.1834   0.2096   0.0257  -0.1559  -0.0681   0.00    0.0
2020/10/22 07:53:06.000   1112776.9850  -4341475.8834   4522955.8535   6   5   0.1434   0.1834   0.2096   0.0256  -0.1559  -0.0681   0.00    0.0
2020/10/22 07:53:07.000   1112776.9900  -4341475.8896   4522955.8511   6   5   0.1434   0.1834   0.2096   0.0256  -0.1559  -0.0680   0.00    0.0
2020/10/22 07:53:08.000   1112776.9989  -4341475.8816   4522955.8415   6   5   0.1434   0.1834   0.2096   0.0255  -0.1559  -0.0680   0.00    0.0
2020/10/22 07:53:09.000   1112776.9979  -4341475.8901   4522955.8451   6   5   0.1434   0.1834   0.2095   0.0254  -0.1559  -0.0680   0.00    0.0
2020/10/22 07:53:10.000   1112776.9993  -4341475.8895   4522955.8573   6   5   0.1434   0.1834   0.2095   0.0254  -0.1559  -0.0679   0.00    0.0
2020/10/22 07:53:11.000   1112776.9953  -4341475.8920   4522955.8630   6   5   0.1434   0.1834   0.2095   0.0253  -0.1559  -0.0679   0.00    0.0
2020/10/22 07:53:12.000   1112776.9955  -4341475.9495   4522955.8795   6   5   0.1434   0.1834   0.2095   0.0252  -0.1558  -0.0679   0.00    0.0
2020/10/22 07:53:13.000   1112777.0029  -4341475.9479   4522955.8760   6   5   0.1434   0.1833   0.2095   0.0252  -0.1558  -0.0679   0.00    0.0
2020/10/22 07:53:14.000   1112777.0085  -4341475.9396   4522955.8746   6   5   0.1434   0.1833   0.2094   0.0251  -0.1558  -0.0678   0.00    0.0
2020/10/22 07:53:15.000   1112777.0070  -4341475.9340   4522955.8717   6   5   0.1434   0.1833   0.2094   0.0250  -0.1558  -0.0678   0.00    0.0
2020/10/22 07:53:16.000   1112777.0284  -4341475.8804   4522955.8358   6   5   0.1434   0.1833   0.2094   0.0250  -0.1558  -0.0678   0.00    0.0
2020/10/22 07:53:17.000   1112777.0355  -4341475.8791   4522955.8381   6   5   0.1433   0.1833   0.2094   0.0249  -0.1558  -0.0678   0.00    0.0
2020/10/22 07:53:18.000   1112777.0278  -4341475.8783   4522955.8348   6   5   0.1433   0.1833   0.2094   0.0248  -0.1558  -0.0677   0.00    0.0
2020/10/22 07:53:19.000   1112777.0325  -4341475.8632   4522955.8284   6   5   0.1433   0.1833   0.2093   0.0247  -0.1558  -0.0677   0.00    0.0
2020/10/22 07:53:20.000   1112777.0358  -4341475.8649   4522955.8188   6   5   0.1433   0.1833   0.2093   0.0247  -0.1557  -0.0677   0.00    0.0
2020/10/22 07:53:21.000   1112777.0311  -4341475.8744   4522955.8262   6   5   0.1433   0.1833   0.2093   0.0246  -0.1557  -0.0677   0.00    0.0
2020/10/22 07:53:22.000   1112777.0255  -4341475.8562   4522955.8178   6   5   0.1433   0.1833   0.2093   0.0245  -0.1557  -0.0677   0.00    0.0
2020/10/22 07:53:23.000   1112777.0276  -4341475.8555   4522955.8206   6   5   0.1433   0.1833   0.2093   0.0245  -0.1557  -0.0676   0.00    0.0
2020/10/22 07:53:24.000   1112777.0138  -4341475.8548   4522955.8278   6   5   0.1433   0.1833   0.2093   0.0244  -0.1557  -0.0676   0.00    0.0
2020/10/22 07:53:25.000   1112777.0166  -4341475.8530   4522955.8276   6   5   0.1433   0.1833   0.2092   0.0243  -0.1557  -0.0676   0.00    0.0
2020/10/22 07:53:26.000   1112777.0092  -4341475.8464   4522955.8243   6   5   0.1433   0.1833   0.2092   0.0243  -0.1557  -0.0676   0.00    0.0
2020/10/22 07:53:27.000   1112777.0079  -4341475.9025   4522955.8430   6   5   0.1433   0.1833   0.2092   0.0242  -0.1557  -0.0675   0.00    0.0
2020/10/22 07:53:28.000   1112777.0018  -4341475.9189   4522955.8695   6   5   0.1433   0.1833   0.2092   0.0241  -0.1556  -0.0675   0.00    0.0
2020/10/22 07:53:29.000   1112777.0066  -4341475.9094   4522955.8586   6   5   0.1433   0.1833   0.2092   0.0241  -0.1556  -0.0675   0.00    0.0
2020/10/22 07:53:30.000   1112777.0014  -4341475.9125   4522955.8552   6   5   0.1433   0.1833   0.2091   0.0240  -0.1556  -0.0675   0.00    0.0
2020/10/22 07:53:31.000   1112777.0078  -4341475.9099   4522955.8523   6   5   0.1433   0.1833   0.2091   0.0239  -0.1556  -0.0675   0.00    0.0
2020/10/22 07:53:32.000   1112776.9930  -4341475.8428   4522955.8126   6   5   0.1433   0.1833   0.2091   0.0238  -0.1556  -0.0674   0.00    0.0
2020/10/22 07:53:33.000   1112777.0018  -4341475.8357   4522955.8058   6   5   0.1433   0.1832   0.2091   0.0238  -0.1556  -0.0674   0.00    0.0
2020/10/22 07:53:34.000   1112776.9970  -4341475.8396   4522955.8126   6   5   0.1433   0.1832   0.2091   0.0237  -0.1556  -0.0674   0.00    0.0
2020/10/22 07:53:35.000   1112777.0060  -4341475.8354   4522955.8134   6   5   0.1433   0.1832   0.2091   0.0236  -0.1556  -0.0674   0.00    0.0
2020/10/22 07:53:36.000   1112777.0021  -4341475.8266   4522955.8093   6   5   0.1433   0.1832   0.2090   0.0236  -0.1556  -0.0673   0.00    0.0
2020/10/22 07:53:37.000   1112776.9607  -4341475.8147   4522955.8307   6   5   0.1433   0.1832   0.2090   0.0235  -0.1555  -0.0673   0.00    0.0
2020/10/22 07:53:38.000   1112776.9524  -4341475.8079   4522955.8128   6   5   0.1432   0.1832   0.2090   0.0234  -0.1555  -0.0673   0.00    0.0
2020/10/22 07:53:39.000   1112776.9501  -4341475.8176   4522955.8286   6   5   0.1432   0.1832   0.2090   0.0234  -0.1555  -0.0673   0.00    0.0
2020/10/22 07:53:40.000   1112776.9442  -4341475.8104   4522955.8241   6   5   0.1432   0.1832   0.2090   0.0233  -0.1555  -0.0673   0.00    0.0
2020/10/22 07:53:41.000   1112776.9476  -4341475.8065   4522955.8253   6   5   0.1432   0.1832   0.2089   0.0232  -0.1555  -0.0672   0.00    0.0
2020/10/22 07:53:42.000   1112776.9365  -4341475.8149   4522955.8366   6   5   0.1432   0.1832   0.2089   0.0231  -0.1555  -0.0672   0.00    0.0
2020/10/22 07:53:43.000   1112776.9305  -4341475.7975   4522955.8318   6   5   0.1432   0.1832   0.2089   0.0231  -0.1555  -0.0672   0.00    0.0
2020/10/22 07:53:44.000   1112776.9319  -4341475.8118   4522955.8446   6   5   0.1432   0.1832   0.2089   0.0230  -0.1555  -0.0672   0.00    0.0
2020/10/22 07:53:45.000   1112776.9189  -4341475.8001   4522955.8267   6   5   0.1432   0.1832   0.2089   0.0229  -0.1554  -0.0672   0.00    0.0
2020/10/22 07:53:46.000   1112776.9124  -4341475.8033   4522955.8342   6   5   0.1432   0.1832   0.2089   0.0229  -0.1554  -0.0671   0.00    0.0
2020/10/22 07:53:47.000   1112776.9197  -4341475.7711   4522955.8935   6   5   0.1432   0.1832   0.2088   0.0228  -0.1554  -0.0671   0.00    0.0
2020/10/22 07:53:48.000   1112776.9115  -4341475.7645   4522955.8901   6   5   0.1432   0.1832   0.2088   0.0227  -0.1554  -0.0671   0.00    0.0
2020/10/22 07:53:49.000   1112776.9121  -4341475.7658   4522955.8982   6   5   0.1432   0.1832   0.2088   0.0226  -0.1554  -0.0671   0.00    0.0
2020/10/22 07:53:50.000   1112776.9174  -4341475.7708   4522955.8942   6   5   0.1432   0.1832   0.2088   0.0226  -0.1554  -0.0671   0.00    0.0
2020/10/22 07:53:51.000   1112776.9222  -4341475.7656   4522955.9007   6   5   0.1432   0.1832   0.2088   0.0225  -0.1554  -0.0670   0.00    0.0
2020/10/22 07:53:52.000   1112776.9237  -4341475.8031   4522955.8486   6   5   0.1432   0.1832   0.2088   0.0224  -0.1554  -0.0670   0.00    0.0
2020/10/22 07:53:53.000   1112776.9158  -4341475.7941   4522955.8445   6   5   0.1432   0.1831   0.2087   0.0224  -0.1554  -0.0670   0.00    0.0
2020/10/22 07:53:54.000   1112776.9144  -4341475.7946   4522955.8458   6   5   0.1432   0.1831   0.2087   0.0223  -0.1553  -0.0670   0.00    0.0
2020/10/22 07:53:55.000   1112776.9170  -4341475.8059   4522955.8514   6   5   0.1432   0.1831   0.2087   0.0222  -0.1553  -0.0670   0.00    0.0
2020/10/22 07:53:56.000   1112776.9274  -4341475.8038   4522955.8449   6   5   0.1432   0.1831   0.2087   0.0221  -0.1553  -0.0669   0.00    0.0
2020/10/22 07:53:57.000   1112776.9365  -4341475.8150   4522955.8500   6   5   0.1432   0.1831   0.2087   0.0221  -0.1553  -0.0669   0.00    0.0
2020/10/22 07:53:58.000   1112776.9345  -4341475.7679   4522955.9005   6   5   0.1432   0.1831   0.2087   0.0220  -0.1553  -0.0669   0.00    0.0
2020/10/22 07:53:59.000   1112776.9300  -4341475.7858   4522955.9123   6   5   0.1432   0.1831   0.2086   0.0219  -0.1553  -0.0669   0.00    0.0
2020/10/22 07:54:00.000   1112776.9444  -4341475.7865   4522955.9152   6   5   0.1432   0.1831   0.2086   0.0218  -0.1553  -0.0669   0.00    0.0
2020/10/22 07:54:01.000   1112776.9437  -4341475.7842   4522955.9040   6   5   0.1432   0.1831   0.2086   0.0218  -0.1553  -0.0669   0.00    0.0
2020/10/22 07:54:02.000   1112776.9601  -4341475.8887   4522955.8771   6   5   0.1432   0.1831   0.2086   0.0217  -0.1553  -0.0668   0.00    0.0
2020/10/22 07:54:03.000   1112776.9578  -4341475.8873   4522955.8822   6   5   0.1432   0.1831   0.2086   0.0216  -0.1552  -0.0668   0.00    0.0
2020/10/22 07:54:04.000   1112776.9583  -4341475.8909   4522955.8918   6   5   0.1432   0.1831   0.2086   0.0215  -0.1552  -0.0668   0.00    0.0
2020/10/22 07:54:05.000   1112776.9536  -4341475.8964   4522955.9001   6   5   0.1432   0.1831   0.2085   0.0215  -0.1552  -0.0668   0.00    0.0
2020/10/22 07:54:06.000   1112776.9467  -4341475.8742   4522955.8796   6   5   0.1431   0.1831   0.2085   0.0214  -0.1552  -0.0668   0.00    0.0
2020/10/22 07:54:07.000   1112777.0371  -4341475.8620   4522955.8457   6   5   0.1431   0.1831   0.2085   0.0213  -0.1552  -0.0667   0.00    0.0
2020/10/22 07:54:08.000   1112777.0384  -4341475.8595   4522955.8416   6   5   0.1431   0.1831   0.2085   0.0212  -0.1552  -0.0667   0.00    0.0
2020/10/22 07:54:09.000   1112777.0344  -4341475.8786   4522955.8580   6   5   0.1431   0.1831   0.2085   0.0212  -0.1552  -0.0667   0.00    0.0
2020/10/22 07:54:10.000   1112777.0364  -4341475.8725   4522955.8462   6   5   0.1431   0.1831   0.2085   0.0211  -0.1552  -0.0667   0.00    0.0
2020/10/22 07:54:11.000   1112777.0302  -4341475.8675   4522955.8420   6   5   0.1431   0.1831   0.2084   0.0210  -0.1551  -0.0667   0.00    0.0
2020/10/22 07:54:12.000   1112776.9897  -4341475.8588   4522955.8571   6   5   0.1431   0.1831   0.2084   0.0209  -0.1551  -0.0667   0.00    0.0
2020/10/22 07:54:13.000   1112776.9920  -4341475.8512   4522955.8514   6   5   0.1431   0.1831   0.2084   0.0209  -0.1551  -0.0666   0.00    0.0
2020/10/22 07:54:14.000   1112776.9901  -4341475.8461   4522955.8627   6   5   0.1431   0.1830   0.2084   0.0208  -0.1551  -0.0666   0.00    0.0
2020/10/22 07:54:15.000   1112776.9932  -4341475.8413   4522955.8543   6   5   0.1431   0.1830   0.2084   0.0207  -0.1551  -0.0666   0.00    0.0
2020/10/22 07:54:16.000   1112776.9919  -4341475.8504   4522955.8602   6   5   0.1431   0.1830   0.2084   0.0206  -0.1551  -0.0666   0.00    0.0
2020/10/22 07:54:17.000   1112776.9956  -4341475.8512   4522955.8519   6   5   0.1431   0.1830   0.2084   0.0206  -0.1551  -0.0666   0.00    0.0
2020/10/22 07:54:18.000   1112776.9886  -4341475.8559   4522955.8551   6   5   0.1431   0.1830   0.2083   0.0205  -0.1551  -0.0666   0.00    0.0
2020/10/22 07:54:19.000   1112777.0013  -4341475.8483   4522955.8609   6   5   0.1431   0.1830   0.2083   0.0204  -0.1551  -0.0665   0.00    0.0
2020/10/22 07:54:20.000   1112777.0017  -4341475.8547   4522955.8565   6   5   0.1431   0.1830   0.2083   0.0203  -0.1550  -0.0665   0.00    0.0
2020/10/22 07:54:21.000   1112777.0113  -4341475.8461   4522955.8517   6   5   0.1431   0.1830   0.2083   0.0203  -0.1550  -0.0665   0.00    0.0
2020/10/22 07:54:22.000   1112776.9849  -4341475.8369   4522955.8603   6   5   0.1431   0.1830   0.2083   0.0202  -0.1550  -0.0665   0.00    0.0
2020/10/22 07:54:23.000   1112776.9971  -4341475.8459   4522955.8617   6   5   0.1431   0.1830   0.2083   0.0201  -0.1550  -0.0665   0.00    0.0
2020/10/22 07:54:24.000   1112776.9959  -4341475.8400   4522955.8658   6   5   0.1431   0.1830   0.2082   0.0200  -0.1550  -0.0665   0.00    0.0
2020/10/22 07:54:25.000   1112777.0000  -4341475.8392   4522955.8574   6   5   0.1431   0.1830   0.2082   0.0199  -0.1550  -0.0664   0.00    0.0
2020/10/22 07:54:26.000   1112777.0055  -4341475.8356   4522955.8530   6   5   0.1431   0.1830   0.2082   0.0199  -0.1550  -0.0664   0.00    0.0
2020/10/22 07:54:27.000   1112777.0004  -4341475.8416   4522955.8525   6   5   0.1431   0.1830   0.2082   0.0198  -0.1550  -0.0664   0.00    0.0
2020/10/22 07:54:28.000   1112777.0085  -4341475.8343   4522955.8471   6   5   0.1431   0.1830   0.2082   0.0197  -0.1550  -0.0664   0.00    0.0
2020/10/22 07:54:29.000   1112777.0159  -4341475.7953   4522956.2902   6   5   0.1447   0.2079   0.9242   0.0503   0.2549   0.1231   0.00    0.0
2020/10/22 07:54:30.000   1112777.0090  -4341475.8059   4522956.2162   6   5   0.1439   0.1959   0.6724   0.0381   0.1442   0.0733   0.00    0.0
2020/10/22 07:54:31.000   1112776.9817  -4341475.7767   4522956.1624   6   5   0.1436   0.1918   0.5640   0.0331   0.0780   0.0460   0.00    0.0
2020/10/22 07:54:32.000   1112776.9873  -4341475.7709   4522956.2021   6   5   0.1435   0.1896   0.5011   0.0302  -0.0358   0.0221   0.00    0.0
2020/10/22 07:54:33.000   1112776.9789  -4341475.7635   4522956.1826   6   5   0.1434   0.1883   0.4592   0.0283  -0.0755  -0.0222   0.00    0.0
2020/10/22 07:54:34.000   1112776.9764  -4341475.7794   4522956.2224   6   5   0.1433   0.1875   0.4290   0.0269  -0.0929  -0.0338   0.00    0.0
2020/10/22 07:54:35.000   1112776.9903  -4341475.7819   4522956.2321   6   5   0.1433   0.1868   0.4060   0.0259  -0.1036  -0.0401   0.00    0.0
2020/10/22 07:54:36.000   1112776.9833  -4341475.7638   4522956.2309   6   5   0.1433   0.1864   0.3879   0.0251  -0.1110  -0.0443   0.00    0.0
2020/10/22 07:54:37.000   1112776.9613  -4341475.8240   4522956.2170   6   5   0.1432   0.1860   0.3733   0.0244  -0.1164  -0.0473   0.00    0.0
2020/10/22 07:54:38.000   1112776.9547  -4341475.8253   4522956.1976   6   5   0.1432   0.1857   0.3611   0.0238  -0.1205  -0.0495   0.00    0.0
2020/10/22 07:54:39.000   1112776.9630  -4341475.8307   4522956.2085   6   5   0.1432   0.1855   0.3508   0.0233  -0.1238  -0.0513   0.00    0.0
2020/10/22 07:54:40.000   1112776.9585  -4341475.8536   4522956.2047   6   5   0.1432   0.1853   0.3420   0.0229  -0.1265  -0.0527   0.00    0.0
2020/10/22 07:54:41.000   1112776.9642  -4341475.8542   4522956.0368   6   5   0.1447   0.2075   0.9200   0.0499   0.2525   0.1235   0.00    0.0
2020/10/22 07:54:42.000   1112776.9872  -4341475.7992   4522956.0550   6   5   0.1439   0.1956   0.6695   0.0376   0.1422   0.0736   0.00    0.0
2020/10/22 07:54:43.000   1112776.9844  -4341475.8100   4522956.1039   6   5   0.1436   0.1915   0.5616   0.0324   0.0755   0.0463   0.00    0.0
2020/10/22 07:54:44.000   1112776.9931  -4341475.8045   4522956.1277   6   5   0.1435   0.1894   0.4990   0.0295  -0.0396   0.0224   0.00    0.0
2020/10/22 07:54:45.000   1112776.9934  -4341475.8035   4522956.1486   6   5   0.1434   0.1882   0.4574   0.0275  -0.0769  -0.0219   0.00    0.0
2020/10/22 07:54:46.000   1112776.9957  -4341475.7985   4522956.1554   6   5   0.1433   0.1873   0.4274   0.0261  -0.0939  -0.0337   0.00    0.0
2020/10/22 07:54:47.000   1112776.9807  -4341475.7952   4522956.1701   6   5   0.1433   0.1867   0.4045   0.0251  -0.1044  -0.0400   0.00    0.0
2020/10/22 07:54:48.000   1112776.9873  -4341475.7965   4522956.1351   6   5   0.1432   0.1863   0.3865   0.0242  -0.1116  -0.0442   0.00    0.0
2020/10/22 07:54:49.000   1112776.9857  -4341475.7975   4522956.1389   6   5   0.1432   0.1859   0.3719   0.0235  -0.1169  -0.0472   0.00    0.0
2020/10/22 07:54:50.000   1112776.9889  -4341475.8055   4522956.1282   6   5   0.1432   0.1856   0.3598   0.0230  -0.1209  -0.0494   0.00    0.0
2020/10/22 07:54:51.000   1112776.9867  -4341475.8234   4522956.1102   6   5   0.1432   0.1854   0.3496   0.0225  -0.1242  -0.0512   0.00    0.0
2020/10/22 07:54:52.000   1112777.0155  -4341475.8351   4522956.1070   6   5   0.1432   0.1852   0.3408   0.0220  -0.1268  -0.0527   0.00    0.0
2020/10/22 07:54:53.000   1112777.0163  -4341475.8391   4522956.1184   6   5   0.1431   0.1850   0.3333   0.0216  -0.1290  -0.0538   0.00    0.0
2020/10/22 07:54:54.000   1112777.0211  -4341475.8334   4522956.1225   6   5   0.1431   0.1848   0.3266   0.0213  -0.1308  -0.0548   0.00    0.0
2020/10/22 07:54:55.000   1112777.0136  -4341475.8304   4522956.1100   6   5   0.1431   0.1847   0.3207   0.0209  -0.1324  -0.0557   0.00    0.0
2020/10/22 07:54:56.000   1112777.0201  -4341475.8358   4522956.1233   6   5   0.1431   0.1846   0.3155   0.0207  -0.1337  -0.0564   0.00    0.0
2020/10/22 07:54:57.000   1112776.9891  -4341475.7993   4522956.1995   6   5   0.1431   0.1845   0.3108   0.0204  -0.1349  -0.0570   0.00    0.0
2020/10/22 07:54:58.000   1112776.9771  -4341475.7940   4522956.1862   6   5   0.1431   0.1844   0.3066   0.0201  -0.1360  -0.0576   0.00    0.0
2020/10/22 07:54:59.000   1112776.9798  -4341475.7970   4522956.2045   6   5   0.1431   0.1843   0.3027   0.0199  -0.1369  -0.0581   0.00    0.0
2020/10/22 07:55:00.000   1112776.9747  -4341475.7952   4522956.2213   6   5   0.1431   0.1843   0.2992   0.0197  -0.1377  -0.0585   0.00    0.0
2020/10/22 07:55:01.000   1112776.9716  -4341475.7981   4522956.2265   6   5   0.1431   0.1842   0.2960   0.0195  -0.1385  -0.0589   0.00    0.0
2020/10/22 07:55:02.000   1112776.9837  -4341475.8488   4522956.1684   6   5   0.1431   0.1841   0.2931   0.0192  -0.1391  -0.0593   0.00    0.0
2020/10/22 07:55:03.000   1112776.9953  -4341475.8442   4522956.1661   6   5   0.1431   0.1841   0.2903   0.0191  -0.1398  -0.0596   0.00    0.0
2020/10/22 07:55:04.000   1112776.9929  -4341475.8645   4522956.1795   6   5   0.1431   0.1840   0.2878   0.0189  -0.1403  -0.0599   0.00    0.0
2020/10/22 07:55:05.000   1112776.9905  -4341475.8532   4522956.1621   6   5   0.1430   0.1840   0.2855   0.0187  -0.1408  -0.0602   0.00    0.0
2020/10/22 07:55:06.000   1112776.9860  -4341475.8683   4522956.1666   6   5   0.1430   0.1839   0.2833   0.0185  -0.1413  -0.0604   0.00    0.0
2020/10/22 07:55:07.000   1112776.9701  -4341475.9111   4522956.1713   6   5   0.1430   0.1839   0.2813   0.0183  -0.1417  -0.0607   0.00    0.0
2020/10/22 07:55:08.000   1112776.9636  -4341475.9295   4522956.1754   6   5   0.1430   0.1838   0.2794   0.0182  -0.1421  -0.0609   0.00    0.0
2020/10/22 07:55:09.000   1112776.9620  -4341475.9220   4522956.1651   6   5   0.1430   0.1838   0.2776   0.0180  -0.1425  -0.0611   0.00    0.0
2020/10/22 07:55:10.000   1112776.9626  -4341475.9367   4522956.1756   6   5   0.1430   0.1838   0.2759   0.0178  -0.1428  -0.0613   0.00    0.0
2020/10/22 07:55:11.000   1112776.9590  -4341475.9463   4522956.1639   6   5   0.1430   0.1837   0.2744   0.0177  -0.1432  -0.0614   0.00    0.0
2020/10/22 07:55:12.000   1112776.9318  -4341475.8310   4522956.1934   6   5   0.1430   0.1837   0.2729   0.0175  -0.1435  -0.0616   0.00    0.0
2020/10/22 07:55:13.000   1112776.9368  -4341475.8300   4522956.2211   6   5   0.1430   0.1837   0.2715   0.0174  -0.1438  -0.0618   0.00    0.0
2020/10/22 07:55:14.000   1112776.9393  -4341475.8271   4522956.2237   6   5   0.1430   0.1836   0.2701   0.0172  -0.1440  -0.0619   0.00    0.0
2020/10/22 07:55:15.000   1112776.9421  -4341475.8257   4522956.2264   6   5   0.1430   0.1836   0.2689   0.0171  -0.1443  -0.0620   0.00    0.0
2020/10/22 07:55:16.000   1112776.9541  -4341475.8290   4522956.2460   6   5   0.1430   0.1836   0.2677   0.0169  -0.1445  -0.0622   0.00    0.0
2020/10/22 07:55:17.000   1112776.9259  -4341475.8635   4522956.2087   6   5   0.1430   0.1836   0.2665   0.0168  -0.1447  -0.0623   0.00    0.0
2020/10/22 07:55:18.000   1112776.9281  -4341475.8455   4522956.2049   6   5   0.1430   0.1835   0.2655   0.0167  -0.1449  -0.0624   0.00    0.0
2020/10/22 07:55:19.000   1112776.9254  -4341475.8471   4522956.2171   6   5   0.1430   0.1835   0.2644   0.0165  -0.1451  -0.0625   0.00    0.0
2020/10/22 07:55:20.000   1112776.9402  -4341475.8581   4522956.2148   6   5   0.1430   0.1835   0.2634   0.0164  -0.1453  -0.0626   0.00    0.0
2020/10/22 07:55:21.000   1112776.9435  -4341475.8576   4522956.2320   6   5   0.1430   0.1835   0.2625   0.0162  -0.1455  -0.0627   0.00    0.0
2020/10/22 07:55:22.000   1112776.9803  -4341475.8487   4522956.2024   6   5   0.1430   0.1835   0.2616   0.0161  -0.1457  -0.0628   0.00    0.0
2020/10/22 07:55:23.000   1112776.9714  -4341475.8566   4522956.2158   6   5   0.1430   0.1834   0.2607   0.0160  -0.1458  -0.0629   0.00    0.0
2020/10/22 07:55:24.000   1112776.9751  -4341475.8608   4522956.2161   6   5   0.1430   0.1834   0.2599   0.0158  -0.1460  -0.0629   0.00    0.0
2020/10/22 07:55:25.000   1112776.9905  -4341475.8546   4522956.2094   6   5   0.1430   0.1834   0.2591   0.0157  -0.1461  -0.0630   0.00    0.0
2020/10/22 07:55:26.000   1112776.9895  -4341475.8408   4522956.2090   6   5   0.1430   0.1834   0.2583   0.0156  -0.1463  -0.0631   0.00    0.0
2020/10/22 07:55:27.000   1112776.9524  -4341475.9016   4522956.2275   6   5   0.1430   0.1834   0.2576   0.0154  -0.1464  -0.0632   0.00    0.0
2020/10/22 07:55:28.000   1112776.9679  -4341475.8893   4522956.2185   6   5   0.1430   0.1833   0.2569   0.0153  -0.1465  -0.0632   0.00    0.0
2020/10/22 07:55:29.000   1112776.9694  -4341475.8913   4522956.2250   6   5   0.1430   0.1833   0.2562   0.0152  -0.1466  -0.0633   0.00    0.0
2020/10/22 07:55:30.000   1112776.9674  -4341475.8948   4522956.2188   6   5   0.1430   0.1833   0.2556   0.0150  -0.1468  -0.0634   0.00    0.0
2020/10/22 07:55:31.000   1112776.9808  -4341475.8899   4522956.2075   6   5   0.1430   0.1833   0.2549   0.0149  -0.1469  -0.0634   0.00    0.0
2020/10/22 07:55:32.000   1112777.0022  -4341475.8367   4522956.1866   6   5   0.1430   0.1833   0.2543   0.0148  -0.1470  -0.0635   0.00    0.0
2020/10/22 07:55:33.000   1112777.0026  -4341475.8355   4522956.1827   6   5   0.1429   0.1833   0.2537   0.0146  -0.1471  -0.0635   0.00    0.0
2020/10/22 07:55:34.000   1112777.0071  -4341475.8320   4522956.1960   6   5   0.1429   0.1833   0.2532   0.0145  -0.1472  -0.0636   0.00    0.0
2020/10/22 07:55:35.000   1112777.0129  -4341475.8462   4522956.2176   6   5   0.1429   0.1832   0.2526   0.0144  -0.1473  -0.0636   0.00    0.0
2020/10/22 07:55:36.000   1112777.0069  -4341475.8220   4522956.1911   6   5   0.1429   0.1832   0.2521   0.0142  -0.1474  -0.0637   0.00    0.0
2020/10/22 07:55:37.000   1112777.0091  -4341475.8163   4522956.1905   6   5   0.1429   0.1832   0.2516   0.0141  -0.1474  -0.0637   0.00    0.0
2020/10/22 07:55:38.000   1112776.9627  -4341475.7464   4522956.2588   6   5   0.1429   0.1832   0.2511   0.0140  -0.1475  -0.0638   0.00    0.0
2020/10/22 07:55:39.000   1112776.9619  -4341475.7599   4522956.2604   6   5   0.1429   0.1832   0.2506   0.0138  -0.1476  -0.0638   0.00    0.0
2020/10/22 07:55:40.000   1112776.9637  -4341475.7626   4522956.2685   6   5   0.1429   0.1832   0.2501   0.0137  -0.1477  -0.0639   0.00    0.0
2020/10/22 07:55:41.000   1112776.9568  -4341475.7574   4522956.2712   6   5   0.1429   0.1832   0.2497   0.0135  -0.1478  -0.0639   0.00    0.0
2020/10/22 07:55:42.000   1112776.9462  -4341475.7487   4522956.2760   6   5   0.1429   0.1831   0.2492   0.0134  -0.1478  -0.0640   0.00    0.0
2020/10/22 07:55:43.000   1112776.9573  -4341475.7617   4522956.2803   6   5   0.1429   0.1831   0.2488   0.0133  -0.1479  -0.0640   0.00    0.0
2020/10/22 07:55:44.000   1112776.9615  -4341475.7528   4522956.2849   6   5   0.1429   0.1831   0.2484   0.0131  -0.1480  -0.0640   0.00    0.0
2020/10/22 07:55:45.000   1112776.9532  -4341475.7549   4522956.2895   6   5   0.1429   0.1831   0.2480   0.0130  -0.1480  -0.0641   0.00    0.0
2020/10/22 07:55:46.000   1112776.9530  -4341475.7651   4522956.2999   6   5   0.1429   0.1831   0.2476   0.0129  -0.1481  -0.0641   0.00    0.0
2020/10/22 07:55:47.000   1112776.9464  -4341475.7577   4522956.2954   6   5   0.1429   0.1831   0.2472   0.0127  -0.1482  -0.0641   0.00    0.0
2020/10/22 07:55:48.000   1112776.9404  -4341475.7456   4522956.2890   6   5   0.1429   0.1831   0.2468   0.0126  -0.1482  -0.0642   0.00    0.0
2020/10/22 07:55:49.000   1112776.9442  -4341475.7748   4522956.3089   6   5   0.1429   0.1831   0.2464   0.0124  -0.1483  -0.0642   0.00    0.0
2020/10/22 07:55:50.000   1112776.9307  -4341475.7444   4522956.2926   6   5   0.1429   0.1831   0.2461   0.0123  -0.1483  -0.0642   0.00    0.0
2020/10/22 07:55:51.000   1112776.9395  -4341475.7491   4522956.3036   6   5   0.1429   0.1830   0.2457   0.0121  -0.1484  -0.0643   0.00    0.0
2020/10/22 07:55:52.000   1112776.9513  -4341475.8550   4522956.2794   6   5   0.1429   0.1830   0.2454   0.0120  -0.1484  -0.0643   0.00    0.0
2020/10/22 07:55:53.000   1112776.9396  -4341475.8585   4522956.2938   6   5   0.1429   0.1830   0.2451   0.0118  -0.1485  -0.0643   0.00    0.0
2020/10/22 07:55:54.000   1112776.9386  -4341475.8456   4522956.2716   6   5   0.1429   0.1830   0.2448   0.0117  -0.1485  -0.0643   0.00    0.0
2020/10/22 07:55:55.000   1112776.9330  -4341475.8559   4522956.2616   6   5   0.1429   0.1830   0.2444   0.0116  -0.1486  -0.0644   0.00    0.0
2020/10/22 07:55:56.000   1112776.9234  -4341475.8522   4522956.2671   6   5   0.1429   0.1830   0.2441   0.0114  -0.1486  -0.0644   0.00    0.0
2020/10/22 07:55:57.000   1112776.7783  -4341475.7015   4522956.2337   6   5   0.1429   0.1830   0.2438   0.0112  -0.1487  -0.0644   0.00    0.0
2020/10/22 07:55:58.000   1112776.7737  -4341475.6902   4522956.2240   6   5   0.1429   0.1830   0.2435   0.0111  -0.1487  -0.0644   0.00    0.0
2020/10/22 07:55:59.000   1112776.7715  -4341475.6968   4522956.2254   6   5   0.1429   0.1830   0.2433   0.0109  -0.1488  -0.0645   0.00    0.0
2020/10/22 07:56:00.000   1112776.7779  -4341475.6944   4522956.2376   6   5   0.1429   0.1830   0.2430   0.0108  -0.1488  -0.0645   0.00    0.0
2020/10/22 07:56:01.000   1112776.7740  -4341475.6912   4522956.2325   6   5   0.1429   0.1829   0.2427   0.0106  -0.1488  -0.0645   0.00    0.0
2020/10/22 07:56:02.000   1112776.7758  -4341475.6898   4522956.2410   6   5   0.1429   0.1829   0.2424   0.0105  -0.1489  -0.0645   0.00    0.0
2020/10/22 07:56:03.000   1112776.7665  -4341475.6863   4522956.2489   6   5   0.1429   0.1829   0.2422   0.0103  -0.1489  -0.0646   0.00    0.0
2020/10/22 07:56:04.000   1112776.7618  -4341475.6870   4522956.2608   6   5   0.1429   0.1829   0.2419   0.0101  -0.1490  -0.0646   0.00    0.0
2020/10/22 07:56:05.000   1112776.7706  -4341475.6836   4522956.2673   6   5   0.1429   0.1829   0.2417   0.0100  -0.1490  -0.0646   0.00    0.0
2020/10/22 07:56:06.000   1112776.7688  -4341475.6737   4522956.2572   6   5   0.1429   0.1829   0.2414   0.0098  -0.1490  -0.0646   0.00    0.0
2020/10/22 07:56:07.000   1112776.7660  -4341475.6756   4522956.2550   6   5   0.1429   0.1829   0.2412   0.0096  -0.1491  -0.0646   0.00    0.0
2020/10/22 07:56:08.000   1112776.7703  -4341475.6783   4522956.2445   6   5   0.1429   0.1829   0.2410   0.0095  -0.1491  -0.0647   0.00    0.0
2020/10/22 07:56:09.000   1112776.7531  -4341475.6680   4522956.2526   6   5   0.1429   0.1829   0.2407   0.0093  -0.1491  -0.0647   0.00    0.0
2020/10/22 07:56:10.000   1112776.7494  -4341475.6670   4522956.2652   6   5   0.1429   0.1829   0.2405   0.0091  -0.1492  -0.0647   0.00    0.0
2020/10/22 07:56:11.000   1112776.7520  -4341475.6681   4522956.2694   6   5   0.1429   0.1829   0.2403   0.0089  -0.1492  -0.0647   0.00    0.0
2020/10/22 07:56:12.000   1112776.7515  -4341475.6573   4522956.2594   6   5   0.1429   0.1829   0.2401   0.0087  -0.1492  -0.0647   0.00    0.0
2020/10/22 07:56:13.000   1112776.7467  -4341475.6552   4522956.2621   6   5   0.1429   0.1828   0.2399   0.0085  -0.1493  -0.0647   0.00    0.0
2020/10/22 07:56:14.000   1112776.7411  -4341475.6492   4522956.2578   6   5   0.1429   0.1828   0.2396   0.0083  -0.1493  -0.0648   0.00    0.0
2020/10/22 07:56:15.000   1112776.7403  -4341475.6398   4522956.2620   6   5   0.1428   0.1828   0.2394   0.0081  -0.1493  -0.0648   0.00    0.0
2020/10/22 07:56:16.000   1112776.7316  -4341475.6533   4522956.2723   6   5   0.1428   0.1828   0.2392   0.0079  -0.1493  -0.0648   0.00    0.0
2020/10/22 07:56:17.000   1112776.8545  -4341475.7141   4522956.2492   6   5   0.1428   0.1828   0.2390   0.0077  -0.1494  -0.0648   0.00    0.0
2020/10/22 07:56:18.000   1112776.8393  -4341475.7202   4522956.2733   6   5   0.1428   0.1828   0.2388   0.0075  -0.1494  -0.0648   0.00    0.0
2020/10/22 07:56:19.000   1112776.8307  -4341475.7210   4522956.2692   6   5   0.1428   0.1828   0.2387   0.0073  -0.1494  -0.0648   0.00    0.0
2020/10/22 07:56:20.000   1112776.8315  -4341475.7187   4522956.2771   6   5   0.1428   0.1828   0.2385   0.0071  -0.1494  -0.0648   0.00    0.0
2020/10/22 07:56:21.000   1112776.8364  -4341475.7247   4522956.2765   6   5   0.1428   0.1828   0.2383   0.0068  -0.1495  -0.0649   0.00    0.0
2020/10/22 07:56:22.000   1112776.8484  -4341475.7440   4522956.2890   6   5   0.1428   0.1828   0.2381   0.0066  -0.1495  -0.0649   0.00    0.0
2020/10/22 07:56:23.000   1112776.8439  -4341475.7372   4522956.2851   6   5   0.1428   0.1828   0.2379   0.0064  -0.1495  -0.0649   0.00    0.0
2020/10/22 07:56:24.000   1112776.8380  -4341475.7414   4522956.2934   6   5   0.1428   0.1828   0.2378   0.0061  -0.1495  -0.0649   0.00    0.0
2020/10/22 07:56:25.000   1112776.8369  -4341475.7318   4522956.2915   6   5   0.1428   0.1827   0.2376   0.0058  -0.1495  -0.0649   0.00    0.0
2020/10/22 07:56:26.000   1112776.8391  -4341475.7393   4522956.3027   6   5   0.1428   0.1827   0.2374   0.0055  -0.1496  -0.0649   0.00    0.0
2020/10/22 07:56:27.000   1112776.8353  -4341475.7443   4522956.2939   6   5   0.1428   0.1827   0.2372   0.0053  -0.1496  -0.0649   0.00    0.0
2020/10/22 07:56:28.000   1112776.8121  -4341475.8014   4522956.3361   6   5   0.1428   0.1827   0.2371   0.0049  -0.1496  -0.0649   0.00    0.0
2020/10/22 07:56:29.000   1112776.8159  -4341475.8052   4522956.3331   6   5   0.1428   0.1827   0.2369   0.0046  -0.1496  -0.0650   0.00    0.0
2020/10/22 07:56:30.000   1112776.8158  -4341475.8019   4522956.3286   6   5   0.1428   0.1827   0.2368   0.0043  -0.1497  -0.0650   0.00    0.0
2020/10/22 07:56:31.000   1112776.8255  -4341475.8143   4522956.3402   6   5   0.1428   0.1827   0.2366   0.0039  -0.1497  -0.0650   0.00    0.0
2020/10/22 07:56:32.000   1112776.9105  -4341475.7905   4522956.2979   6   5   0.1428   0.1827   0.2364   0.0034  -0.1497  -0.0650   0.00    0.0
2020/10/22 07:56:33.000   1112776.9157  -4341475.7915   4522956.2857   6   5   0.1428   0.1827   0.2363   0.0029  -0.1497  -0.0650   0.00    0.0
2020/10/22 07:56:34.000   1112776.9105  -4341475.7953   4522956.3047   6   5   0.1428   0.1827   0.2361   0.0023  -0.1497  -0.0650   0.00    0.0
2020/10/22 07:56:35.000   1112776.9165  -4341475.7919   4522956.3054   6   5   0.1428   0.1827   0.2360   0.0015  -0.1497  -0.0650   0.00    0.0
2020/10/22 07:56:36.000   1112776.9143  -4341475.7996   4522956.3054   6   5   0.1428   0.1827   0.2359  -0.0009  -0.1498  -0.0650   0.00    0.0
2020/10/22 07:56:37.000   1112776.9213  -4341475.8194   4522956.3249   6   5   0.1428   0.1827   0.2357  -0.0020  -0.1498  -0.0650   0.00    0.0
2020/10/22 07:56:38.000   1112776.9183  -4341475.8130   4522956.3198   6   5   0.1428   0.1827   0.2356  -0.0027  -0.1498  -0.0650   0.00    0.0
2020/10/22 07:56:39.000   1112776.9221  -4341475.8098   4522956.3240   6   5   0.1428   0.1826   0.2354  -0.0032  -0.1498  -0.0651   0.00    0.0
2020/10/22 07:56:40.000   1112776.9294  -4341475.8011   4522956.3245   6   5   0.1428   0.1826   0.2353  -0.0036  -0.1498  -0.0651   0.00    0.0
2020/10/22 07:56:41.000   1112776.9368  -4341475.8072   4522956.3309   6   5   0.1428   0.1826   0.2352  -0.0040  -0.1498  -0.0651   0.00    0.0
2020/10/22 07:56:42.000   1112776.9317  -4341475.7986   4522956.3358   6   5   0.1428   0.1826   0.2350  -0.0044  -0.1499  -0.0651   0.00    0.0
2020/10/22 07:56:43.000   1112776.9417  -4341475.8120   4522956.3507   6   5   0.1428   0.1826   0.2349  -0.0048  -0.1499  -0.0651   0.00    0.0
2020/10/22 07:56:44.000   1112776.9496  -4341475.7976   4522956.3374   6   5   0.1428   0.1826   0.2348  -0.0051  -0.1499  -0.0651   0.00    0.0
2020/10/22 07:56:45.000   1112776.9452  -4341475.8001   4522956.3490   6   5   0.1428   0.1826   0.2346  -0.0054  -0.1499  -0.0651   0.00    0.0
2020/10/22 07:56:46.000   1112776.9489  -4341475.8088   4522956.3540   6   5   0.1428   0.1826   0.2345  -0.0056  -0.1499  -0.0651   0.00    0.0
2020/10/22 07:56:47.000   1112776.9654  -4341475.7923   4522956.3399   6   5   0.1428   0.1826   0.2344  -0.0059  -0.1499  -0.0651   0.00    0.0
2020/10/22 07:56:48.000   1112776.9655  -4341475.7858   4522956.3446   6   5   0.1428   0.1826   0.2343  -0.0062  -0.1499  -0.0651   0.00    0.0
2020/10/22 07:56:49.000   1112776.9707  -4341475.7923   4522956.3409   6   5   0.1428   0.1826   0.2342  -0.0064  -0.1499  -0.0651   0.00    0.0
2020/10/22 07:56:50.000   1112776.9685  -4341475.7891   4522956.3486   6   5   0.1428   0.1826   0.2340  -0.0066  -0.1500  -0.0651   0.00    0.0
2020/10/22 07:56:51.000   1112776.9698  -4341475.7946   4522956.3611   6   5   0.1428   0.1826   0.2339  -0.0069  -0.1500  -0.0651   0.00    0.0
2020/10/22 07:56:52.000   1112776.9690  -4341475.7609   4522956.3385   6   5   0.1428   0.1826   0.2338  -0.0071  -0.1500  -0.0651   0.00    0.0
2020/10/22 07:56:53.000   1112776.9740  -4341475.7665   4522956.3463   6   5   0.1428   0.1826   0.2337  -0.0073  -0.1500  -0.0652   0.00    0.0
2020/10/22 07:56:54.000   1112776.9803  -4341475.7543   4522956.3338   6   5   0.1428   0.1825   0.2336  -0.0075  -0.1500  -0.0652   0.00    0.0
2020/10/22 07:56:55.000   1112776.9841  -4341475.7641   4522956.3561   6   5   0.1428   0.1825   0.2335  -0.0077  -0.1500  -0.0652   0.00    0.0
2020/10/22 07:56:56.000   1112776.9745  -4341475.7567   4522956.3458   6   5   0.1428   0.1825   0.2333  -0.0079  -0.1500  -0.0652   0.00    0.0
2020/10/22 07:56:57.000   1112776.9628  -4341475.7427   4522956.3505   6   5   0.1428   0.1825   0.2332  -0.0081  -0.1500  -0.0652   0.00    0.0
2020/10/22 07:56:58.000   1112776.9654  -4341475.7319   4522956.3463   6   5   0.1428   0.1825   0.2331  -0.0083  -0.1500  -0.0652   0.00    0.0
2020/10/22 07:56:59.000   1112776.9744  -4341475.7244   4522956.3349   6   5   0.1428   0.1825   0.2330  -0.0084  -0.1501  -0.0652   0.00    0.0
2020/10/22 07:57:00.000   1112776.9799  -4341475.7240   4522956.3324   6   5   0.1428   0.1825   0.2329  -0.0086  -0.1501  -0.0652   0.00    0.0
2020/10/22 07:57:01.000   1112776.9822  -4341475.7260   4522956.3356   6   5   0.1428   0.1825   0.2328  -0.0088  -0.1501  -0.0652   0.00    0.0
2020/10/22 07:57:02.000   1112776.9795  -4341475.7097   4522956.3160   6   5   0.1428   0.1825   0.2327  -0.0090  -0.1501  -0.0652   0.00    0.0
2020/10/22 07:57:03.000   1112776.9780  -4341475.7127   4522956.3179   6   5   0.1428   0.1825   0.2326  -0.0091  -0.1501  -0.0652   0.00    0.0
2020/10/22 07:57:04.000   1112776.9776  -4341475.7052   4522956.3284   6   5   0.1428   0.1825   0.2325  -0.0093  -0.1501  -0.0652   0.00    0.0
2020/10/22 07:57:05.000   1112776.9750  -4341475.6951   4522956.3132   6   5   0.1427   0.1825   0.2324  -0.0095  -0.1501  -0.0652   0.00    0.0
2020/10/22 07:57:06.000   1112776.9821  -4341475.6969   4522956.3144   6   5   0.1427   0.1825   0.2323  -0.0096  -0.1501  -0.0652   0.00    0.0
2020/10/22 07:57:07.000   1112776.9663  -4341475.6921   4522956.3180   6   5   0.1427   0.1825   0.2322  -0.0098  -0.1501  -0.0652   0.00    0.0
2020/10/22 07:57:08.000   1112776.9813  -4341475.6974   4522956.3123   6   5   0.1427   0.1825   0.2321  -0.0099  -0.1501  -0.0652   0.00    0.0
2020/10/22 07:57:09.000   1112776.9726  -4341475.6991   4522956.3219   6   5   0.1427   0.1824   0.2320  -0.0101  -0.1502  -0.0652   0.00    0.0
2020/10/22 07:57:10.000   1112776.9724  -4341475.6970   4522956.3180   6   5   0.1427   0.1824   0.2319  -0.0102  -0.1502  -0.0652   0.00    0.0
2020/10/22 07:57:11.000   1112776.9687  -4341475.7038   4522956.3205   6   5   0.1427   0.1824   0.2318  -0.0104  -0.1502  -0.0652   0.00    0.0
2020/10/22 07:57:12.000   1112776.9658  -4341475.7028   4522956.3208   6   5   0.1427   0.1824   0.2317  -0.0105  -0.1502  -0.0652   0.00    0.0
2020/10/22 07:57:13.000   1112776.9571  -4341475.6974   4522956.3233   6   5   0.1427   0.1824   0.2317  -0.0106  -0.1502  -0.0653   0.00    0.0
2020/10/22 07:57:14.000   1112776.9676  -4341475.7007   4522956.3336   6   5   0.1427   0.1824   0.2316  -0.0108  -0.1502  -0.0653   0.00    0.0
2020/10/22 07:57:15.000   1112776.9558  -4341475.6974   4522956.3364   6   5   0.1427   0.1824   0.2315  -0.0109  -0.1502  -0.0653   0.00    0.0
2020/10/22 07:57:16.000   1112776.9511  -4341475.6925   4522956.3360   6   5   0.1427   0.1824   0.2314  -0.0111  -0.1502  -0.0653   0.00    0.0
2020/10/22 07:57:17.000   1112776.8909  -4341475.6699   4522956.3422   6   5   0.1427   0.1824   0.2313  -0.0112  -0.1502  -0.0653   0.00    0.0
2020/10/22 07:57:18.000   1112776.8927  -4341475.6745   4522956.3503   6   5   0.1427   0.1824   0.2312  -0.0113  -0.1502  -0.0653   0.00    0.0
2020/10/22 07:57:19.000   1112776.8848  -4341475.6847   4522956.3495   6   5   0.1427   0.1824   0.2311  -0.0114  -0.1502  -0.0653   0.00    0.0
2020/10/22 07:57:20.000   1112776.8781  -4341475.6731   4522956.3535   6   5   0.1427   0.1824   0.2310  -0.0116  -0.1502  -0.0653   0.00    0.0
2020/10/22 07:57:21.000   1112776.8742  -4341475.6630   4522956.3360   6   5   0.1427   0.1824   0.2310  -0.0117  -0.1502  -0.0653   0.00    0.0
2020/10/22 07:57:22.000   1112776.9124  -4341475.6995   4522956.3403   6   5   0.1427   0.1824   0.2309  -0.0118  -0.1502  -0.0653   0.00    0.0
2020/10/22 07:57:23.000   1112776.9073  -4341475.7177   4522956.3528   6   5   0.1427   0.1824   0.2308  -0.0119  -0.1503  -0.0653   0.00    0.0
2020/10/22 07:57:24.000   1112776.9121  -4341475.7007   4522956.3224   6   5   0.1427   0.1824   0.2307  -0.0121  -0.1503  -0.0653   0.00    0.0
2020/10/22 07:57:25.000   1112776.9046  -4341475.7129   4522956.3432   6   5   0.1427   0.1824   0.2306  -0.0122  -0.1503  -0.0653   0.00    0.0
2020/10/22 07:57:26.000   1112776.8942  -4341475.7228   4522956.3398   6   5   0.1427   0.1823   0.2306  -0.0123  -0.1503  -0.0653   0.00    0.0
2020/10/22 07:57:27.000   1112776.8977  -4341475.7232   4522956.3436   6   5   0.1427   0.1823   0.2305  -0.0124  -0.1503  -0.0653   0.00    0.0
2020/10/22 07:57:28.000   1112776.8902  -4341475.7204   4522956.3490   6   5   0.1427   0.1823   0.2304  -0.0125  -0.1503  -0.0653   0.00    0.0
2020/10/22 07:57:29.000   1112776.8911  -4341475.7343   4522956.3555   6   5   0.1427   0.1823   0.2303  -0.0127  -0.1503  -0.0653   0.00    0.0
2020/10/22 07:57:30.000   1112776.8845  -4341475.7358   4522956.3599   6   5   0.1427   0.1823   0.2302  -0.0128  -0.1503  -0.0653   0.00    0.0
2020/10/22 07:57:31.000   1112776.8865  -4341475.7217   4522956.3499   6   5   0.1427   0.1823   0.2302  -0.0129  -0.1503  -0.0653   0.00    0.0
2020/10/22 07:57:32.000   1112776.8375  -4341475.7169   4522956.3611   6   5   0.1427   0.1823   0.2301  -0.0130  -0.1503  -0.0653   0.00    0.0
2020/10/22 07:57:33.000   1112776.8319  -4341475.7192   4522956.3685   6   5   0.1427   0.1823   0.2300  -0.0131  -0.1503  -0.0653   0.00    0.0
2020/10/22 07:57:34.000   1112776.8374  -4341475.7095   4522956.3570   6   5   0.1427   0.1823   0.2299  -0.0132  -0.1503  -0.0653   0.00    0.0
2020/10/22 07:57:35.000   1112776.8365  -4341475.7193   4522956.3557   6   5   0.1427   0.1823   0.2299  -0.0133  -0.1503  -0.0653   0.00    0.0
2020/10/22 07:57:36.000   1112776.8235  -4341475.7206   4522956.3606   6   5   0.1427   0.1823   0.2298  -0.0134  -0.1503  -0.0653   0.00    0.0
2020/10/22 07:57:37.000   1112776.8407  -4341475.7071   4522956.3525   6   5   0.1427   0.1823   0.2297  -0.0135  -0.1503  -0.0653   0.00    0.0
2020/10/22 07:57:38.000   1112776.8120  -4341475.7793   4522956.3987   6   5   0.1427   0.1823   0.2297  -0.0136  -0.1503  -0.0653   0.00    0.0
2020/10/22 07:57:39.000   1112776.8145  -4341475.7649   4522956.3781   6   5   0.1427   0.1823   0.2296  -0.0138  -0.1503  -0.0653   0.00    0.0
2020/10/22 07:57:40.000   1112776.8013  -4341475.7759   4522956.3924   6   5   0.1427   0.1823   0.2295  -0.0139  -0.1503  -0.0653   0.00    0.0
2020/10/22 07:57:41.000   1112776.8140  -4341475.7806   4522956.3767   6   5   0.1427   0.1823   0.2294  -0.0140  -0.1503  -0.0653   0.00    0.0
2020/10/22 07:57:42.000   1112776.8405  -4341475.7281   4522956.3394   6   5   0.1427   0.1823   0.2294  -0.0141  -0.1503  -0.0653   0.00    0.0
2020/10/22 07:57:43.000   1112776.8432  -4341475.7250   4522956.3391   6   5   0.1427   0.1822   0.2293  -0.0142  -0.1503  -0.0653   0.00    0.0
2020/10/22 07:57:44.000   1112776.8354  -4341475.7223   4522956.3344   6   5   0.1427   0.1822   0.2292  -0.0143  -0.1504  -0.0653   0.00    0.0
2020/10/22 07:57:45.000   1112776.8297  -4341475.7257   4522956.3408   6   5   0.1427   0.1822   0.2292  -0.0144  -0.1504  -0.0653   0.00    0.0
2020/10/22 07:57:46.000   1112776.8283  -4341475.7127   4522956.3324   6   5   0.1427   0.1822   0.2291  -0.0145  -0.1504  -0.0653   0.00    0.0
2020/10/22 07:57:47.000   1112776.8382  -4341475.7286   4522956.3349   6   5   0.1427   0.1822   0.2290  -0.0146  -0.1504  -0.0653   0.00    0.0
2020/10/22 07:57:48.000   1112776.8354  -4341475.7197   4522956.3220   6   5   0.1427   0.1822   0.2290  -0.0147  -0.1504  -0.0653   0.00    0.0
2020/10/22 07:57:49.000   1112776.8354  -4341475.7229   4522956.3300   6   5   0.1427   0.1822   0.2289  -0.0148  -0.1504  -0.0653   0.00    0.0
2020/10/22 07:57:50.000   1112776.8430  -4341475.7235   4522956.3300   6   5   0.1427   0.1822   0.2288  -0.0148  -0.1504  -0.0653   0.00    0.0
2020/10/22 07:57:51.000   1112776.8448  -4341475.7293   4522956.3259   6   5   0.1427   0.1822   0.2288  -0.0149  -0.1504  -0.0653   0.00    0.0
2020/10/22 07:57:52.000   1112776.8420  -4341475.7286   4522956.3302   6   5   0.1427   0.1822   0.2287  -0.0150  -0.1504  -0.0653   0.00    0.0
2020/10/22 07:57:53.000   1112776.8495  -4341475.7377   4522956.3318   6   5   0.1427   0.1822   0.2287  -0.0151  -0.1504  -0.0653   0.00    0.0
2020/10/22 07:57:54.000   1112776.8508  -4341475.7303   4522956.3219   6   5   0.1427   0.1822   0.2286  -0.0152  -0.1504  -0.0653   0.00    0.0
2020/10/22 07:57:55.000   1112776.8499  -4341475.7438   4522956.3321   6   5   0.1427   0.1822   0.2285  -0.0153  -0.1504  -0.0653   0.00    0.0
2020/10/22 07:57:56.000   1112776.8460  -4341475.7324   4522956.3329   6   5   0.1427   0.1822   0.2285  -0.0154  -0.1504  -0.0653   0.00    0.0
2020/10/22 07:57:57.000   1112776.8912  -4341475.7541   4522956.3231   6   5   0.1427   0.1822   0.2284  -0.0155  -0.1504  -0.0653   0.00    0.0
2020/10/22 07:57:58.000   1112776.8894  -4341475.7491   4522956.3229   6   5   0.1427   0.1822   0.2284  -0.0156  -0.1504  -0.0653   0.00    0.0
2020/10/22 07:57:59.000   1112776.8823  -4341475.7492   4522956.3230   6   5   0.1426   0.1822   0.2283  -0.0157  -0.1504  -0.0653   0.00    0.0
2020/10/22 07:58:00.000   1112776.8894  -4341475.7406   4522956.3115   6   5   0.1426   0.1822   0.2282  -0.0158  -0.1504  -0.0653   0.00    0.0
2020/10/22 07:58:01.000   1112776.8900  -4341475.7364   4522956.3132   6   5   0.1426   0.1821   0.2282  -0.0159  -0.1504  -0.0653   0.00    0.0
2020/10/22 07:58:02.000   1112776.9016  -4341475.7428   4522956.3059   6   5   0.1426   0.1821   0.2281  -0.0159  -0.1504  -0.0653   0.00    0.0
2020/10/22 07:58:03.000   1112776.9011  -4341475.7457   4522956.3185   6   5   0.1426   0.1821   0.2281  -0.0160  -0.1504  -0.0653   0.00    0.0
2020/10/22 07:58:04.000   1112776.8981  -4341475.7538   4522956.3331   6   5   0.1426   0.1821   0.2280  -0.0161  -0.1504  -0.0653   0.00    0.0
2020/10/22 07:58:05.000   1112776.9053  -4341475.7439   4522956.3126   6   5   0.1426   0.1821   0.2279  -0.0162  -0.1504  -0.0653   0.00    0.0
2020/10/22 07:58:06.000   1112776.9087  -4341475.7454   4522956.3200   6   5   0.1426   0.1821   0.2279  -0.0163  -0.1504  -0.0653   0.00    0.0
2020/10/22 07:58:07.000   1112776.9067  -4341475.7592   4522956.3486   6   5   0.1426   0.1821   0.2278  -0.0164  -0.1504  -0.0653   0.00    0.0
2020/10/22 07:58:08.000   1112776.9185  -4341475.7532   4522956.3311   6   5   0.1426   0.1821   0.2278  -0.0165  -0.1504  -0.0653   0.00    0.0
2020/10/22 07:58:09.000   1112776.9187  -4341475.7545   4522956.3401   6   5   0.1426   0.1821   0.2277  -0.0165  -0.1504  -0.0653   0.00    0.0
2020/10/22 07:58:10.000   1112776.9220  -4341475.7634   4522956.3521   6   5   0.1426   0.1821   0.2277  -0.0166  -0.1504  -0.0653   0.00    0.0
2020/10/22 07:58:11.000   1112776.9140  -4341475.7652   4522956.3598   6   5   0.1426   0.1821   0.2276  -0.0167  -0.1504  -0.0653   0.00    0.0
2020/10/22 07:58:12.000   1112776.8986  -4341475.7052   4522956.4075   6   5   0.1426   0.1821   0.2276  -0.0168  -0.1504  -0.0653   0.00    0.0
2020/10/22 07:58:13.000   1112776.9011  -4341475.7160   4522956.4156   6   5   0.1426   0.1821   0.2275  -0.0169  -0.1504  -0.0653   0.00    0.0
2020/10/22 07:58:14.000   1112776.8896  -4341475.7200   4522956.4280   6   5   0.1426   0.1821   0.2274  -0.0170  -0.1504  -0.0653   0.00    0.0
2020/10/22 07:58:15.000   1112776.8915  -4341475.7219   4522956.4384   6   5   0.1426   0.1821   0.2274  -0.0170  -0.1504  -0.0653   0.00    0.0
2020/10/22 07:58:16.000   1112776.8981  -4341475.7157   4522956.4324   6   5   0.1426   0.1821   0.2273  -0.0171  -0.1504  -0.0653   0.00    0.0
2020/10/22 07:58:17.000   1112776.8914  -4341475.7232   4522956.4449   6   5   0.1426   0.1821   0.2273  -0.0172  -0.1504  -0.0653   0.00    0.0
2020/10/22 07:58:18.000   1112776.8966  -4341475.7289   4522956.4558   6   5   0.1426   0.1821   0.2272  -0.0173  -0.1504  -0.0653   0.00    0.0
2020/10/22 07:58:19.000   1112776.9014  -4341475.7273   4522956.4451   6   5   0.1426   0.1820   0.2272  -0.0174  -0.1504  -0.0653   0.00    0.0
2020/10/22 07:58:20.000   1112776.8964  -4341475.7292   4522956.4512   6   5   0.1426   0.1820   0.2271  -0.0174  -0.1504  -0.0653   0.00    0.0
2020/10/22 07:58:21.000   1112776.9037  -4341475.7346   4522956.4478   6   5   0.1426   0.1820   0.2271  -0.0175  -0.1504  -0.0653   0.00    0.0
2020/10/22 07:58:22.000   1112776.9052  -4341475.7621   4522956.3966   6   5   0.1426   0.1820   0.2270  -0.0176  -0.1504  -0.0653   0.00    0.0
2020/10/22 07:58:23.000   1112776.8965  -4341475.7585   4522956.3943   6   5   0.1426   0.1820   0.2270  -0.0177  -0.1505  -0.0653   0.00    0.0
2020/10/22 07:58:24.000   1112776.8984  -4341475.7536   4522956.3983   6   5   0.1426   0.1820   0.2269  -0.0178  -0.1505  -0.0653   0.00    0.0
2020/10/22 07:58:25.000   1112776.9010  -4341475.7591   4522956.4063   6   5   0.1426   0.1820   0.2269  -0.0178  -0.1505  -0.0653   0.00    0.0
2020/10/22 07:58:26.000   1112776.8959  -4341475.7617   4522956.4009   6   5   0.1426   0.1820   0.2268  -0.0179  -0.1505  -0.0653   0.00    0.0
2020/10/22 07:58:27.000   1112776.8980  -4341475.7552   4522956.3964   6   5   0.1426   0.1820   0.2268  -0.0180  -0.1505  -0.0653   0.00    0.0
2020/10/22 07:58:28.000   1112776.8985  -4341475.7500   4522956.3982   6   5   0.1426   0.1820   0.2267  -0.0181  -0.1505  -0.0653   0.00    0.0
2020/10/22 07:58:29.000   1112776.9002  -4341475.7496   4522956.3959   6   5   0.1426   0.1820   0.2267  -0.0181  -0.1505  -0.0653   0.00    0.0
2020/10/22 07:58:30.000   1112776.9031  -4341475.7536   4522956.3928   6   5   0.1426   0.1820   0.2266  -0.0182  -0.1505  -0.0653   0.00    0.0
2020/10/22 07:58:31.000   1112776.8965  -4341475.7556   4522956.3974   6   5   0.1426   0.1820   0.2266  -0.0183  -0.1505  -0.0653   0.00    0.0
2020/10/22 07:58:32.000   1112776.8959  -4341475.7566   4522956.3967   6   5   0.1426   0.1820   0.2265  -0.0184  -0.1505  -0.0653   0.00    0.0
2020/10/22 07:58:33.000   1112776.9092  -4341475.7539   4522956.3914   6   5   0.1426   0.1820   0.2265  -0.0184  -0.1505  -0.0653   0.00    0.0
2020/10/22 07:58:34.000   1112776.9068  -4341475.7391   4522956.3779   6   5   0.1426   0.1820   0.2265  -0.0185  -0.1505  -0.0653   0.00    0.0
2020/10/22 07:58:35.000   1112776.9088  -4341475.7319   4522956.3826   6   5   0.1426   0.1820   0.2264  -0.0186  -0.1505  -0.0653   0.00    0.0
2020/10/22 07:58:36.000   1112776.8984  -4341475.7381   4522956.3844   6   5   0.1426   0.1820   0.2264  -0.0187  -0.1505  -0.0653   0.00    0.0
2020/10/22 07:58:37.000   1112776.9357  -4341475.7615   4522956.3769   6   5   0.1426   0.1820   0.2263  -0.0187  -0.1505  -0.0653   0.00    0.0
2020/10/22 07:58:38.000   1112776.9345  -4341475.7467   4522956.3709   6   5   0.1426   0.1819   0.2263  -0.0188  -0.1505  -0.0653   0.00    0.0
2020/10/22 07:58:39.000   1112776.9283  -4341475.7450   4522956.3735   6   5   0.1426   0.1819   0.2262  -0.0189  -0.1505  -0.0653   0.00    0.0
2020/10/22 07:58:40.000   1112776.9416  -4341475.7496   4522956.3671   6   5   0.1426   0.1819   0.2262  -0.0189  -0.1505  -0.0653   0.00    0.0
2020/10/22 07:58:41.000   1112776.9360  -4341475.7309   4522956.3571   6   5   0.1426   0.1819   0.2261  -0.0190  -0.1505  -0.0653   0.00    0.0
2020/10/22 07:58:42.000   1112776.9401  -4341475.7232   4522956.3473   6   5   0.1426   0.1819   0.2261  -0.0191  -0.1505  -0.0653   0.00    0.0
2020/10/22 07:58:43.000   1112776.9389  -4341475.7268   4522956.3571   6   5   0.1426   0.1819   0.2260  -0.0192  -0.1505  -0.0653   0.00    0.0
2020/10/22 07:58:44.000   1112776.9357  -4341475.7336   4522956.3622   6   5   0.1426   0.1819   0.2260  -0.0192  -0.1505  -0.0653   0.00    0.0
2020/10/22 07:58:45.000   1112776.9347  -4341475.7259   4522956.3559   6   5   0.1426   0.1819   0.2260  -0.0193  -0.1505  -0.0653   0.00    0.0
2020/10/22 07:58:46.000   1112776.9297  -4341475.7285   4522956.3585   6   5   0.1426   0.1819   0.2259  -0.0194  -0.1505  -0.0653   0.00    0.0
2020/10/22 07:58:47.000   1112776.9382  -4341475.7328   4522956.3685   6   5   0.1426   0.1819   0.2259  -0.0194  -0.1505  -0.0653   0.00    0.0
2020/10/22 07:58:48.000   1112776.9413  -4341475.7233   4522956.3578   6   5   0.1426   0.1819   0.2258  -0.0195  -0.1505  -0.0653   0.00    0.0
2020/10/22 07:58:49.000   1112776.9406  -4341475.7243   4522956.3549   6   5   0.1426   0.1819   0.2258  -0.0196  -0.1505  -0.0653   0.00    0.0
2020/10/22 07:58:50.000   1112776.9464  -4341475.7163   4522956.3560   6   5   0.1426   0.1819   0.2257  -0.0196  -0.1505  -0.0653   0.00    0.0
2020/10/22 07:58:51.000   1112776.9373  -4341475.7250   4522956.3733   6   5   0.1426   0.1819   0.2257  -0.0197  -0.1505  -0.0653   0.00    0.0
2020/10/22 07:58:52.000   1112776.9302  -4341475.7125   4522956.3702   6   5   0.1425   0.1819   0.2257  -0.0198  -0.1505  -0.0653   0.00    0.0
2020/10/22 07:58:53.000   1112776.9270  -4341475.7189   4522956.3708   6   5   0.1425   0.1819   0.2256  -0.0198  -0.1505  -0.0653   0.00    0.0
2020/10/22 07:58:54.000   1112776.9250  -4341475.7144   4522956.3681   6   5   0.1425   0.1819   0.2256  -0.0199  -0.1505  -0.0653   0.00    0.0
2020/10/22 07:58:55.000   1112776.9249  -4341475.7048   4522956.3671   6   5   0.1425   0.1819   0.2255  -0.0200  -0.1505  -0.0653   0.00    0.0
2020/10/22 07:58:56.000   1112776.9284  -4341475.7176   4522956.3734   6   5   0.1425   0.1819   0.2255  -0.0200  -0.1505  -0.0653   0.00    0.0
2020/10/22 07:58:57.000   1112776.9263  -4341475.7165   4522956.3715   6   5   0.1425   0.1818   0.2255  -0.0201  -0.1505  -0.0653   0.00    0.0
2020/10/22 07:58:58.000   1112776.9336  -4341475.7079   4522956.3525   6   5   0.1425   0.1818   0.2254  -0.0202  -0.1505  -0.0653   0.00    0.0
2020/10/22 07:58:59.000   1112776.9316  -4341475.7053   4522956.3630   6   5   0.1425   0.1818   0.2254  -0.0202  -0.1505  -0.0653   0.00    0.0
2020/10/22 07:59:00.000   1112776.9319  -4341475.7100   4522956.3567   6   5   0.1425   0.1818   0.2253  -0.0203  -0.1505  -0.0653   0.00    0.0
2020/10/22 07:59:01.000   1112776.9442  -4341475.7114   4522956.3621   6   5   0.1425   0.1818   0.2253  -0.0204  -0.1505  -0.0653   0.00    0.0
2020/10/22 07:59:02.000   1112776.9493  -4341475.7262   4522956.3690   6   5   0.1425   0.1818   0.2253  -0.0204  -0.1505  -0.0653   0.00    0.0
2020/10/22 07:59:03.000   1112776.9545  -4341475.7176   4522956.3575   6   5   0.1425   0.1818   0.2252  -0.0205  -0.1505  -0.0653   0.00    0.0
2020/10/22 07:59:04.000   1112776.9597  -4341475.7089   4522956.3479   6   5   0.1425   0.1818   0.2252  -0.0206  -0.1505  -0.0652   0.00    0.0
2020/10/22 07:59:05.000   1112776.9532  -4341475.7194   4522956.3583   6   5   0.1425   0.1818   0.2251  -0.0206  -0.1505  -0.0652   0.00    0.0
2020/10/22 07:59:06.000   1112776.9505  -4341475.7103   4522956.3474   6   5   0.1425   0.1818   0.2251  -0.0207  -0.1505  -0.0652   0.00    0.0
2020/10/22 07:59:07.000   1112776.9514  -4341475.7077   4522956.3433   6   5   0.1425   0.1818   0.2251  -0.0208  -0.1505  -0.0652   0.00    0.0
2020/10/22 07:59:08.000   1112776.9502  -4341475.7057   4522956.3516   6   5   0.1425   0.1818   0.2250  -0.0208  -0.1505  -0.0652   0.00    0.0
2020/10/22 07:59:09.000   1112776.9523  -4341475.7144   4522956.3546   6   5   0.1425   0.1818   0.2250  -0.0209  -0.1505  -0.0652   0.00    0.0
2020/10/22 07:59:10.000   1112776.9568  -4341475.7086   4522956.3478   6   5   0.1425   0.1818   0.2250  -0.0209  -0.1505  -0.0652   0.00    0.0
2020/10/22 07:59:11.000   1112776.9570  -4341475.7044   4522956.3434   6   5   0.1425   0.1818   0.2249  -0.0210  -0.1505  -0.0652   0.00    0.0
2020/10/22 07:59:12.000   1112776.9579  -4341475.7037   4522956.3497   6   5   0.1425   0.1818   0.2249  -0.0211  -0.1505  -0.0652   0.00    0.0
2020/10/22 07:59:13.000   1112776.9709  -4341475.7155   4522956.3543   6   5   0.1425   0.1818   0.2248  -0.0211  -0.1505  -0.0652   0.00    0.0
2020/10/22 07:59:14.000   1112776.9592  -4341475.7084   4522956.3558   6   5   0.1425   0.1818   0.2248  -0.0212  -0.1505  -0.0652   0.00    0.0
2020/10/22 07:59:15.000   1112776.9576  -4341475.7156   4522956.3665   6   5   0.1425   0.1818   0.2248  -0.0213  -0.1505  -0.0652   0.00    0.0
2020/10/22 07:59:16.000   1112776.9492  -4341475.7109   4522956.3653   6   5   0.1425   0.1818   0.2247  -0.0213  -0.1505  -0.0652   0.00    0.0
2020/10/22 07:59:17.000   1112776.9540  -4341475.7064   4522956.3652   6   5   0.1425   0.1817   0.2247  -0.0214  -0.1505  -0.0652   0.00    0.0
2020/10/22 07:59:18.000   1112776.9497  -4341475.7203   4522956.3777   6   5   0.1425   0.1817   0.2247  -0.0214  -0.1505  -0.0652   0.00    0.0
2020/10/22 07:59:19.000   1112776.9430  -4341475.6985   4522956.3662   6   5   0.1425   0.1817   0.2246  -0.0215  -0.1505  -0.0652   0.00    0.0
2020/10/22 07:59:20.000   1112776.9430  -4341475.7169   4522956.3786   6   5   0.1425   0.1817   0.2246  -0.0216  -0.1505  -0.0652   0.00    0.0
2020/10/22 07:59:21.000   1112776.9416  -4341475.7200   4522956.3785   6   5   0.1425   0.1817   0.2246  -0.0216  -0.1505  -0.0652   0.00    0.0
2020/10/22 07:59:22.000   1112776.9444  -4341475.7379   4522956.3913   6   5   0.1425   0.1817   0.2245  -0.0217  -0.1505  -0.0652   0.00    0.0
2020/10/22 07:59:23.000   1112776.9490  -4341475.7213   4522956.3791   6   5   0.1425   0.1817   0.2245  -0.0217  -0.1505  -0.0652   0.00    0.0
2020/10/22 07:59:24.000   1112776.9432  -4341475.7298   4522956.3945   6   5   0.1425   0.1817   0.2244  -0.0218  -0.1505  -0.0652   0.00    0.0
2020/10/22 07:59:25.000   1112776.9405  -4341475.7413   4522956.4034   6   5   0.1425   0.1817   0.2244  -0.0219  -0.1505  -0.0652   0.00    0.0
2020/10/22 07:59:26.000   1112776.9470  -4341475.7297   4522956.4042   6   5   0.1425   0.1817   0.2244  -0.0219  -0.1505  -0.0652   0.00    0.0
2020/10/22 07:59:27.000   1112776.9307  -4341475.7153   4522956.4019   6   5   0.1425   0.1817   0.2243  -0.0220  -0.1505  -0.0652   0.00    0.0
2020/10/22 07:59:28.000   1112776.9366  -4341475.7392   4522956.4029   6   5   0.1425   0.1817   0.2243  -0.0220  -0.1505  -0.0652   0.00    0.0
2020/10/22 07:59:29.000   1112776.9382  -4341475.7322   4522956.4076   6   5   0.1425   0.1817   0.2243  -0.0221  -0.1505  -0.0652   0.00    0.0
2020/10/22 07:59:30.000   1112776.9455  -4341475.7352   4522956.4104   6   5   0.1425   0.1817   0.2242  -0.0222  -0.1505  -0.0652   0.00    0.0
2020/10/22 07:59:31.000   1112776.9578  -4341475.7453   4522956.4186   6   5   0.1425   0.1817   0.2242  -0.0222  -0.1505  -0.0652   0.00    0.0
