%  GPST                      x-ecef(m)      y-ecef(m)      z-ecef(m)   Q  ns   sdx(m)   sdy(m)   sdz(m)  sdxy(m)  sdyz(m)  sdzx(m) age(s)  ratio
2020/10/22 09:05:34.000   1112776.9459  -4341475.9071   4522955.8833   6   8   0.0001   0.0001   0.0001  -0.0000  -0.0000   0.0000   0.00    0.0
2020/10/22 09:05:35.000   1112776.9459  -4341475.9071   4522955.8833   6   8   0.0001   0.0001   0.0001  -0.0000  -0.0000  -0.0000   0.00    0.0
2020/10/22 09:05:36.000   1112776.9459  -4341475.9071   4522955.8833   6   8   0.0001   0.0001   0.0001  -0.0000  -0.0000  -0.0000   0.00    0.0
2020/10/22 09:05:37.000   1112776.9459  -4341475.9071   4522955.8833   6   8   0.0001   0.0001   0.0001  -0.0000  -0.0000  -0.0000   0.00    0.0
2020/10/22 09:05:38.000   1112776.9459  -4341475.9071   4522955.8833   6   8   0.0001   0.0001   0.0001  -0.0000  -0.0000  -0.0000   0.00    0.0
2020/10/22 09:05:39.000   1112776.9459  -4341475.9071   4522955.8833   6   8   0.0001   0.0001   0.0001  -0.0000  -0.0000  -0.0000   0.00    0.0
2020/10/22 09:05:40.000   1112776.9459  -4341475.9071   4522955.8833   6   8   0.0001   0.0001   0.0001  -0.0000  -0.0000  -0.0000   0.00    0.0
2020/10/22 09:05:41.000   1112776.9459  -4341475.9071   4522955.8833   6   8   0.0001   0.0001   0.0001  -0.0000  -0.0000  -0.0000   0.00    0.0
2020/10/22 09:05:42.000   1112776.9459  -4341475.9071   4522955.8833   6   8   0.0001   0.0001   0.0001  -0.0000  -0.0000  -0.0000   0.00    0.0
2020/10/22 09:05:43.000   1112776.9459  -4341475.9071   4522955.8833   6   8   0.0001   0.0001   0.0001  -0.0000  -0.0000  -0.0000   0.00    0.0
2020/10/22 09:05:44.000   1112776.9459  -4341475.9071   4522955.8833   6   8   0.0001   0.0001   0.0001  -0.0000  -0.0000  -0.0000   0.00    0.0
2020/10/22 09:05:45.000   1112776.9459  -4341475.9071   4522955.8833   6   8   0.0001   0.0001   0.0001  -0.0000  -0.0000  -0.0000   0.00    0.0
2020/10/22 09:05:46.000   1112776.9459  -4341475.9071   4522955.8833   6   8   0.0001   0.0001   0.0001  -0.0000  -0.0000  -0.0000   0.00    0.0
2020/10/22 09:05:47.000   1112776.9459  -4341475.9071   4522955.8833   6   8   0.0001   0.0001   0.0001  -0.0000  -0.0000  -0.0000   0.00    0.0
2020/10/22 09:05:48.000   1112776.9459  -4341475.9071   4522955.8833   6   8   0.0001   0.0001   0.0001  -0.0000  -0.0000  -0.0000   0.00    0.0
2020/10/22 09:05:49.000   1112776.9459  -4341475.9071   4522955.8833   6   8   0.0001   0.0001   0.0001  -0.0000  -0.0000  -0.0000   0.00    0.0
2020/10/22 09:05:50.000   1112776.9459  -4341475.9071   4522955.8833   6   8   0.0001   0.0001   0.0001  -0.0000  -0.0000  -0.0000   0.00    0.0
2020/10/22 09:05:51.000   1112776.9459  -4341475.9071   4522955.8833   6   8   0.0001   0.0001   0.0001  -0.0000  -0.0000  -0.0000   0.00    0.0
2020/10/22 09:05:52.000   1112776.9459  -4341475.9071   4522955.8833   6   8   0.0001   0.0001   0.0001  -0.0000  -0.0000  -0.0000   0.00    0.0
2020/10/22 09:05:53.000   1112776.9459  -4341475.9071   4522955.8833   6   8   0.0001   0.0001   0.0001  -0.0000  -0.0000  -0.0000   0.00    0.0
2020/10/22 09:05:54.000   1112776.9459  -4341475.9071   4522955.8833   6   8   0.0001   0.0001   0.0001  -0.0000  -0.0000  -0.0000   0.00    0.0
2020/10/22 09:05:55.000   1112776.9459  -4341475.9071   4522955.8833   6   8   0.0001   0.0001   0.0001  -0.0000  -0.0000  -0.0000   0.00    0.0
2020/10/22 09:05:56.000   1112776.9459  -4341475.9071   4522955.8833   6   8   0.0001   0.0001   0.0001  -0.0000  -0.0000  -0.0000   0.00    0.0
2020/10/22 09:05:57.000   1112776.9459  -4341475.9071   4522955.8833   6   8   0.0001   0.0001   0.0001  -0.0000  -0.0000  -0.0000   0.00    0.0
2020/10/22 09:05:58.000   1112776.9459  -4341475.9071   4522955.8833   6   8   0.0001   0.0001   0.0001  -0.0000  -0.0000  -0.0000   0.00    0.0
2020/10/22 09:05:59.000   1112776.9459  -4341475.9071   4522955.8833   6   8   0.0001   0.0001   0.0001  -0.0000  -0.0000  -0.0000   0.00    0.0
2020/10/22 09:06:00.000   1112776.9459  -4341475.9071   4522955.8833   6   8   0.0001   0.0001   0.0001  -0.0000  -0.0000  -0.0000   0.00    0.0
2020/10/22 09:06:01.000   1112776.9459  -4341475.9071   4522955.8833   6   8   0.0001   0.0001   0.0001  -0.0000  -0.0000  -0.0000   0.00    0.0
2020/10/22 09:06:02.000   1112776.9459  -4341475.9071   4522955.8833   6   8   0.0001   0.0001   0.0001  -0.0000  -0.0000  -0.0000   0.00    0.0
2020/10/22 09:06:03.000   1112776.9459  -4341475.9071   4522955.8833   6   8   0.0001   0.0001   0.0001  -0.0000  -0.0000  -0.0000   0.00    0.0
2020/10/22 09:06:04.000   1112776.9459  -4341475.9071   4522955.8833   6   8   0.0001   0.0001   0.0001  -0.0000  -0.0000  -0.0000   0.00    0.0
2020/10/22 09:06:05.000   1112776.9459  -4341475.9071   4522955.8833   6   8   0.0001   0.0001   0.0001  -0.0000  -0.0000  -0.0000   0.00    0.0
2020/10/22 09:06:06.000   1112776.9459  -4341475.9071   4522955.8833   6   8   0.0001   0.0001   0.0001  -0.0000  -0.0000  -0.0000   0.00    0.0
2020/10/22 09:06:07.000   1112776.9183  -4341475.8872   4522955.8281   6   8   0.1129   0.1493   0.2779  -0.0871  -0.1437   0.0761   0.00    0.0
2020/10/22 09:06:08.000   1112776.9208  -4341475.8870   4522955.8073   6   8   0.1129   0.1493   0.2779  -0.0871  -0.1437   0.0761   0.00    0.0
2020/10/22 09:06:09.000   1112776.8997  -4341475.8632   4522955.7830   6   8   0.1129   0.1492   0.2779  -0.0871  -0.1436   0.0761   0.00    0.0
2020/10/22 09:06:10.000   1112776.8943  -4341475.8582   4522955.7778   6   8   0.1129   0.1492   0.2778  -0.0871  -0.1436   0.0761   0.00    0.0
2020/10/22 09:06:11.000   1112776.8969  -4341475.8563   4522955.7776   6   8   0.1129   0.1492   0.2778  -0.0871  -0.1436   0.0760   0.00    0.0
2020/10/22 09:06:12.000   1112776.8958  -4341475.8587   4522955.7621   6   8   0.1129   0.1492   0.2778  -0.0871  -0.1435   0.0760   0.00    0.0
2020/10/22 09:06:13.000   1112776.8863  -4341475.8482   4522955.7662   6   8   0.1129   0.1492   0.2777  -0.0871  -0.1435   0.0760   0.00    0.0
2020/10/22 09:06:14.000   1112776.8768  -4341475.8392   4522955.7493   6   8   0.1129   0.1492   0.2777  -0.0871  -0.1435   0.0760   0.00    0.0
2020/10/22 09:06:15.000   1112776.8757  -4341475.8355   4522955.7357   6   8   0.1129   0.1492   0.2776  -0.0871  -0.1434   0.0759   0.00    0.0
2020/10/22 09:06:16.000   1112776.8728  -4341475.8351   4522955.7473   6   8   0.1129   0.1491   0.2776  -0.0871  -0.1434   0.0759   0.00    0.0
2020/10/22 09:06:17.000   1112776.8829  -4341475.8331   4522955.7331   6   8   0.1129   0.1491   0.2776  -0.0871  -0.1434   0.0759   0.00    0.0
2020/10/22 09:06:18.000   1112776.8828  -4341475.8345   4522955.7250   6   8   0.1129   0.1491   0.2775  -0.0871  -0.1433   0.0759   0.00    0.0
2020/10/22 09:06:19.000   1112776.8866  -4341475.8378   4522955.7073   6   8   0.1129   0.1491   0.2775  -0.0871  -0.1433   0.0759   0.00    0.0
2020/10/22 09:06:20.000   1112776.8865  -4341475.8416   4522955.7161   6   8   0.1129   0.1491   0.2774  -0.0870  -0.1433   0.0758   0.00    0.0
