%  GPST                      x-ecef(m)      y-ecef(m)      z-ecef(m)   Q  ns   sdx(m)   sdy(m)   sdz(m)  sdxy(m)  sdyz(m)  sdzx(m) age(s)  ratio
2020/11/02 05:57:47.000   1112776.9459  -4341475.9071   4522955.8833   6   8   0.0001   0.0001   0.0001  -0.0000  -0.0000  -0.0000   0.00    0.0
2020/11/02 05:57:48.000   1112776.9459  -4341475.9071   4522955.8833   6   8   0.0001   0.0001   0.0001  -0.0000  -0.0000  -0.0000   0.00    0.0
2020/11/02 05:57:49.000   1112776.9459  -4341475.9071   4522955.8833   6   8   0.0001   0.0001   0.0001  -0.0000  -0.0000  -0.0000   0.00    0.0
2020/11/02 05:57:50.000   1112776.9459  -4341475.9071   4522955.8833   6   8   0.0001   0.0001   0.0001  -0.0000  -0.0000  -0.0000   0.00    0.0
2020/11/02 05:57:51.000   1112776.9459  -4341475.9071   4522955.8833   6   8   0.0001   0.0001   0.0001  -0.0000  -0.0000  -0.0000   0.00    0.0
2020/11/02 05:57:52.000   1112776.9459  -4341475.9071   4522955.8833   6   8   0.0001   0.0001   0.0001  -0.0000  -0.0000  -0.0000   0.00    0.0
2020/11/02 05:57:53.000   1112776.9459  -4341475.9071   4522955.8833   6   8   0.0001   0.0001   0.0001  -0.0000  -0.0000  -0.0000   0.00    0.0
2020/11/02 05:57:54.000   1112776.9459  -4341475.9071   4522955.8833   6   8   0.0001   0.0001   0.0001  -0.0000  -0.0000  -0.0000   0.00    0.0
2020/11/02 05:57:55.000   1112776.9459  -4341475.9071   4522955.8833   6   8   0.0001   0.0001   0.0001  -0.0000  -0.0000  -0.0000   0.00    0.0
2020/11/02 05:57:56.000   1112776.9459  -4341475.9071   4522955.8833   6   8   0.0001   0.0001   0.0001  -0.0000  -0.0000  -0.0000   0.00    0.0
2020/11/02 05:57:57.000   1112776.9459  -4341475.9071   4522955.8833   6   8   0.0001   0.0001   0.0001  -0.0000  -0.0000  -0.0000   0.00    0.0
2020/11/02 05:57:58.000   1112776.9459  -4341475.9071   4522955.8833   6   8   0.0001   0.0001   0.0001  -0.0000  -0.0000  -0.0000   0.00    0.0
2020/11/02 05:57:59.000   1112776.9459  -4341475.9071   4522955.8833   6   8   0.0001   0.0001   0.0001  -0.0000  -0.0000  -0.0000   0.00    0.0
2020/11/02 05:58:00.000   1112776.9459  -4341475.9071   4522955.8833   6   8   0.0001   0.0001   0.0001  -0.0000  -0.0000  -0.0000   0.00    0.0
2020/11/02 05:58:01.000   1112776.9459  -4341475.9071   4522955.8833   6   8   0.0001   0.0001   0.0001  -0.0000  -0.0000  -0.0000   0.00    0.0
2020/11/02 05:58:02.000   1112776.9459  -4341475.9071   4522955.8833   6   8   0.0001   0.0001   0.0001  -0.0000  -0.0000  -0.0000   0.00    0.0
2020/11/02 05:58:03.000   1112776.9459  -4341475.9071   4522955.8833   6   8   0.0001   0.0001   0.0001  -0.0000  -0.0000  -0.0000   0.00    0.0
2020/11/02 05:58:04.000   1112776.9459  -4341475.9071   4522955.8833   6   8   0.0001   0.0001   0.0001  -0.0000  -0.0000  -0.0000   0.00    0.0
2020/11/02 05:58:05.000   1112776.9459  -4341475.9071   4522955.8833   6   8   0.0001   0.0001   0.0001  -0.0000  -0.0000  -0.0000   0.00    0.0
2020/11/02 05:58:06.000   1112776.9459  -4341475.9071   4522955.8833   6   8   0.0001   0.0001   0.0001  -0.0000  -0.0000  -0.0000   0.00    0.0
2020/11/02 05:58:07.000   1112776.9459  -4341475.9071   4522955.8833   6   8   0.0001   0.0001   0.0001  -0.0000  -0.0000  -0.0000   0.00    0.0
2020/11/02 05:58:08.000   1112776.9459  -4341475.9071   4522955.8833   6   8   0.0001   0.0001   0.0001  -0.0000  -0.0000  -0.0000   0.00    0.0
2020/11/02 05:58:09.000   1112776.9459  -4341475.9071   4522955.8833   6   8   0.0001   0.0001   0.0001  -0.0000  -0.0000  -0.0000   0.00    0.0
2020/11/02 05:58:10.000   1112776.9459  -4341475.9071   4522955.8833   6   8   0.0001   0.0001   0.0001  -0.0000  -0.0000  -0.0000   0.00    0.0
2020/11/02 05:58:11.000   1112776.9459  -4341475.9071   4522955.8833   6   8   0.0001   0.0001   0.0001  -0.0000  -0.0000  -0.0000   0.00    0.0
2020/11/02 05:58:12.000   1112776.9459  -4341475.9071   4522955.8833   6   8   0.0001   0.0001   0.0001  -0.0000  -0.0000  -0.0000   0.00    0.0
2020/11/02 05:58:13.000   1112776.9459  -4341475.9071   4522955.8833   6   8   0.0001   0.0001   0.0001  -0.0000  -0.0000  -0.0000   0.00    0.0
2020/11/02 05:58:14.000   1112776.9459  -4341475.9071   4522955.8833   6   8   0.0001   0.0001   0.0001  -0.0000  -0.0000  -0.0000   0.00    0.0
2020/11/02 05:58:15.000   1112776.9459  -4341475.9071   4522955.8833   6   8   0.0001   0.0001   0.0001  -0.0000  -0.0000  -0.0000   0.00    0.0
2020/11/02 05:58:16.000   1112776.9459  -4341475.9071   4522955.8833   6   8   0.0001   0.0001   0.0001  -0.0000  -0.0000  -0.0000   0.00    0.0
2020/11/02 05:58:17.000   1112776.9459  -4341475.9071   4522955.8833   6   8   0.0001   0.0001   0.0001  -0.0000  -0.0000  -0.0000   0.00    0.0
2020/11/02 05:58:18.000   1112776.9459  -4341475.9071   4522955.8833   6   8   0.0001   0.0001   0.0001  -0.0000  -0.0000  -0.0000   0.00    0.0
2020/11/02 05:58:19.000   1112776.9509  -4341475.9598   4522955.8928   6   8   0.1061   0.1876   0.2129  -0.0714  -0.1610  -0.0269   0.00    0.0
2020/11/02 05:58:20.000   1112776.9463  -4341475.9474   4522955.8784   6   8   0.1061   0.1876   0.2128  -0.0714  -0.1610  -0.0269   0.00    0.0
2020/11/02 05:58:21.000   1112776.9416  -4341475.9457   4522955.8837   6   8   0.1061   0.1875   0.2128  -0.0715  -0.1610  -0.0269   0.00    0.0
2020/11/02 05:58:22.000   1112776.9487  -4341475.9556   4522955.8836   6   8   0.1061   0.1875   0.2127  -0.0715  -0.1609  -0.0269   0.00    0.0
2020/11/02 05:58:23.000   1112776.9411  -4341475.9529   4522955.8882   6   8   0.1061   0.1875   0.2127  -0.0715  -0.1609  -0.0269   0.00    0.0
2020/11/02 05:58:24.000   1112776.9418  -4341475.9594   4522955.9028   6   8   0.1061   0.1875   0.2126  -0.0715  -0.1609  -0.0269   0.00    0.0
2020/11/02 05:58:25.000   1112776.9388  -4341475.9608   4522955.9116   6   8   0.1061   0.1875   0.2126  -0.0715  -0.1608  -0.0269   0.00    0.0
2020/11/02 05:58:26.000   1112776.9341  -4341475.9442   4522955.9062   6   8   0.1062   0.1875   0.2126  -0.0715  -0.1608  -0.0269   0.00    0.0
2020/11/02 05:58:27.000   1112776.9394  -4341475.9438   4522955.9075   6   8   0.1062   0.1874   0.2125  -0.0715  -0.1608  -0.0269   0.00    0.0
2020/11/02 05:58:28.000   1112776.9348  -4341475.9471   4522955.9184   6   8   0.1062   0.1874   0.2125  -0.0716  -0.1607  -0.0269   0.00    0.0
2020/11/02 05:58:29.000   1112776.9315  -4341475.9444   4522955.9080   6   8   0.1062   0.1874   0.2124  -0.0716  -0.1607  -0.0269   0.00    0.0
2020/11/02 05:58:30.000   1112776.9317  -4341475.9328   4522955.9100   6   8   0.1062   0.1874   0.2124  -0.0716  -0.1607  -0.0269   0.00    0.0
2020/11/02 05:58:31.000   1112776.9275  -4341475.9467   4522955.9244   6   8   0.1062   0.1874   0.2123  -0.0716  -0.1606  -0.0269   0.00    0.0
2020/11/02 05:58:32.000   1112776.9333  -4341475.9278   4522955.9114   6   8   0.1062   0.1874   0.2123  -0.0716  -0.1606  -0.0269   0.00    0.0
2020/11/02 05:58:33.000   1112776.9312  -4341475.9207   4522955.9004   6   8   0.1062   0.1873   0.2122  -0.0716  -0.1606  -0.0269   0.00    0.0
2020/11/02 05:58:34.000   1112776.9343  -4341475.9132   4522955.8950   6   8   0.1062   0.1873   0.2122  -0.0716  -0.1605  -0.0269   0.00    0.0
2020/11/02 05:58:35.000   1112776.9334  -4341475.9086   4522955.8929   6   8   0.1062   0.1873   0.2121  -0.0717  -0.1605  -0.0269   0.00    0.0
2020/11/02 05:58:36.000   1112776.9239  -4341475.9217   4522955.9108   6   8   0.1062   0.1873   0.2121  -0.0717  -0.1605  -0.0269   0.00    0.0
2020/11/02 05:58:37.000   1112776.9286  -4341475.9273   4522955.9076   6   8   0.1062   0.1873   0.2120  -0.0717  -0.1604  -0.0269   0.00    0.0
2020/11/02 05:58:38.000   1112776.9323  -4341475.9145   4522955.8998   6   8   0.1062   0.1873   0.2120  -0.0717  -0.1604  -0.0269   0.00    0.0
2020/11/02 05:58:39.000   1112776.9345  -4341475.9198   4522955.9074   6   8   0.1062   0.1873   0.2119  -0.0717  -0.1604  -0.0269   0.00    0.0
2020/11/02 05:58:40.000   1112776.9372  -4341475.9167   4522955.9025   6   8   0.1062   0.1872   0.2119  -0.0717  -0.1603  -0.0269   0.00    0.0
2020/11/02 05:58:41.000   1112776.9280  -4341475.9213   4522955.9038   6   8   0.1063   0.1872   0.2119  -0.0718  -0.1603  -0.0269   0.00    0.0
2020/11/02 05:58:42.000   1112776.9238  -4341475.9163   4522955.9094   6   8   0.1063   0.1872   0.2118  -0.0718  -0.1603  -0.0269   0.00    0.0
2020/11/02 05:58:43.000   1112776.9172  -4341475.9004   4522955.9043   6   8   0.1063   0.1872   0.2118  -0.0718  -0.1602  -0.0269   0.00    0.0
2020/11/02 05:58:44.000   1112776.9285  -4341475.9124   4522955.9001   6   8   0.1063   0.1872   0.2117  -0.0718  -0.1602  -0.0269   0.00    0.0
2020/11/02 05:58:45.000   1112776.9245  -4341475.9095   4522955.9163   6   8   0.1063   0.1872   0.2117  -0.0718  -0.1602  -0.0269   0.00    0.0
2020/11/02 05:58:46.000   1112776.9246  -4341475.9049   4522955.9088   6   8   0.1063   0.1871   0.2116  -0.0718  -0.1601  -0.0269   0.00    0.0
2020/11/02 05:58:47.000   1112776.9210  -4341475.9020   4522955.9158   6   8   0.1063   0.1871   0.2116  -0.0718  -0.1601  -0.0269   0.00    0.0
2020/11/02 05:58:48.000   1112776.9273  -4341475.9082   4522955.9099   6   8   0.1063   0.1871   0.2115  -0.0719  -0.1601  -0.0269   0.00    0.0
2020/11/02 05:58:49.000   1112776.9319  -4341475.9060   4522955.9097   6   8   0.1063   0.1871   0.2115  -0.0719  -0.1601  -0.0269   0.00    0.0
2020/11/02 05:58:50.000   1112776.9286  -4341475.9097   4522955.9027   6   8   0.1063   0.1871   0.2114  -0.0719  -0.1600  -0.0269   0.00    0.0
2020/11/02 05:58:51.000   1112776.9338  -4341475.9135   4522955.9093   6   8   0.1063   0.1871   0.2114  -0.0719  -0.1600  -0.0269   0.00    0.0
2020/11/02 05:58:52.000   1112776.9412  -4341475.9116   4522955.9089   6   8   0.1063   0.1871   0.2113  -0.0719  -0.1600  -0.0269   0.00    0.0
2020/11/02 05:58:53.000   1112776.9374  -4341475.9181   4522955.9157   6   8   0.1063   0.1870   0.2113  -0.0719  -0.1599  -0.0269   0.00    0.0
2020/11/02 05:58:54.000   1112776.9385  -4341475.8965   4522955.8948   6   8   0.1063   0.1870   0.2113  -0.0720  -0.1599  -0.0269   0.00    0.0
2020/11/02 05:58:55.000   1112776.9357  -4341475.8978   4522955.9086   6   8   0.1064   0.1870   0.2112  -0.0720  -0.1599  -0.0269   0.00    0.0
2020/11/02 05:58:56.000   1112776.9413  -4341475.9000   4522955.9128   6   8   0.1064   0.1870   0.2112  -0.0720  -0.1598  -0.0269   0.00    0.0
2020/11/02 05:58:57.000   1112776.9408  -4341475.8955   4522955.9138   6   8   0.1064   0.1870   0.2111  -0.0720  -0.1598  -0.0269   0.00    0.0
2020/11/02 05:58:58.000   1112776.9401  -4341475.8928   4522955.9080   6   8   0.1064   0.1870   0.2111  -0.0720  -0.1598  -0.0269   0.00    0.0
2020/11/02 05:58:59.000   1112776.9305  -4341475.8977   4522955.9164   6   8   0.1064   0.1869   0.2110  -0.0720  -0.1597  -0.0269   0.00    0.0
2020/11/02 05:59:00.000   1112776.9406  -4341475.8917   4522955.9085   6   8   0.1064   0.1869   0.2110  -0.0720  -0.1597  -0.0269   0.00    0.0
2020/11/02 05:59:01.000   1112776.9344  -4341475.9028   4522955.9308   6   8   0.1064   0.1869   0.2109  -0.0721  -0.1597  -0.0269   0.00    0.0
2020/11/02 05:59:02.000   1112776.9387  -4341475.8947   4522955.9259   6   8   0.1064   0.1869   0.2109  -0.0721  -0.1596  -0.0269   0.00    0.0
2020/11/02 05:59:03.000   1112776.9456  -4341475.9056   4522955.9400   6   8   0.1064   0.1869   0.2109  -0.0721  -0.1596  -0.0269   0.00    0.0
2020/11/02 05:59:04.000   1112776.9489  -4341475.8973   4522955.9333   6   8   0.1064   0.1869   0.2108  -0.0721  -0.1596  -0.0269   0.00    0.0
2020/11/02 05:59:05.000   1112776.9540  -4341475.8911   4522955.9243   6   8   0.1064   0.1869   0.2108  -0.0721  -0.1596  -0.0269   0.00    0.0
2020/11/02 05:59:06.000   1112776.9591  -4341475.8841   4522955.9256   6   8   0.1064   0.1868   0.2107  -0.0721  -0.1595  -0.0269   0.00    0.0
2020/11/02 05:59:07.000   1112776.9566  -4341475.8860   4522955.9303   6   8   0.1064   0.1868   0.2107  -0.0722  -0.1595  -0.0269   0.00    0.0
2020/11/02 05:59:08.000   1112776.9584  -4341475.8865   4522955.9380   6   8   0.1064   0.1868   0.2106  -0.0722  -0.1595  -0.0269   0.00    0.0
2020/11/02 05:59:09.000   1112776.9547  -4341475.8774   4522955.9303   6   8   0.1065   0.1868   0.2106  -0.0722  -0.1594  -0.0269   0.00    0.0
2020/11/02 05:59:10.000   1112776.9565  -4341475.8683   4522955.9300   6   8   0.1065   0.1868   0.2105  -0.0722  -0.1594  -0.0269   0.00    0.0
2020/11/02 05:59:11.000   1112776.9655  -4341475.8716   4522955.9273   6   8   0.1065   0.1868   0.2105  -0.0722  -0.1594  -0.0269   0.00    0.0
2020/11/02 05:59:12.000   1112776.9595  -4341475.8627   4522955.9211   6   8   0.1065   0.1868   0.2104  -0.0722  -0.1593  -0.0269   0.00    0.0
2020/11/02 05:59:13.000   1112776.9569  -4341475.8707   4522955.9301   6   8   0.1065   0.1867   0.2104  -0.0723  -0.1593  -0.0269   0.00    0.0
2020/11/02 05:59:14.000   1112776.9588  -4341475.8719   4522955.9321   6   8   0.1065   0.1867   0.2104  -0.0723  -0.1593  -0.0269   0.00    0.0
2020/11/02 05:59:15.000   1112776.9650  -4341475.8803   4522955.9502   6   8   0.1065   0.1867   0.2103  -0.0723  -0.1592  -0.0269   0.00    0.0
2020/11/02 05:59:16.000   1112776.9706  -4341475.8922   4522955.9677   6   8   0.1065   0.1867   0.2103  -0.0723  -0.1592  -0.0269   0.00    0.0
2020/11/02 05:59:17.000   1112776.9745  -4341475.9107   4522955.9565   6   8   0.1065   0.1867   0.2102  -0.0723  -0.1592  -0.0269   0.00    0.0
2020/11/02 05:59:18.000   1112776.9681  -4341475.9027   4522955.9498   6   8   0.1065   0.1867   0.2102  -0.0723  -0.1592  -0.0269   0.00    0.0
2020/11/02 05:59:19.000   1112776.9747  -4341475.9011   4522955.9537   6   8   0.1065   0.1867   0.2101  -0.0723  -0.1591  -0.0269   0.00    0.0
2020/11/02 05:59:20.000   1112776.9704  -4341475.9140   4522955.9492   6   8   0.1065   0.1866   0.2101  -0.0724  -0.1591  -0.0269   0.00    0.0
2020/11/02 05:59:21.000   1112776.9712  -4341475.9201   4522955.9605   6   8   0.1065   0.1866   0.2100  -0.0724  -0.1591  -0.0268   0.00    0.0
2020/11/02 05:59:22.000   1112776.9658  -4341475.9130   4522955.9553   6   8   0.1065   0.1866   0.2100  -0.0724  -0.1590  -0.0268   0.00    0.0
2020/11/02 05:59:23.000   1112776.9721  -4341475.9268   4522955.9852   6   8   0.1065   0.1866   0.2100  -0.0724  -0.1590  -0.0268   0.00    0.0
2020/11/02 05:59:24.000   1112776.9732  -4341475.9314   4522955.9732   6   8   0.1066   0.1866   0.2099  -0.0724  -0.1590  -0.0268   0.00    0.0
2020/11/02 05:59:25.000   1112776.9726  -4341475.9263   4522955.9667   6   8   0.1066   0.1866   0.2099  -0.0724  -0.1589  -0.0268   0.00    0.0
2020/11/02 05:59:26.000   1112776.9640  -4341475.9435   4522955.9620   6   8   0.1066   0.1866   0.2098  -0.0725  -0.1589  -0.0268   0.00    0.0
2020/11/02 05:59:27.000   1112776.9604  -4341475.9353   4522955.9722   6   8   0.1066   0.1865   0.2098  -0.0725  -0.1589  -0.0268   0.00    0.0
2020/11/02 05:59:28.000   1112776.9632  -4341475.9460   4522955.9787   6   8   0.1066   0.1865   0.2097  -0.0725  -0.1589  -0.0268   0.00    0.0
2020/11/02 05:59:29.000   1112776.9671  -4341475.9501   4522955.9781   6   8   0.1066   0.1865   0.2097  -0.0725  -0.1588  -0.0268   0.00    0.0
2020/11/02 05:59:30.000   1112776.9632  -4341475.9426   4522955.9850   6   8   0.1066   0.1865   0.2097  -0.0725  -0.1588  -0.0268   0.00    0.0
2020/11/02 05:59:31.000   1112776.9619  -4341475.9552   4522955.9871   6   8   0.1066   0.1865   0.2096  -0.0725  -0.1588  -0.0268   0.00    0.0
2020/11/02 05:59:32.000   1112776.9563  -4341475.9616   4522955.9782   6   8   0.1066   0.1865   0.2096  -0.0726  -0.1587  -0.0268   0.00    0.0
2020/11/02 05:59:33.000   1112776.9572  -4341475.9496   4522955.9700   6   8   0.1066   0.1865   0.2095  -0.0726  -0.1587  -0.0268   0.00    0.0
2020/11/02 05:59:34.000   1112776.9506  -4341475.9493   4522955.9692   6   8   0.1066   0.1864   0.2095  -0.0726  -0.1587  -0.0268   0.00    0.0
2020/11/02 05:59:35.000   1112776.9555  -4341475.9557   4522955.9708   6   8   0.1066   0.1864   0.2094  -0.0726  -0.1586  -0.0268   0.00    0.0
2020/11/02 05:59:36.000   1112776.9516  -4341475.9497   4522955.9627   6   8   0.1066   0.1864   0.2094  -0.0726  -0.1586  -0.0268   0.00    0.0
2020/11/02 05:59:37.000   1112776.9479  -4341475.9411   4522955.9424   6   8   0.1067   0.1864   0.2093  -0.0726  -0.1586  -0.0268   0.00    0.0
2020/11/02 05:59:38.000   1112776.9466  -4341475.9451   4522955.9440   6   8   0.1067   0.1864   0.2093  -0.0726  -0.1586  -0.0268   0.00    0.0
2020/11/02 05:59:39.000   1112776.9520  -4341475.9345   4522955.9386   6   8   0.1067   0.1864   0.2093  -0.0727  -0.1585  -0.0268   0.00    0.0
2020/11/02 05:59:40.000   1112776.9585  -4341475.9432   4522955.9371   6   8   0.1067   0.1864   0.2092  -0.0727  -0.1585  -0.0268   0.00    0.0
2020/11/02 05:59:41.000   1112776.9593  -4341475.9270   4522955.9159   6   8   0.1067   0.1863   0.2092  -0.0727  -0.1585  -0.0268   0.00    0.0
2020/11/02 05:59:42.000   1112776.9606  -4341475.9303   4522955.9209   6   8   0.1067   0.1863   0.2091  -0.0727  -0.1584  -0.0268   0.00    0.0
2020/11/02 05:59:43.000   1112776.9662  -4341475.9374   4522955.9182   6   8   0.1067   0.1863   0.2091  -0.0727  -0.1584  -0.0268   0.00    0.0
2020/11/02 05:59:44.000   1112776.9697  -4341475.9356   4522955.9109   6   8   0.1067   0.1863   0.2090  -0.0727  -0.1584  -0.0268   0.00    0.0
2020/11/02 05:59:45.000   1112776.9702  -4341475.9322   4522955.9043   6   8   0.1067   0.1863   0.2090  -0.0728  -0.1583  -0.0268   0.00    0.0
2020/11/02 05:59:46.000   1112776.9573  -4341475.9318   4522955.9016   6   8   0.1067   0.1863   0.2090  -0.0728  -0.1583  -0.0268   0.00    0.0
2020/11/02 05:59:47.000   1112776.9633  -4341475.9092   4522955.8703   6   8   0.1067   0.1863   0.2089  -0.0728  -0.1583  -0.0268   0.00    0.0
2020/11/02 05:59:48.000   1112776.9643  -4341475.9039   4522955.8679   6   8   0.1067   0.1863   0.2089  -0.0728  -0.1583  -0.0268   0.00    0.0
2020/11/02 05:59:49.000   1112776.9655  -4341475.9019   4522955.8661   6   8   0.1067   0.1862   0.2088  -0.0728  -0.1582  -0.0268   0.00    0.0
2020/11/02 05:59:50.000   1112776.9635  -4341475.9087   4522955.8790   6   8   0.1067   0.1862   0.2088  -0.0728  -0.1582  -0.0268   0.00    0.0
2020/11/02 05:59:51.000   1112776.9677  -4341475.9111   4522955.8746   6   8   0.1068   0.1862   0.2087  -0.0729  -0.1582  -0.0268   0.00    0.0
2020/11/02 05:59:52.000   1112776.9754  -4341475.9022   4522955.8516   6   8   0.1068   0.1862   0.2087  -0.0729  -0.1581  -0.0268   0.00    0.0
2020/11/02 05:59:53.000   1112776.9778  -4341475.9011   4522955.8528   6   8   0.1068   0.1862   0.2087  -0.0729  -0.1581  -0.0268   0.00    0.0
2020/11/02 05:59:54.000   1112776.9729  -4341475.8961   4522955.8463   6   8   0.1068   0.1862   0.2086  -0.0729  -0.1581  -0.0268   0.00    0.0
2020/11/02 05:59:55.000   1112776.9732  -4341475.8850   4522955.8442   6   8   0.1068   0.1862   0.2086  -0.0729  -0.1581  -0.0268   0.00    0.0
2020/11/02 05:59:56.000   1112776.9881  -4341475.8975   4522955.8453   6   8   0.1068   0.1861   0.2085  -0.0729  -0.1580  -0.0268   0.00    0.0
2020/11/02 05:59:57.000   1112776.9855  -4341475.8908   4522955.8387   6   8   0.1068   0.1861   0.2085  -0.0730  -0.1580  -0.0268   0.00    0.0
2020/11/02 05:59:58.000   1112776.9818  -4341475.8925   4522955.8366   6   8   0.1068   0.1861   0.2084  -0.0730  -0.1580  -0.0267   0.00    0.0
2020/11/02 05:59:59.000   1112776.9816  -4341475.8855   4522955.8326   6   8   0.1068   0.1861   0.2084  -0.0730  -0.1579  -0.0267   0.00    0.0
2020/11/02 06:00:00.000   1112776.9839  -4341475.8859   4522955.8349   6   8   0.1068   0.1861   0.2084  -0.0730  -0.1579  -0.0267   0.00    0.0
2020/11/02 06:00:01.000   1112776.9753  -4341475.8668   4522955.8196   6   8   0.1068   0.1861   0.2083  -0.0730  -0.1579  -0.0267   0.00    0.0
2020/11/02 06:00:02.000   1112776.9675  -4341475.8785   4522955.8343   6   8   0.1068   0.1861   0.2083  -0.0730  -0.1579  -0.0267   0.00    0.0
2020/11/02 06:00:03.000   1112776.9676  -4341475.8717   4522955.8265   6   8   0.1068   0.1861   0.2082  -0.0730  -0.1578  -0.0267   0.00    0.0
2020/11/02 06:00:04.000   1112776.9795  -4341475.8739   4522955.8317   6   8   0.1068   0.1860   0.2082  -0.0731  -0.1578  -0.0267   0.00    0.0
2020/11/02 06:00:05.000   1112776.9753  -4341475.8685   4522955.8314   6   8   0.1069   0.1860   0.2081  -0.0731  -0.1578  -0.0267   0.00    0.0
2020/11/02 06:00:06.000   1112776.9805  -4341475.8686   4522955.8316   6   8   0.1069   0.1860   0.2081  -0.0731  -0.1577  -0.0267   0.00    0.0
2020/11/02 06:00:07.000   1112776.9723  -4341475.8712   4522955.8346   6   8   0.1069   0.1860   0.2081  -0.0731  -0.1577  -0.0267   0.00    0.0
2020/11/02 06:00:08.000   1112776.9752  -4341475.8762   4522955.8339   6   8   0.1069   0.1860   0.2080  -0.0731  -0.1577  -0.0267   0.00    0.0
2020/11/02 06:00:09.000   1112776.9718  -4341475.8664   4522955.8276   6   8   0.1069   0.1860   0.2080  -0.0731  -0.1576  -0.0267   0.00    0.0
2020/11/02 06:00:10.000   1112776.9781  -4341475.8610   4522955.8239   6   8   0.1069   0.1860   0.2079  -0.0732  -0.1576  -0.0267   0.00    0.0
2020/11/02 06:00:11.000   1112776.9700  -4341475.8686   4522955.8282   6   8   0.1069   0.1859   0.2079  -0.0732  -0.1576  -0.0267   0.00    0.0
2020/11/02 06:00:12.000   1112776.9725  -4341475.8612   4522955.8364   6   8   0.1069   0.1859   0.2078  -0.0732  -0.1576  -0.0267   0.00    0.0
2020/11/02 06:00:13.000   1112776.9658  -4341475.8714   4522955.8559   6   8   0.1069   0.1859   0.2078  -0.0732  -0.1575  -0.0267   0.00    0.0
2020/11/02 06:00:14.000   1112776.9585  -4341475.8737   4522955.8666   6   8   0.1069   0.1859   0.2078  -0.0732  -0.1575  -0.0267   0.00    0.0
2020/11/02 06:00:15.000   1112776.9610  -4341475.8663   4522955.8442   6   8   0.1069   0.1859   0.2077  -0.0732  -0.1575  -0.0267   0.00    0.0
2020/11/02 06:00:16.000   1112776.9624  -4341475.8815   4522955.8667   6   8   0.1069   0.1859   0.2077  -0.0733  -0.1574  -0.0267   0.00    0.0
2020/11/02 06:00:17.000   1112776.9582  -4341475.8808   4522955.8832   6   8   0.1069   0.1859   0.2076  -0.0733  -0.1574  -0.0267   0.00    0.0
2020/11/02 06:00:18.000   1112776.9596  -4341475.8857   4522955.8733   6   8   0.1070   0.1859   0.2076  -0.0733  -0.1574  -0.0267   0.00    0.0
2020/11/02 06:00:19.000   1112776.9610  -4341475.8822   4522955.8657   6   8   0.1070   0.1858   0.2076  -0.0733  -0.1574  -0.0267   0.00    0.0
2020/11/02 06:00:20.000   1112776.9650  -4341475.8855   4522955.8694   6   8   0.1070   0.1858   0.2075  -0.0733  -0.1573  -0.0267   0.00    0.0
2020/11/02 06:00:21.000   1112776.9675  -4341475.8853   4522955.8834   6   8   0.1070   0.1858   0.2075  -0.0733  -0.1573  -0.0267   0.00    0.0
2020/11/02 06:00:22.000   1112776.9604  -4341475.8853   4522955.8775   6   8   0.1070   0.1858   0.2074  -0.0734  -0.1573  -0.0267   0.00    0.0
2020/11/02 06:00:23.000   1112776.9574  -4341475.8814   4522955.8730   6   8   0.1070   0.1858   0.2074  -0.0734  -0.1572  -0.0267   0.00    0.0
2020/11/02 06:00:24.000   1112776.9493  -4341475.8594   4522955.8770   6   8   0.1070   0.1858   0.2073  -0.0734  -0.1572  -0.0267   0.00    0.0
2020/11/02 06:00:25.000   1112776.9564  -4341475.9033   4522955.8751   6   8   0.1070   0.1858   0.2073  -0.0734  -0.1572  -0.0267   0.00    0.0
2020/11/02 06:00:26.000   1112776.9586  -4341475.8978   4522955.8708   6   8   0.1070   0.1858   0.2073  -0.0734  -0.1572  -0.0266   0.00    0.0
2020/11/02 06:00:27.000   1112776.9561  -4341475.9106   4522955.8968   6   8   0.1070   0.1857   0.2072  -0.0734  -0.1571  -0.0266   0.00    0.0
2020/11/02 06:00:28.000   1112776.9580  -4341475.9126   4522955.8893   6   8   0.1070   0.1857   0.2072  -0.0735  -0.1571  -0.0266   0.00    0.0
2020/11/02 06:00:29.000   1112776.9512  -4341475.9100   4522955.8949   6   8   0.1070   0.1857   0.2071  -0.0735  -0.1571  -0.0266   0.00    0.0
2020/11/02 06:00:30.000   1112776.9524  -4341475.9050   4522955.8882   6   8   0.1070   0.1857   0.2071  -0.0735  -0.1571  -0.0266   0.00    0.0
2020/11/02 06:00:31.000   1112776.9599  -4341475.9136   4522955.8921   6   8   0.1070   0.1857   0.2070  -0.0735  -0.1570  -0.0266   0.00    0.0
2020/11/02 06:00:32.000   1112776.9598  -4341475.9142   4522955.8944   6   8   0.1071   0.1857   0.2070  -0.0735  -0.1570  -0.0266   0.00    0.0
2020/11/02 06:00:33.000   1112776.9614  -4341475.9081   4522955.8893   6   8   0.1071   0.1857   0.2070  -0.0735  -0.1570  -0.0266   0.00    0.0
2020/11/02 06:00:34.000   1112776.9621  -4341475.9155   4522955.8887   6   8   0.1071   0.1857   0.2069  -0.0736  -0.1569  -0.0266   0.00    0.0
2020/11/02 06:00:35.000   1112776.9625  -4341475.9172   4522955.8889   6   8   0.1071   0.1856   0.2069  -0.0736  -0.1569  -0.0266   0.00    0.0
2020/11/02 06:00:36.000   1112776.9744  -4341475.9193   4522955.8901   6   8   0.1071   0.1856   0.2068  -0.0736  -0.1569  -0.0266   0.00    0.0
2020/11/02 06:00:37.000   1112776.9675  -4341475.9214   4522955.8826   6   8   0.1071   0.1856   0.2068  -0.0736  -0.1569  -0.0266   0.00    0.0
2020/11/02 06:00:38.000   1112776.9680  -4341475.9161   4522955.8648   6   8   0.1071   0.1856   0.2068  -0.0736  -0.1568  -0.0266   0.00    0.0
2020/11/02 06:00:39.000   1112776.9751  -4341475.9064   4522955.8562   6   8   0.1071   0.1856   0.2067  -0.0736  -0.1568  -0.0266   0.00    0.0
2020/11/02 06:00:40.000   1112776.9733  -4341475.9203   4522955.8635   6   8   0.1071   0.1856   0.2067  -0.0737  -0.1568  -0.0266   0.00    0.0
2020/11/02 06:00:41.000   1112776.9688  -4341475.9193   4522955.8746   6   8   0.1071   0.1856   0.2066  -0.0737  -0.1567  -0.0266   0.00    0.0
2020/11/02 06:00:42.000   1112776.9736  -4341475.9026   4522955.7972   6   8   0.1071   0.1856   0.2066  -0.0737  -0.1567  -0.0266   0.00    0.0
2020/11/02 06:00:43.000   1112776.9722  -4341475.9059   4522955.8122   6   8   0.1071   0.1855   0.2065  -0.0737  -0.1567  -0.0266   0.00    0.0
2020/11/02 06:00:44.000   1112776.9666  -4341475.9011   4522955.8071   6   8   0.1071   0.1855   0.2065  -0.0737  -0.1567  -0.0266   0.00    0.0
2020/11/02 06:00:45.000   1112776.9791  -4341475.8988   4522955.8025   6   8   0.1072   0.1855   0.2065  -0.0737  -0.1566  -0.0266   0.00    0.0
2020/11/02 06:00:46.000   1112776.9777  -4341475.9043   4522955.8088   6   8   0.1072   0.1855   0.2064  -0.0737  -0.1566  -0.0266   0.00    0.0
2020/11/02 06:00:47.000   1112776.9595  -4341475.9062   4522955.8237   6   8   0.1072   0.1855   0.2064  -0.0738  -0.1566  -0.0266   0.00    0.0
2020/11/02 06:00:48.000   1112776.9542  -4341475.9052   4522955.8173   6   8   0.1072   0.1855   0.2063  -0.0738  -0.1565  -0.0266   0.00    0.0
2020/11/02 06:00:49.000   1112776.9604  -4341475.9072   4522955.8171   6   8   0.1072   0.1855   0.2063  -0.0738  -0.1565  -0.0266   0.00    0.0
2020/11/02 06:00:50.000   1112776.9610  -4341475.9044   4522955.8125   6   8   0.1072   0.1855   0.2063  -0.0738  -0.1565  -0.0265   0.00    0.0
2020/11/02 06:00:51.000   1112776.9558  -4341475.9011   4522955.8095   6   8   0.1072   0.1854   0.2062  -0.0738  -0.1565  -0.0265   0.00    0.0
2020/11/02 06:00:52.000   1112776.9559  -4341475.8992   4522955.8174   6   8   0.1072   0.1854   0.2062  -0.0738  -0.1564  -0.0265   0.00    0.0
2020/11/02 06:00:53.000   1112776.9499  -4341475.8893   4522955.8017   6   8   0.1072   0.1854   0.2061  -0.0739  -0.1564  -0.0265   0.00    0.0
2020/11/02 06:00:54.000   1112776.9516  -4341475.8963   4522955.8104   6   8   0.1072   0.1854   0.2061  -0.0739  -0.1564  -0.0265   0.00    0.0
2020/11/02 06:00:55.000   1112776.9517  -4341475.9019   4522955.8147   6   8   0.1072   0.1854   0.2061  -0.0739  -0.1564  -0.0265   0.00    0.0
2020/11/02 06:00:56.000   1112776.9515  -4341475.8953   4522955.8069   6   8   0.1072   0.1854   0.2060  -0.0739  -0.1563  -0.0265   0.00    0.0
2020/11/02 06:00:57.000   1112776.9360  -4341475.8836   4522955.8170   6   8   0.1072   0.1854   0.2060  -0.0739  -0.1563  -0.0265   0.00    0.0
2020/11/02 06:00:58.000   1112776.9415  -4341475.8984   4522955.8268   6   8   0.1073   0.1854   0.2059  -0.0739  -0.1563  -0.0265   0.00    0.0
2020/11/02 06:00:59.000   1112776.9413  -4341475.8844   4522955.8197   6   8   0.1073   0.1853   0.2059  -0.0740  -0.1562  -0.0265   0.00    0.0
2020/11/02 06:01:00.000   1112776.9384  -4341475.8870   4522955.8261   6   8   0.1073   0.1853   0.2058  -0.0740  -0.1562  -0.0265   0.00    0.0
2020/11/02 06:01:01.000   1112776.9370  -4341475.8936   4522955.8250   6   8   0.1073   0.1853   0.2058  -0.0740  -0.1562  -0.0265   0.00    0.0
2020/11/02 06:01:02.000   1112776.8963  -4341475.8962   4522955.8939   6   8   0.1073   0.1853   0.2058  -0.0740  -0.1562  -0.0265   0.00    0.0
2020/11/02 06:01:03.000   1112776.8876  -4341475.8831   4522955.8875   6   8   0.1073   0.1853   0.2057  -0.0740  -0.1561  -0.0265   0.00    0.0
2020/11/02 06:01:04.000   1112776.8911  -4341475.8811   4522955.8832   6   8   0.1073   0.1853   0.2057  -0.0740  -0.1561  -0.0265   0.00    0.0
2020/11/02 06:01:05.000   1112776.8866  -4341475.8947   4522955.8945   6   8   0.1073   0.1853   0.2056  -0.0741  -0.1561  -0.0265   0.00    0.0
2020/11/02 06:01:06.000   1112776.8921  -4341475.8858   4522955.8845   6   8   0.1073   0.1853   0.2056  -0.0741  -0.1561  -0.0265   0.00    0.0
2020/11/02 06:01:07.000   1112776.8829  -4341475.8805   4522955.8821   6   8   0.1073   0.1852   0.2056  -0.0741  -0.1560  -0.0265   0.00    0.0
2020/11/02 06:01:08.000   1112776.9309  -4341475.9481   4522955.9365   6   8   0.1073   0.1852   0.2055  -0.0741  -0.1560  -0.0265   0.00    0.0
2020/11/02 06:01:09.000   1112776.9281  -4341475.9401   4522955.9331   6   8   0.1073   0.1852   0.2055  -0.0741  -0.1560  -0.0265   0.00    0.0
2020/11/02 06:01:10.000   1112776.9341  -4341475.9303   4522955.9242   6   8   0.1073   0.1852   0.2054  -0.0741  -0.1559  -0.0265   0.00    0.0
2020/11/02 06:01:11.000   1112776.9287  -4341475.9353   4522955.9335   6   8   0.1073   0.1852   0.2054  -0.0742  -0.1559  -0.0264   0.00    0.0
2020/11/02 06:01:12.000   1112776.9413  -4341475.9047   4522955.8884   6   8   0.1074   0.1852   0.2054  -0.0742  -0.1559  -0.0264   0.00    0.0
2020/11/02 06:01:13.000   1112776.9296  -4341475.8966   4522955.8885   6   8   0.1074   0.1852   0.2053  -0.0742  -0.1559  -0.0264   0.00    0.0
2020/11/02 06:01:14.000   1112776.9360  -4341475.8961   4522955.8870   6   8   0.1074   0.1852   0.2053  -0.0742  -0.1558  -0.0264   0.00    0.0
2020/11/02 06:01:15.000   1112776.9317  -4341475.9074   4522955.8881   6   8   0.1074   0.1851   0.2052  -0.0742  -0.1558  -0.0264   0.00    0.0
2020/11/02 06:01:16.000   1112776.9310  -4341475.9055   4522955.8932   6   8   0.1074   0.1851   0.2052  -0.0742  -0.1558  -0.0264   0.00    0.0
2020/11/02 06:01:17.000   1112776.9415  -4341475.9116   4522955.8970   6   8   0.1074   0.1851   0.2052  -0.0743  -0.1558  -0.0264   0.00    0.0
2020/11/02 06:01:18.000   1112776.9314  -4341475.9196   4522955.9016   6   8   0.1074   0.1851   0.2051  -0.0743  -0.1557  -0.0264   0.00    0.0
2020/11/02 06:01:19.000   1112776.9354  -4341475.9206   4522955.9079   6   8   0.1074   0.1851   0.2051  -0.0743  -0.1557  -0.0264   0.00    0.0
2020/11/02 06:01:20.000   1112776.9361  -4341475.9214   4522955.9123   6   8   0.1074   0.1851   0.2050  -0.0743  -0.1557  -0.0264   0.00    0.0
2020/11/02 06:01:21.000   1112776.9409  -4341475.9278   4522955.9146   6   8   0.1074   0.1851   0.2050  -0.0743  -0.1556  -0.0264   0.00    0.0
2020/11/02 06:01:22.000   1112776.9353  -4341475.9154   4522955.9178   6   8   0.1074   0.1851   0.2050  -0.0743  -0.1556  -0.0264   0.00    0.0
2020/11/02 06:01:23.000   1112776.9395  -4341475.9186   4522955.9083   6   8   0.1074   0.1851   0.2049  -0.0744  -0.1556  -0.0264   0.00    0.0
2020/11/02 06:01:24.000   1112776.9340  -4341475.9313   4522955.9140   6   8   0.1074   0.1850   0.2049  -0.0744  -0.1556  -0.0264   0.00    0.0
2020/11/02 06:01:25.000   1112776.9338  -4341475.9249   4522955.9146   6   8   0.1075   0.1850   0.2048  -0.0744  -0.1555  -0.0264   0.00    0.0
2020/11/02 06:01:26.000   1112776.9385  -4341475.9228   4522955.9069   6   8   0.1075   0.1850   0.2048  -0.0744  -0.1555  -0.0264   0.00    0.0
2020/11/02 06:01:27.000   1112776.9441  -4341475.9288   4522955.9118   6   8   0.1075   0.1850   0.2048  -0.0744  -0.1555  -0.0264   0.00    0.0
2020/11/02 06:01:28.000   1112776.9386  -4341475.9361   4522955.9296   6   8   0.1075   0.1850   0.2047  -0.0744  -0.1555  -0.0264   0.00    0.0
2020/11/02 06:01:29.000   1112776.9358  -4341475.9328   4522955.9117   6   8   0.1075   0.1850   0.2047  -0.0745  -0.1554  -0.0264   0.00    0.0
2020/11/02 06:01:30.000   1112776.9391  -4341475.9264   4522955.9150   6   8   0.1075   0.1850   0.2046  -0.0745  -0.1554  -0.0263   0.00    0.0
2020/11/02 06:01:31.000   1112776.9359  -4341475.9197   4522955.9123   6   8   0.1075   0.1850   0.2046  -0.0745  -0.1554  -0.0263   0.00    0.0
2020/11/02 06:01:32.000   1112776.9478  -4341475.9319   4522955.9242   6  11   0.1074   0.1849   0.2044  -0.0746  -0.1553  -0.0262   0.00    0.0
2020/11/02 06:01:33.000   1112776.9421  -4341475.9331   4522955.9262   6  11   0.0964   0.1772   0.1817  -0.0766  -0.1388  -0.0045   0.00    0.0
2020/11/02 06:01:34.000   1112776.9459  -4341475.9071   4522955.8833   6  11   0.0001   0.0001   0.0001  -0.0000  -0.0000  -0.0000   0.00    0.0
2020/11/02 06:01:35.000   1112776.9459  -4341475.9071   4522955.8833   6  11   0.0001   0.0001   0.0001  -0.0000  -0.0000  -0.0000   0.00    0.0
2020/11/02 06:01:36.000   1112776.9459  -4341475.9071   4522955.8833   6  11   0.0001   0.0001   0.0001  -0.0000  -0.0000  -0.0000   0.00    0.0
2020/11/02 06:01:37.000   1112776.9459  -4341475.9071   4522955.8833   6  11   0.0001   0.0001   0.0001  -0.0000  -0.0000  -0.0000   0.00    0.0
2020/11/02 06:01:38.000   1112776.9459  -4341475.9071   4522955.8833   6  11   0.0001   0.0001   0.0001  -0.0000  -0.0000  -0.0000   0.00    0.0
2020/11/02 06:01:39.000   1112776.9459  -4341475.9071   4522955.8833   6  11   0.0001   0.0001   0.0001  -0.0000  -0.0000  -0.0000   0.00    0.0
2020/11/02 06:01:40.000   1112776.9459  -4341475.9071   4522955.8833   6  11   0.0001   0.0001   0.0001  -0.0000  -0.0000  -0.0000   0.00    0.0
2020/11/02 06:01:41.000   1112776.9459  -4341475.9071   4522955.8833   6  11   0.0001   0.0001   0.0001  -0.0000  -0.0000  -0.0000   0.00    0.0
2020/11/02 06:01:42.000   1112776.9591  -4341475.9120   4522955.8768   6  11   0.0842   0.1685   0.1557  -0.0782  -0.1197   0.0243   0.00    0.0
2020/11/02 06:01:43.000   1112776.9536  -4341475.9120   4522955.8699   6  11   0.0842   0.1685   0.1556  -0.0782  -0.1196   0.0244   0.00    0.0
2020/11/02 06:01:44.000   1112776.9579  -4341475.9179   4522955.8826   6  11   0.0841   0.1685   0.1555  -0.0782  -0.1195   0.0244   0.00    0.0
2020/11/02 06:01:45.000   1112776.9564  -4341475.9145   4522955.8744   6  11   0.0841   0.1684   0.1554  -0.0782  -0.1195   0.0244   0.00    0.0
2020/11/02 06:01:46.000   1112776.9548  -4341475.9194   4522955.8695   6  11   0.0841   0.1684   0.1553  -0.0783  -0.1194   0.0245   0.00    0.0
2020/11/02 06:01:47.000   1112776.9531  -4341475.9201   4522955.8789   6  11   0.0840   0.1684   0.1553  -0.0783  -0.1194   0.0245   0.00    0.0
2020/11/02 06:01:48.000   1112776.9571  -4341475.9407   4522955.8895   6  11   0.0840   0.1684   0.1552  -0.0783  -0.1194   0.0245   0.00    0.0
2020/11/02 06:01:49.000   1112776.9585  -4341475.9414   4522955.8881   6  11   0.0840   0.1684   0.1552  -0.0783  -0.1193   0.0246   0.00    0.0
2020/11/02 06:01:50.000   1112776.9585  -4341475.9381   4522955.8860   6  11   0.0840   0.1684   0.1551  -0.0783  -0.1193   0.0246   0.00    0.0
2020/11/02 06:01:51.000   1112776.9559  -4341475.9414   4522955.8857   6  11   0.0840   0.1683   0.1551  -0.0783  -0.1193   0.0246   0.00    0.0
2020/11/02 06:01:52.000   1112776.9642  -4341475.9429   4522955.8791   6  11   0.0839   0.1683   0.1550  -0.0783  -0.1193   0.0246   0.00    0.0
2020/11/02 06:01:53.000   1112776.9646  -4341475.9477   4522955.8814   6  11   0.0839   0.1683   0.1550  -0.0783  -0.1192   0.0247   0.00    0.0
2020/11/02 06:01:54.000   1112776.9631  -4341475.9506   4522955.8846   6  11   0.0839   0.1683   0.1550  -0.0784  -0.1192   0.0247   0.00    0.0
2020/11/02 06:01:55.000   1112776.9632  -4341475.9518   4522955.8891   6  11   0.0839   0.1683   0.1549  -0.0784  -0.1192   0.0247   0.00    0.0
2020/11/02 06:01:56.000   1112776.9646  -4341475.9545   4522955.8909   6  11   0.0839   0.1683   0.1549  -0.0784  -0.1192   0.0247   0.00    0.0
2020/11/02 06:01:57.000   1112776.9663  -4341475.9540   4522955.8867   6  11   0.0839   0.1683   0.1549  -0.0784  -0.1192   0.0248   0.00    0.0
2020/11/02 06:01:58.000   1112776.9590  -4341475.9501   4522955.8964   6  11   0.0839   0.1683   0.1548  -0.0784  -0.1192   0.0248   0.00    0.0
2020/11/02 06:01:59.000   1112776.9601  -4341475.9428   4522955.8828   6  11   0.0839   0.1683   0.1548  -0.0784  -0.1191   0.0248   0.00    0.0
2020/11/02 06:02:00.000   1112776.9503  -4341475.9356   4522955.8805   6  11   0.0839   0.1683   0.1548  -0.0784  -0.1191   0.0248   0.00    0.0
2020/11/02 06:02:01.000   1112776.9541  -4341475.9383   4522955.8923   6  11   0.0839   0.1683   0.1548  -0.0784  -0.1191   0.0249   0.00    0.0
2020/11/02 06:02:02.000   1112776.9499  -4341475.9325   4522955.8810   6  11   0.0838   0.1683   0.1548  -0.0785  -0.1191   0.0249   0.00    0.0
2020/11/02 06:02:03.000   1112776.9411  -4341475.9364   4522955.8857   6  11   0.0838   0.1683   0.1547  -0.0785  -0.1191   0.0249   0.00    0.0
2020/11/02 06:02:04.000   1112776.9514  -4341475.9479   4522955.8849   6  11   0.0838   0.1683   0.1547  -0.0785  -0.1191   0.0249   0.00    0.0
2020/11/02 06:02:05.000   1112776.9477  -4341475.9507   4522955.8938   6  11   0.0838   0.1683   0.1547  -0.0785  -0.1191   0.0250   0.00    0.0
2020/11/02 06:02:06.000   1112776.9361  -4341475.9343   4522955.8823   6  11   0.0838   0.1683   0.1547  -0.0785  -0.1191   0.0250   0.00    0.0
2020/11/02 06:02:07.000   1112776.9365  -4341475.9324   4522955.8813   6  11   0.0838   0.1683   0.1547  -0.0785  -0.1191   0.0250   0.00    0.0
2020/11/02 06:02:08.000   1112776.9365  -4341475.9334   4522955.8787   6  11   0.0838   0.1683   0.1547  -0.0785  -0.1191   0.0250   0.00    0.0
2020/11/02 06:02:09.000   1112776.9361  -4341475.9277   4522955.8801   6  11   0.0838   0.1683   0.1546  -0.0785  -0.1190   0.0250   0.00    0.0
2020/11/02 06:02:10.000   1112776.9356  -4341475.9248   4522955.8694   6  11   0.0838   0.1683   0.1546  -0.0785  -0.1190   0.0251   0.00    0.0
2020/11/02 06:02:11.000   1112776.9361  -4341475.9159   4522955.8742   6  11   0.0838   0.1683   0.1546  -0.0786  -0.1190   0.0251   0.00    0.0
2020/11/02 06:02:12.000   1112776.9345  -4341475.9166   4522955.8823   6  11   0.0838   0.1682   0.1546  -0.0786  -0.1190   0.0251   0.00    0.0
2020/11/02 06:02:13.000   1112776.9352  -4341475.9152   4522955.8724   6  11   0.0838   0.1682   0.1546  -0.0786  -0.1190   0.0251   0.00    0.0
2020/11/02 06:02:14.000   1112776.9335  -4341475.9086   4522955.8692   6  11   0.0838   0.1682   0.1546  -0.0786  -0.1190   0.0251   0.00    0.0
2020/11/02 06:02:15.000   1112776.9315  -4341475.9072   4522955.8652   6  11   0.0838   0.1682   0.1546  -0.0786  -0.1190   0.0252   0.00    0.0
2020/11/02 06:02:16.000   1112776.9363  -4341475.9072   4522955.8600   6  11   0.0838   0.1682   0.1546  -0.0786  -0.1190   0.0252   0.00    0.0
2020/11/02 06:02:17.000   1112776.9409  -4341475.9030   4522955.8669   6  11   0.0838   0.1682   0.1546  -0.0786  -0.1190   0.0252   0.00    0.0
2020/11/02 06:02:18.000   1112776.9437  -4341475.9102   4522955.8729   6  11   0.0838   0.1682   0.1545  -0.0786  -0.1190   0.0252   0.00    0.0
2020/11/02 06:02:19.000   1112776.9400  -4341475.9067   4522955.8697   6  11   0.0838   0.1682   0.1545  -0.0787  -0.1190   0.0252   0.00    0.0
2020/11/02 06:02:20.000   1112776.9397  -4341475.9020   4522955.8658   6  11   0.0838   0.1682   0.1545  -0.0787  -0.1190   0.0253   0.00    0.0
2020/11/02 06:02:21.000   1112776.9435  -4341475.9139   4522955.8753   6  11   0.0838   0.1682   0.1545  -0.0787  -0.1190   0.0253   0.00    0.0
2020/11/02 06:02:22.000   1112776.9367  -4341475.9067   4522955.8782   6  11   0.0838   0.1682   0.1545  -0.0787  -0.1190   0.0253   0.00    0.0
2020/11/02 06:02:23.000   1112776.9338  -4341475.9010   4522955.8811   6  11   0.0838   0.1682   0.1545  -0.0787  -0.1190   0.0253   0.00    0.0
2020/11/02 06:02:24.000   1112776.9369  -4341475.8982   4522955.8772   6  11   0.0838   0.1682   0.1545  -0.0787  -0.1190   0.0253   0.00    0.0
2020/11/02 06:02:25.000   1112776.9292  -4341475.8974   4522955.8843   6  11   0.0838   0.1682   0.1545  -0.0787  -0.1190   0.0253   0.00    0.0
2020/11/02 06:02:26.000   1112776.9307  -4341475.8860   4522955.8760   6  11   0.0838   0.1682   0.1545  -0.0787  -0.1190   0.0254   0.00    0.0
2020/11/02 06:02:27.000   1112776.9437  -4341475.8946   4522955.8708   6  11   0.0838   0.1682   0.1545  -0.0787  -0.1190   0.0254   0.00    0.0
2020/11/02 06:02:28.000   1112776.9431  -4341475.8952   4522955.8732   6  11   0.0838   0.1682   0.1545  -0.0788  -0.1190   0.0254   0.00    0.0
2020/11/02 06:02:29.000   1112776.9401  -4341475.8904   4522955.8750   6  11   0.0838   0.1682   0.1545  -0.0788  -0.1190   0.0254   0.00    0.0
2020/11/02 06:02:30.000   1112776.9371  -4341475.8927   4522955.8786   6  11   0.0838   0.1682   0.1545  -0.0788  -0.1190   0.0254   0.00    0.0
2020/11/02 06:02:31.000   1112776.9439  -4341475.8892   4522955.8796   6  11   0.0838   0.1682   0.1545  -0.0788  -0.1190   0.0255   0.00    0.0
2020/11/02 06:02:32.000   1112776.9426  -4341475.8952   4522955.8809   6  11   0.0838   0.1682   0.1544  -0.0788  -0.1190   0.0255   0.00    0.0
2020/11/02 06:02:33.000   1112776.9427  -4341475.8934   4522955.8859   6  11   0.0838   0.1682   0.1544  -0.0788  -0.1190   0.0255   0.00    0.0
2020/11/02 06:02:34.000   1112776.9457  -4341475.9007   4522955.8922   6  11   0.0838   0.1682   0.1544  -0.0788  -0.1190   0.0255   0.00    0.0
2020/11/02 06:02:35.000   1112776.9445  -4341475.8910   4522955.8834   6  11   0.0838   0.1682   0.1544  -0.0788  -0.1190   0.0255   0.00    0.0
2020/11/02 06:02:36.000   1112776.9411  -4341475.8969   4522955.8962   6  11   0.0838   0.1682   0.1544  -0.0788  -0.1190   0.0255   0.00    0.0
2020/11/02 06:02:37.000   1112776.9459  -4341475.8873   4522955.8893   6  11   0.0838   0.1682   0.1544  -0.0789  -0.1190   0.0256   0.00    0.0
2020/11/02 06:02:38.000   1112776.9372  -4341475.8678   4522955.8854   6  11   0.0838   0.1682   0.1544  -0.0789  -0.1190   0.0256   0.00    0.0
2020/11/02 06:02:39.000   1112776.9357  -4341475.8791   4522955.9024   6  11   0.0838   0.1682   0.1544  -0.0789  -0.1190   0.0256   0.00    0.0
2020/11/02 06:02:40.000   1112776.9427  -4341475.8825   4522955.8942   6  11   0.0838   0.1682   0.1544  -0.0789  -0.1190   0.0256   0.00    0.0
2020/11/02 06:02:41.000   1112776.9382  -4341475.8789   4522955.9017   6  11   0.0838   0.1682   0.1544  -0.0789  -0.1190   0.0256   0.00    0.0
2020/11/02 06:02:42.000   1112776.9415  -4341475.8726   4522955.9013   6  11   0.0838   0.1682   0.1544  -0.0789  -0.1190   0.0256   0.00    0.0
2020/11/02 06:02:43.000   1112776.9382  -4341475.8842   4522955.9051   6  11   0.0838   0.1682   0.1544  -0.0789  -0.1190   0.0257   0.00    0.0
2020/11/02 06:02:44.000   1112776.9385  -4341475.8703   4522955.8990   6  11   0.0838   0.1682   0.1544  -0.0789  -0.1190   0.0257   0.00    0.0
2020/11/02 06:02:45.000   1112776.9359  -4341475.8704   4522955.9012   6  11   0.0838   0.1682   0.1544  -0.0789  -0.1190   0.0257   0.00    0.0
2020/11/02 06:02:46.000   1112776.9386  -4341475.8703   4522955.8972   6  11   0.0838   0.1682   0.1544  -0.0790  -0.1190   0.0257   0.00    0.0
2020/11/02 06:02:47.000   1112776.9407  -4341475.8748   4522955.8987   6  11   0.0839   0.1682   0.1544  -0.0790  -0.1190   0.0257   0.00    0.0
2020/11/02 06:02:48.000   1112776.9211  -4341475.8464   4522955.8829   6  11   0.0839   0.1682   0.1544  -0.0790  -0.1190   0.0257   0.00    0.0
2020/11/02 06:02:49.000   1112776.9212  -4341475.8506   4522955.8902   6  11   0.0839   0.1682   0.1544  -0.0790  -0.1190   0.0258   0.00    0.0
2020/11/02 06:02:50.000   1112776.9231  -4341475.8547   4522955.8965   6  11   0.0839   0.1682   0.1544  -0.0790  -0.1190   0.0258   0.00    0.0
2020/11/02 06:02:51.000   1112776.9176  -4341475.8533   4522955.9044   6  11   0.0839   0.1682   0.1544  -0.0790  -0.1190   0.0258   0.00    0.0
2020/11/02 06:02:52.000   1112776.9200  -4341475.8547   4522955.9032   6  11   0.0839   0.1682   0.1544  -0.0790  -0.1190   0.0258   0.00    0.0
2020/11/02 06:02:53.000   1112776.9191  -4341475.8690   4522955.9370   6  11   0.0839   0.1682   0.1544  -0.0790  -0.1190   0.0258   0.00    0.0
2020/11/02 06:02:54.000   1112776.9271  -4341475.8684   4522955.9311   6  11   0.0839   0.1682   0.1544  -0.0790  -0.1190   0.0258   0.00    0.0
2020/11/02 06:02:55.000   1112776.9251  -4341475.8781   4522955.9446   6  11   0.0839   0.1682   0.1544  -0.0791  -0.1190   0.0259   0.00    0.0
2020/11/02 06:02:56.000   1112776.9308  -4341475.8801   4522955.9443   6  11   0.0839   0.1682   0.1544  -0.0791  -0.1190   0.0259   0.00    0.0
2020/11/02 06:02:57.000   1112776.9450  -4341475.8715   4522955.9046   6  11   0.0839   0.1682   0.1544  -0.0791  -0.1190   0.0259   0.00    0.0
2020/11/02 06:02:58.000   1112776.9433  -4341475.8701   4522955.8970   6  11   0.0839   0.1682   0.1544  -0.0791  -0.1190   0.0259   0.00    0.0
2020/11/02 06:02:59.000   1112776.9441  -4341475.8708   4522955.9042   6  11   0.0839   0.1682   0.1543  -0.0791  -0.1190   0.0259   0.00    0.0
2020/11/02 06:03:00.000   1112776.9481  -4341475.8703   4522955.8999   6  11   0.0839   0.1682   0.1543  -0.0791  -0.1190   0.0259   0.00    0.0
2020/11/02 06:03:01.000   1112776.9476  -4341475.8777   4522955.9113   6  11   0.0839   0.1682   0.1543  -0.0791  -0.1190   0.0259   0.00    0.0
2020/11/02 06:03:02.000   1112776.9530  -4341475.8816   4522955.8968   6  11   0.0839   0.1682   0.1543  -0.0791  -0.1190   0.0260   0.00    0.0
2020/11/02 06:03:03.000   1112776.9589  -4341475.8989   4522955.9109   6  11   0.0839   0.1682   0.1543  -0.0791  -0.1190   0.0260   0.00    0.0
2020/11/02 06:03:04.000   1112776.9573  -4341475.8921   4522955.8969   6  11   0.0839   0.1682   0.1543  -0.0792  -0.1190   0.0260   0.00    0.0
2020/11/02 06:03:05.000   1112776.9555  -4341475.8925   4522955.8988   6  11   0.0839   0.1682   0.1543  -0.0792  -0.1190   0.0260   0.00    0.0
2020/11/02 06:03:06.000   1112776.9577  -4341475.8933   4522955.8981   6  11   0.0839   0.1682   0.1543  -0.0792  -0.1190   0.0260   0.00    0.0
2020/11/02 06:03:07.000   1112776.9594  -4341475.8918   4522955.8851   6  11   0.0839   0.1682   0.1543  -0.0792  -0.1190   0.0260   0.00    0.0
2020/11/02 06:03:08.000   1112776.9556  -4341475.8834   4522955.8865   6  11   0.0839   0.1682   0.1543  -0.0792  -0.1190   0.0261   0.00    0.0
2020/11/02 06:03:09.000   1112776.9620  -4341475.8899   4522955.8822   6  11   0.0839   0.1682   0.1543  -0.0792  -0.1190   0.0261   0.00    0.0
2020/11/02 06:03:10.000   1112776.9619  -4341475.8867   4522955.8830   6  11   0.0839   0.1682   0.1543  -0.0792  -0.1190   0.0261   0.00    0.0
2020/11/02 06:03:11.000   1112776.9624  -4341475.8902   4522955.8879   6  11   0.0839   0.1682   0.1543  -0.0792  -0.1190   0.0261   0.00    0.0
2020/11/02 06:03:12.000   1112776.9619  -4341475.8880   4522955.8861   6  11   0.0839   0.1682   0.1543  -0.0792  -0.1190   0.0261   0.00    0.0
2020/11/02 06:03:13.000   1112776.9627  -4341475.8997   4522955.8842   6  11   0.0839   0.1682   0.1543  -0.0793  -0.1190   0.0261   0.00    0.0
2020/11/02 06:03:14.000   1112776.9633  -4341475.8888   4522955.8794   6  11   0.0839   0.1682   0.1543  -0.0793  -0.1190   0.0262   0.00    0.0
2020/11/02 06:03:15.000   1112776.9666  -4341475.8947   4522955.8837   6  11   0.0839   0.1683   0.1543  -0.0793  -0.1190   0.0262   0.00    0.0
2020/11/02 06:03:16.000   1112776.9679  -4341475.8945   4522955.8739   6  11   0.0839   0.1683   0.1543  -0.0793  -0.1190   0.0262   0.00    0.0
2020/11/02 06:03:17.000   1112776.9700  -4341475.8904   4522955.8777   6  11   0.0839   0.1683   0.1543  -0.0793  -0.1190   0.0262   0.00    0.0
2020/11/02 06:03:18.000   1112776.9671  -4341475.8987   4522955.8734   6  11   0.0839   0.1683   0.1543  -0.0793  -0.1190   0.0262   0.00    0.0
2020/11/02 06:03:19.000   1112776.9651  -4341475.8905   4522955.8769   6  11   0.0840   0.1683   0.1543  -0.0793  -0.1190   0.0262   0.00    0.0
2020/11/02 06:03:20.000   1112776.9677  -4341475.9006   4522955.8771   6  11   0.0840   0.1683   0.1543  -0.0793  -0.1190   0.0263   0.00    0.0
2020/11/02 06:03:21.000   1112776.9671  -4341475.9011   4522955.8738   6  11   0.0840   0.1683   0.1543  -0.0793  -0.1190   0.0263   0.00    0.0
2020/11/02 06:03:22.000   1112776.9654  -4341475.8984   4522955.8719   6  11   0.0840   0.1683   0.1543  -0.0793  -0.1190   0.0263   0.00    0.0
2020/11/02 06:03:23.000   1112776.9674  -4341475.8975   4522955.8689   6  11   0.0840   0.1683   0.1543  -0.0794  -0.1190   0.0263   0.00    0.0
2020/11/02 06:03:24.000   1112776.9654  -4341475.8975   4522955.8683   6  11   0.0840   0.1683   0.1543  -0.0794  -0.1190   0.0263   0.00    0.0
2020/11/02 06:03:25.000   1112776.9661  -4341475.9072   4522955.8717   6  11   0.0840   0.1683   0.1543  -0.0794  -0.1190   0.0263   0.00    0.0
2020/11/02 06:03:26.000   1112776.9641  -4341475.8996   4522955.8703   6  11   0.0840   0.1683   0.1543  -0.0794  -0.1190   0.0263   0.00    0.0
2020/11/02 06:03:27.000   1112776.9595  -4341475.8898   4522955.8666   6  11   0.0840   0.1683   0.1543  -0.0794  -0.1190   0.0264   0.00    0.0
2020/11/02 06:03:28.000   1112776.9587  -4341475.8871   4522955.8671   6  11   0.0840   0.1683   0.1543  -0.0794  -0.1190   0.0264   0.00    0.0
2020/11/02 06:03:29.000   1112776.9542  -4341475.8873   4522955.8661   6  11   0.0840   0.1683   0.1543  -0.0794  -0.1190   0.0264   0.00    0.0
2020/11/02 06:03:30.000   1112776.9597  -4341475.8892   4522955.8708   6  11   0.0840   0.1683   0.1543  -0.0794  -0.1190   0.0264   0.00    0.0
2020/11/02 06:03:31.000   1112776.9570  -4341475.8905   4522955.8628   6  11   0.0840   0.1683   0.1543  -0.0794  -0.1190   0.0264   0.00    0.0
2020/11/02 06:03:32.000   1112776.9582  -4341475.8917   4522955.8728   6  11   0.0840   0.1683   0.1543  -0.0795  -0.1190   0.0264   0.00    0.0
2020/11/02 06:03:33.000   1112776.9580  -4341475.9010   4522955.8870   6  11   0.0840   0.1683   0.1543  -0.0795  -0.1190   0.0265   0.00    0.0
2020/11/02 06:03:34.000   1112776.9562  -4341475.8980   4522955.8765   6  11   0.0840   0.1683   0.1543  -0.0795  -0.1190   0.0265   0.00    0.0
2020/11/02 06:03:35.000   1112776.9522  -4341475.9016   4522955.8855   6  11   0.0840   0.1683   0.1543  -0.0795  -0.1190   0.0265   0.00    0.0
2020/11/02 06:03:36.000   1112776.9564  -4341475.9033   4522955.8853   6  11   0.0840   0.1683   0.1543  -0.0795  -0.1190   0.0265   0.00    0.0
2020/11/02 06:03:37.000   1112776.9526  -4341475.9089   4522955.8774   6  11   0.0840   0.1683   0.1543  -0.0795  -0.1190   0.0265   0.00    0.0
2020/11/02 06:03:38.000   1112776.9492  -4341475.9077   4522955.8760   6  11   0.0840   0.1683   0.1543  -0.0795  -0.1190   0.0265   0.00    0.0
2020/11/02 06:03:39.000   1112776.9555  -4341475.9198   4522955.8842   6  11   0.0840   0.1683   0.1543  -0.0795  -0.1190   0.0265   0.00    0.0
2020/11/02 06:03:40.000   1112776.9564  -4341475.9269   4522955.8862   6  11   0.0840   0.1683   0.1543  -0.0795  -0.1190   0.0266   0.00    0.0
2020/11/02 06:03:41.000   1112776.9499  -4341475.9037   4522955.8713   6  11   0.0840   0.1683   0.1543  -0.0796  -0.1190   0.0266   0.00    0.0
2020/11/02 06:03:42.000   1112776.9507  -4341475.9175   4522955.8829   6  11   0.0840   0.1683   0.1543  -0.0796  -0.1190   0.0266   0.00    0.0
2020/11/02 06:03:43.000   1112776.9528  -4341475.9202   4522955.8735   6  11   0.0840   0.1683   0.1543  -0.0796  -0.1190   0.0266   0.00    0.0
2020/11/02 06:03:44.000   1112776.9545  -4341475.9137   4522955.8716   6  11   0.0840   0.1683   0.1543  -0.0796  -0.1190   0.0266   0.00    0.0
2020/11/02 06:03:45.000   1112776.9563  -4341475.9179   4522955.8702   6  11   0.0840   0.1683   0.1543  -0.0796  -0.1190   0.0266   0.00    0.0
2020/11/02 06:03:46.000   1112776.9586  -4341475.9341   4522955.8797   6  11   0.0841   0.1683   0.1543  -0.0796  -0.1190   0.0266   0.00    0.0
2020/11/02 06:03:47.000   1112776.9561  -4341475.9126   4522955.8715   6  11   0.0841   0.1683   0.1543  -0.0796  -0.1190   0.0267   0.00    0.0
2020/11/02 06:03:48.000   1112776.9535  -4341475.9111   4522955.8689   6  11   0.0841   0.1683   0.1543  -0.0796  -0.1190   0.0267   0.00    0.0
2020/11/02 06:03:49.000   1112776.9549  -4341475.9196   4522955.8711   6  11   0.0841   0.1683   0.1543  -0.0796  -0.1190   0.0267   0.00    0.0
2020/11/02 06:03:50.000   1112776.9578  -4341475.9363   4522955.8829   6  11   0.0841   0.1683   0.1543  -0.0797  -0.1190   0.0267   0.00    0.0
2020/11/02 06:03:51.000   1112776.9533  -4341475.9250   4522955.8836   6  11   0.0841   0.1683   0.1543  -0.0797  -0.1191   0.0267   0.00    0.0
2020/11/02 06:03:52.000   1112776.9645  -4341475.9394   4522955.8910   6  11   0.0841   0.1683   0.1543  -0.0797  -0.1191   0.0267   0.00    0.0
2020/11/02 06:03:53.000   1112776.9640  -4341475.9436   4522955.8933   6  11   0.0841   0.1683   0.1543  -0.0797  -0.1191   0.0268   0.00    0.0
2020/11/02 06:03:54.000   1112776.9636  -4341475.9315   4522955.8750   6  11   0.0841   0.1683   0.1543  -0.0797  -0.1191   0.0268   0.00    0.0
2020/11/02 06:03:55.000   1112776.9669  -4341475.9363   4522955.8780   6  11   0.0841   0.1683   0.1543  -0.0797  -0.1191   0.0268   0.00    0.0
2020/11/02 06:03:56.000   1112776.9595  -4341475.9378   4522955.8960   6  11   0.0841   0.1683   0.1543  -0.0797  -0.1191   0.0268   0.00    0.0
2020/11/02 06:03:57.000   1112776.9644  -4341475.9351   4522955.8916   6  11   0.0841   0.1683   0.1543  -0.0797  -0.1191   0.0268   0.00    0.0
2020/11/02 06:03:58.000   1112776.9656  -4341475.9314   4522955.8769   6  11   0.0841   0.1683   0.1543  -0.0797  -0.1191   0.0268   0.00    0.0
2020/11/02 06:03:59.000   1112776.9630  -4341475.9332   4522955.8729   6  11   0.0841   0.1683   0.1542  -0.0798  -0.1191   0.0268   0.00    0.0
2020/11/02 06:04:00.000   1112776.9660  -4341475.9330   4522955.8777   6  11   0.0841   0.1683   0.1542  -0.0798  -0.1191   0.0269   0.00    0.0
2020/11/02 06:04:01.000   1112776.9589  -4341475.9301   4522955.8673   6  11   0.0841   0.1683   0.1542  -0.0798  -0.1191   0.0269   0.00    0.0
2020/11/02 06:04:02.000   1112776.9612  -4341475.9098   4522955.8756   6  11   0.0841   0.1683   0.1542  -0.0798  -0.1191   0.0269   0.00    0.0
2020/11/02 06:04:03.000   1112776.9596  -4341475.9283   4522955.8820   6  11   0.0841   0.1683   0.1542  -0.0798  -0.1191   0.0269   0.00    0.0
2020/11/02 06:04:04.000   1112776.9629  -4341475.9231   4522955.8726   6  11   0.0841   0.1683   0.1542  -0.0798  -0.1191   0.0269   0.00    0.0
2020/11/02 06:04:05.000   1112776.9601  -4341475.9280   4522955.8753   6  11   0.0841   0.1683   0.1542  -0.0798  -0.1191   0.0269   0.00    0.0
2020/11/02 06:04:06.000   1112776.9610  -4341475.9355   4522955.8872   6  11   0.0841   0.1683   0.1542  -0.0798  -0.1191   0.0269   0.00    0.0
2020/11/02 06:04:07.000   1112776.9603  -4341475.9340   4522955.8846   6  11   0.0841   0.1683   0.1542  -0.0798  -0.1191   0.0270   0.00    0.0
2020/11/02 06:04:08.000   1112776.9520  -4341475.9113   4522955.8827   6  11   0.0841   0.1683   0.1542  -0.0798  -0.1191   0.0270   0.00    0.0
2020/11/02 06:04:09.000   1112776.9540  -4341475.9255   4522955.8890   6  11   0.0841   0.1683   0.1542  -0.0799  -0.1191   0.0270   0.00    0.0
2020/11/02 06:04:10.000   1112776.9474  -4341475.9176   4522955.8866   6  11   0.0842   0.1683   0.1542  -0.0799  -0.1191   0.0270   0.00    0.0
2020/11/02 06:04:11.000   1112776.9454  -4341475.9109   4522955.8865   6  11   0.0842   0.1683   0.1542  -0.0799  -0.1191   0.0270   0.00    0.0
2020/11/02 06:04:12.000   1112776.9490  -4341475.9186   4522955.8833   6  11   0.0842   0.1683   0.1542  -0.0799  -0.1191   0.0270   0.00    0.0
2020/11/02 06:04:13.000   1112776.9450  -4341475.9257   4522955.8917   6  11   0.0842   0.1683   0.1542  -0.0799  -0.1191   0.0270   0.00    0.0
2020/11/02 06:04:14.000   1112776.9425  -4341475.9152   4522955.8766   6  11   0.0842   0.1683   0.1542  -0.0799  -0.1191   0.0271   0.00    0.0
2020/11/02 06:04:15.000   1112776.9423  -4341475.9193   4522955.8884   6  11   0.0842   0.1683   0.1542  -0.0799  -0.1191   0.0271   0.00    0.0
2020/11/02 06:04:16.000   1112776.9462  -4341475.9141   4522955.8761   6  11   0.0842   0.1683   0.1542  -0.0799  -0.1191   0.0271   0.00    0.0
2020/11/02 06:04:17.000   1112776.9439  -4341475.9124   4522955.8779   6  11   0.0842   0.1683   0.1542  -0.0799  -0.1191   0.0271   0.00    0.0
2020/11/02 06:04:18.000   1112776.9347  -4341475.8993   4522955.8709   6  11   0.0842   0.1683   0.1542  -0.0800  -0.1191   0.0271   0.00    0.0
2020/11/02 06:04:19.000   1112776.9361  -4341475.9030   4522955.8761   6  11   0.0842   0.1683   0.1542  -0.0800  -0.1191   0.0271   0.00    0.0
2020/11/02 06:04:20.000   1112776.9442  -4341475.9099   4522955.8666   6  11   0.0842   0.1683   0.1542  -0.0800  -0.1191   0.0271   0.00    0.0
2020/11/02 06:04:21.000   1112776.9416  -4341475.9112   4522955.8737   6  11   0.0842   0.1683   0.1542  -0.0800  -0.1191   0.0272   0.00    0.0
2020/11/02 06:04:22.000   1112776.9402  -4341475.9046   4522955.8691   6  11   0.0842   0.1683   0.1542  -0.0800  -0.1191   0.0272   0.00    0.0
2020/11/02 06:04:23.000   1112776.9384  -4341475.9024   4522955.8567   6  11   0.0842   0.1683   0.1542  -0.0800  -0.1191   0.0272   0.00    0.0
2020/11/02 06:04:24.000   1112776.9381  -4341475.8881   4522955.8596   6  11   0.0842   0.1683   0.1542  -0.0800  -0.1191   0.0272   0.00    0.0
2020/11/02 06:04:25.000   1112776.9377  -4341475.8916   4522955.8583   6  11   0.0842   0.1683   0.1542  -0.0800  -0.1191   0.0272   0.00    0.0
2020/11/02 06:04:26.000   1112776.9344  -4341475.8894   4522955.8576   6  11   0.0842   0.1683   0.1542  -0.0800  -0.1191   0.0272   0.00    0.0
2020/11/02 06:04:27.000   1112776.9384  -4341475.8863   4522955.8517   6  11   0.0842   0.1683   0.1542  -0.0800  -0.1191   0.0273   0.00    0.0
2020/11/02 06:04:28.000   1112776.9351  -4341475.8820   4522955.8479   6  11   0.0842   0.1683   0.1542  -0.0801  -0.1191   0.0273   0.00    0.0
2020/11/02 06:04:29.000   1112776.9418  -4341475.8904   4522955.8474   6  11   0.0842   0.1683   0.1542  -0.0801  -0.1191   0.0273   0.00    0.0
2020/11/02 06:04:30.000   1112776.9412  -4341475.8719   4522955.8297   6  11   0.0842   0.1683   0.1542  -0.0801  -0.1191   0.0273   0.00    0.0
2020/11/02 06:04:31.000   1112776.9441  -4341475.8773   4522955.8393   6  11   0.0842   0.1683   0.1542  -0.0801  -0.1191   0.0273   0.00    0.0
2020/11/02 06:04:32.000   1112776.9425  -4341475.8672   4522955.8309   6  11   0.0842   0.1683   0.1542  -0.0801  -0.1191   0.0273   0.00    0.0
2020/11/02 06:04:33.000   1112776.9444  -4341475.8726   4522955.8232   6  11   0.0842   0.1683   0.1542  -0.0801  -0.1191   0.0273   0.00    0.0
2020/11/02 06:04:34.000   1112776.9514  -4341475.8784   4522955.8345   6  11   0.0843   0.1683   0.1542  -0.0801  -0.1191   0.0274   0.00    0.0
2020/11/02 06:04:35.000   1112776.9481  -4341475.8689   4522955.8262   6  11   0.0843   0.1683   0.1542  -0.0801  -0.1191   0.0274   0.00    0.0
2020/11/02 06:04:36.000   1112776.9500  -4341475.8697   4522955.8246   6  11   0.0843   0.1683   0.1542  -0.0801  -0.1191   0.0274   0.00    0.0
2020/11/02 06:04:37.000   1112776.9492  -4341475.8719   4522955.8309   6  11   0.0843   0.1683   0.1542  -0.0802  -0.1191   0.0274   0.00    0.0
2020/11/02 06:04:38.000   1112776.9558  -4341475.8829   4522955.8325   6  11   0.0843   0.1683   0.1542  -0.0802  -0.1191   0.0274   0.00    0.0
