%  GPST                      x-ecef(m)      y-ecef(m)      z-ecef(m)   Q  ns   sdx(m)   sdy(m)   sdz(m)  sdxy(m)  sdyz(m)  sdzx(m) age(s)  ratio
2020/11/02 05:42:47.000   1112776.9459  -4341475.9071   4522955.8833   6   8   0.0001   0.0001   0.0001  -0.0000  -0.0000  -0.0000   0.00    0.0
2020/11/02 05:42:48.000   1112776.9459  -4341475.9071   4522955.8833   6   8   0.0001   0.0001   0.0001  -0.0000  -0.0000  -0.0000   0.00    0.0
2020/11/02 05:42:49.000   1112776.9459  -4341475.9071   4522955.8833   6   8   0.0001   0.0001   0.0001  -0.0000  -0.0000  -0.0000   0.00    0.0
2020/11/02 05:42:50.000   1112776.9459  -4341475.9071   4522955.8833   6   8   0.0001   0.0001   0.0001  -0.0000  -0.0000  -0.0000   0.00    0.0
2020/11/02 05:42:51.000   1112776.9459  -4341475.9071   4522955.8833   6   8   0.0001   0.0001   0.0001  -0.0000  -0.0000  -0.0000   0.00    0.0
2020/11/02 05:42:52.000   1112776.9459  -4341475.9071   4522955.8833   6   8   0.0001   0.0001   0.0001  -0.0000  -0.0000  -0.0000   0.00    0.0
2020/11/02 05:42:53.000   1112776.9459  -4341475.9071   4522955.8833   6   8   0.0001   0.0001   0.0001  -0.0000  -0.0000  -0.0000   0.00    0.0
2020/11/02 05:42:54.000   1112776.9459  -4341475.9071   4522955.8833   6   8   0.0001   0.0001   0.0001  -0.0000  -0.0000  -0.0000   0.00    0.0
2020/11/02 05:42:55.000   1112776.9459  -4341475.9071   4522955.8833   6   8   0.0001   0.0001   0.0001  -0.0000  -0.0000  -0.0000   0.00    0.0
2020/11/02 05:42:56.000   1112776.9459  -4341475.9071   4522955.8833   6   8   0.0001   0.0001   0.0001  -0.0000  -0.0000  -0.0000   0.00    0.0
2020/11/02 05:42:57.000   1112776.9459  -4341475.9071   4522955.8833   6   8   0.0001   0.0001   0.0001  -0.0000  -0.0000  -0.0000   0.00    0.0
2020/11/02 05:42:58.000   1112776.9459  -4341475.9071   4522955.8833   6   8   0.0001   0.0001   0.0001  -0.0000  -0.0000  -0.0000   0.00    0.0
2020/11/02 05:42:59.000   1112776.9459  -4341475.9071   4522955.8833   6   8   0.0001   0.0001   0.0001  -0.0000  -0.0000  -0.0000   0.00    0.0
2020/11/02 05:43:00.000   1112776.9459  -4341475.9071   4522955.8833   6   8   0.0001   0.0001   0.0001  -0.0000  -0.0000  -0.0000   0.00    0.0
2020/11/02 05:43:01.000   1112776.9459  -4341475.9071   4522955.8833   6   8   0.0001   0.0001   0.0001  -0.0000  -0.0000  -0.0000   0.00    0.0
2020/11/02 05:43:02.000   1112776.9459  -4341475.9071   4522955.8833   6   8   0.0001   0.0001   0.0001  -0.0000  -0.0000  -0.0000   0.00    0.0
2020/11/02 05:43:03.000   1112776.9459  -4341475.9071   4522955.8833   6   8   0.0001   0.0001   0.0001  -0.0000  -0.0000  -0.0000   0.00    0.0
2020/11/02 05:43:04.000   1112776.9459  -4341475.9071   4522955.8833   6   8   0.0001   0.0001   0.0001  -0.0000  -0.0000  -0.0000   0.00    0.0
2020/11/02 05:43:05.000   1112776.9459  -4341475.9071   4522955.8833   6   8   0.0001   0.0001   0.0001  -0.0000  -0.0000  -0.0000   0.00    0.0
2020/11/02 05:43:06.000   1112776.9459  -4341475.9071   4522955.8833   6   8   0.0001   0.0001   0.0001  -0.0000  -0.0000  -0.0000   0.00    0.0
2020/11/02 05:43:07.000   1112776.9459  -4341475.9071   4522955.8833   6   8   0.0001   0.0001   0.0001  -0.0000  -0.0000  -0.0000   0.00    0.0
2020/11/02 05:43:08.000   1112776.9459  -4341475.9071   4522955.8833   6   8   0.0001   0.0001   0.0001  -0.0000  -0.0000  -0.0000   0.00    0.0
2020/11/02 05:43:09.000   1112776.9459  -4341475.9071   4522955.8833   6   8   0.0001   0.0001   0.0001  -0.0000  -0.0000  -0.0000   0.00    0.0
2020/11/02 05:43:10.000   1112776.9459  -4341475.9071   4522955.8833   6   8   0.0001   0.0001   0.0001  -0.0000  -0.0000  -0.0000   0.00    0.0
2020/11/02 05:43:11.000   1112776.9459  -4341475.9071   4522955.8833   6   8   0.0001   0.0001   0.0001  -0.0000  -0.0000  -0.0000   0.00    0.0
2020/11/02 05:43:12.000   1112776.9459  -4341475.9071   4522955.8833   6   8   0.0001   0.0001   0.0001  -0.0000  -0.0000  -0.0000   0.00    0.0
2020/11/02 05:43:13.000   1112776.9459  -4341475.9071   4522955.8833   6   8   0.0001   0.0001   0.0001  -0.0000  -0.0000  -0.0000   0.00    0.0
2020/11/02 05:43:14.000   1112776.9459  -4341475.9071   4522955.8833   6   8   0.0001   0.0001   0.0001  -0.0000  -0.0000  -0.0000   0.00    0.0
2020/11/02 05:43:15.000   1112776.9459  -4341475.9071   4522955.8833   6   8   0.0001   0.0001   0.0001  -0.0000  -0.0000  -0.0000   0.00    0.0
2020/11/02 05:43:16.000   1112776.9459  -4341475.9071   4522955.8833   6   8   0.0001   0.0001   0.0001  -0.0000  -0.0000  -0.0000   0.00    0.0
2020/11/02 05:43:17.000   1112776.9459  -4341475.9071   4522955.8833   6   8   0.0001   0.0001   0.0001  -0.0000  -0.0000  -0.0000   0.00    0.0
2020/11/02 05:43:18.000   1112776.9459  -4341475.9071   4522955.8833   6   8   0.0001   0.0001   0.0001  -0.0000  -0.0000  -0.0000   0.00    0.0
2020/11/02 05:43:19.000   1112776.9628  -4341475.9591   4522955.9062   6   8   0.1009   0.2085   0.2674  -0.0582  -0.1999  -0.0183   0.00    0.0
2020/11/02 05:43:20.000   1112776.9633  -4341475.9654   4522955.9055   6   8   0.1009   0.2085   0.2674  -0.0582  -0.1999  -0.0183   0.00    0.0
2020/11/02 05:43:21.000   1112776.9631  -4341475.9649   4522955.9140   6   8   0.1009   0.2084   0.2673  -0.0582  -0.1998  -0.0183   0.00    0.0
2020/11/02 05:43:22.000   1112776.9607  -4341475.9643   4522955.9190   6   8   0.1009   0.2084   0.2672  -0.0582  -0.1998  -0.0184   0.00    0.0
2020/11/02 05:43:23.000   1112776.9609  -4341475.9624   4522955.9244   6   8   0.1009   0.2084   0.2671  -0.0583  -0.1997  -0.0184   0.00    0.0
2020/11/02 05:43:24.000   1112776.9637  -4341475.9524   4522955.8995   6   8   0.1009   0.2084   0.2671  -0.0583  -0.1997  -0.0184   0.00    0.0
2020/11/02 05:43:25.000   1112776.9626  -4341475.9583   4522955.9162   6   8   0.1009   0.2083   0.2670  -0.0583  -0.1996  -0.0184   0.00    0.0
2020/11/02 05:43:26.000   1112776.9567  -4341475.9595   4522955.9322   6   8   0.1009   0.2083   0.2669  -0.0583  -0.1996  -0.0184   0.00    0.0
2020/11/02 05:43:27.000   1112776.9490  -4341475.9372   4522955.9023   6   8   0.1009   0.2083   0.2668  -0.0583  -0.1995  -0.0184   0.00    0.0
2020/11/02 05:43:28.000   1112776.9584  -4341475.9388   4522955.9072   6   8   0.1076   0.2717   0.2976   0.0559  -0.2507  -0.0726   0.00    0.0
2020/11/02 05:43:29.000   1112776.9590  -4341475.9229   4522955.9065   6   8   0.1044   0.2428   0.2829  -0.0083  -0.2271  -0.0535   0.00    0.0
2020/11/02 05:43:30.000   1112776.9459  -4341475.9071   4522955.8833   6   8   0.0001   0.0001   0.0001  -0.0000  -0.0000  -0.0000   0.00    0.0
2020/11/02 05:43:31.000   1112776.9459  -4341475.9071   4522955.8833   6   8   0.0001   0.0001   0.0001  -0.0000  -0.0000  -0.0000   0.00    0.0
2020/11/02 05:43:32.000   1112776.9459  -4341475.9071   4522955.8833   6   8   0.0001   0.0001   0.0001  -0.0000  -0.0000  -0.0000   0.00    0.0
2020/11/02 05:43:33.000   1112776.9459  -4341475.9071   4522955.8833   6   8   0.0001   0.0001   0.0001  -0.0000  -0.0000  -0.0000   0.00    0.0
2020/11/02 05:43:34.000   1112776.9459  -4341475.9071   4522955.8833   6   8   0.0001   0.0001   0.0001  -0.0000  -0.0000  -0.0000   0.00    0.0
2020/11/02 05:43:35.000   1112776.9639  -4341475.9317   4522955.9244   6   8   0.1012   0.2124   0.2679  -0.0546  -0.2025  -0.0258   0.00    0.0
2020/11/02 05:43:36.000   1112776.9589  -4341475.9241   4522955.9038   6   8   0.1012   0.2121   0.2677  -0.0548  -0.2022  -0.0254   0.00    0.0
2020/11/02 05:43:37.000   1112776.9641  -4341475.9204   4522955.9126   6   8   0.1012   0.2118   0.2675  -0.0550  -0.2020  -0.0251   0.00    0.0
2020/11/02 05:43:38.000   1112776.9654  -4341475.9103   4522955.8985   6   8   0.1011   0.2116   0.2673  -0.0552  -0.2018  -0.0248   0.00    0.0
2020/11/02 05:43:39.000   1112776.9690  -4341475.9118   4522955.8936   6   8   0.1011   0.2114   0.2672  -0.0554  -0.2016  -0.0246   0.00    0.0
2020/11/02 05:43:40.000   1112776.9674  -4341475.9091   4522955.8826   6   8   0.1011   0.2112   0.2670  -0.0555  -0.2014  -0.0244   0.00    0.0
2020/11/02 05:43:41.000   1112776.9695  -4341475.9112   4522955.8954   6   8   0.1011   0.2110   0.2669  -0.0556  -0.2012  -0.0242   0.00    0.0
2020/11/02 05:43:42.000   1112776.9759  -4341475.9052   4522955.8874   6   8   0.1011   0.2109   0.2668  -0.0558  -0.2011  -0.0240   0.00    0.0
2020/11/02 05:43:43.000   1112776.9725  -4341475.9000   4522955.8859   6   8   0.1011   0.2107   0.2666  -0.0559  -0.2010  -0.0239   0.00    0.0
2020/11/02 05:43:44.000   1112776.9715  -4341475.8982   4522955.8845   6   8   0.1011   0.2106   0.2665  -0.0560  -0.2008  -0.0237   0.00    0.0
2020/11/02 05:43:45.000   1112776.9723  -4341475.8978   4522955.8783   6   8   0.1011   0.2105   0.2664  -0.0561  -0.2007  -0.0236   0.00    0.0
2020/11/02 05:43:46.000   1112776.9734  -4341475.9056   4522955.8889   6   8   0.1011   0.2103   0.2663  -0.0562  -0.2006  -0.0235   0.00    0.0
2020/11/02 05:43:47.000   1112776.9761  -4341475.9057   4522955.8876   6   8   0.1011   0.2102   0.2662  -0.0562  -0.2005  -0.0234   0.00    0.0
2020/11/02 05:43:48.000   1112776.9760  -4341475.8887   4522955.8716   6   8   0.1011   0.2101   0.2661  -0.0563  -0.2004  -0.0233   0.00    0.0
2020/11/02 05:43:49.000   1112776.9767  -4341475.8801   4522955.8589   6   8   0.1011   0.2100   0.2660  -0.0564  -0.2003  -0.0232   0.00    0.0
2020/11/02 05:43:50.000   1112776.9749  -4341475.8788   4522955.8622   6   8   0.1011   0.2100   0.2659  -0.0565  -0.2002  -0.0231   0.00    0.0
2020/11/02 05:43:51.000   1112776.9743  -4341475.8901   4522955.8792   6   8   0.1011   0.2099   0.2658  -0.0565  -0.2001  -0.0231   0.00    0.0
2020/11/02 05:43:52.000   1112776.9742  -4341475.8895   4522955.8650   6   8   0.1011   0.2098   0.2657  -0.0566  -0.2000  -0.0230   0.00    0.0
2020/11/02 05:43:53.000   1112776.9761  -4341475.8656   4522955.8298   6   8   0.1011   0.2097   0.2656  -0.0566  -0.1999  -0.0229   0.00    0.0
2020/11/02 05:43:54.000   1112776.9738  -4341475.8803   4522955.8437   6   8   0.1011   0.2096   0.2655  -0.0567  -0.1998  -0.0229   0.00    0.0
2020/11/02 05:43:55.000   1112776.9689  -4341475.8672   4522955.8395   6   8   0.1011   0.2096   0.2654  -0.0567  -0.1997  -0.0228   0.00    0.0
2020/11/02 05:43:56.000   1112776.9688  -4341475.8669   4522955.8460   6   8   0.1011   0.2095   0.2653  -0.0568  -0.1996  -0.0227   0.00    0.0
2020/11/02 05:43:57.000   1112776.9686  -4341475.8755   4522955.8440   6   8   0.1011   0.2094   0.2652  -0.0568  -0.1996  -0.0227   0.00    0.0
2020/11/02 05:43:58.000   1112776.9655  -4341475.8615   4522955.8258   6   8   0.1011   0.2094   0.2652  -0.0569  -0.1995  -0.0227   0.00    0.0
2020/11/02 05:43:59.000   1112776.9592  -4341475.8705   4522955.8426   6   8   0.1011   0.2093   0.2651  -0.0569  -0.1994  -0.0226   0.00    0.0
2020/11/02 05:44:00.000   1112776.9641  -4341475.8759   4522955.8361   6   8   0.1011   0.2093   0.2650  -0.0570  -0.1993  -0.0226   0.00    0.0
2020/11/02 05:44:01.000   1112776.9676  -4341475.8806   4522955.8497   6   8   0.1011   0.2092   0.2649  -0.0570  -0.1993  -0.0225   0.00    0.0
2020/11/02 05:44:02.000   1112776.9563  -4341475.8832   4522955.8527   6   8   0.1011   0.2091   0.2648  -0.0571  -0.1992  -0.0225   0.00    0.0
2020/11/02 05:44:03.000   1112776.9603  -4341475.8804   4522955.8468   6   8   0.1011   0.2091   0.2647  -0.0571  -0.1991  -0.0225   0.00    0.0
2020/11/02 05:44:04.000   1112776.9578  -4341475.8626   4522955.8359   6   8   0.1011   0.2090   0.2647  -0.0571  -0.1991  -0.0224   0.00    0.0
2020/11/02 05:44:05.000   1112776.9562  -4341475.8823   4522955.8561   6   8   0.1011   0.2090   0.2646  -0.0572  -0.1990  -0.0224   0.00    0.0
2020/11/02 05:44:06.000   1112776.9577  -4341475.8780   4522955.8682   6   8   0.1011   0.2089   0.2645  -0.0572  -0.1989  -0.0224   0.00    0.0
2020/11/02 05:44:07.000   1112776.9541  -4341475.8823   4522955.8721   6   8   0.1011   0.2089   0.2644  -0.0573  -0.1989  -0.0223   0.00    0.0
2020/11/02 05:44:08.000   1112776.9611  -4341475.8823   4522955.8673   6   8   0.1011   0.2088   0.2643  -0.0573  -0.1988  -0.0223   0.00    0.0
2020/11/02 05:44:09.000   1112776.9590  -4341475.8771   4522955.8766   6   8   0.1011   0.2088   0.2643  -0.0573  -0.1987  -0.0223   0.00    0.0
2020/11/02 05:44:10.000   1112776.9610  -4341475.8657   4522955.8703   6   8   0.1011   0.2087   0.2642  -0.0574  -0.1987  -0.0223   0.00    0.0
2020/11/02 05:44:11.000   1112776.9564  -4341475.8728   4522955.8703   6   8   0.1011   0.2087   0.2641  -0.0574  -0.1986  -0.0222   0.00    0.0
2020/11/02 05:44:12.000   1112776.9579  -4341475.8806   4522955.8879   6   8   0.1011   0.2086   0.2640  -0.0574  -0.1985  -0.0222   0.00    0.0
2020/11/02 05:44:13.000   1112776.9568  -4341475.8836   4522955.8906   6   8   0.1011   0.2086   0.2639  -0.0575  -0.1985  -0.0222   0.00    0.0
2020/11/02 05:44:14.000   1112776.9646  -4341475.8795   4522955.8939   6   8   0.1011   0.2086   0.2639  -0.0575  -0.1984  -0.0222   0.00    0.0
2020/11/02 05:44:15.000   1112776.9566  -4341475.8906   4522955.9132   6   8   0.1011   0.2085   0.2638  -0.0575  -0.1983  -0.0222   0.00    0.0
2020/11/02 05:44:16.000   1112776.9653  -4341475.8986   4522955.7966   6   8   0.1011   0.2085   0.2637  -0.0575  -0.1983  -0.0222   0.00    0.0
2020/11/02 05:44:17.000   1112776.9626  -4341475.8888   4522955.7928   6   8   0.1011   0.2084   0.2636  -0.0576  -0.1982  -0.0221   0.00    0.0
2020/11/02 05:44:18.000   1112776.9650  -4341475.9028   4522955.8074   6   8   0.1011   0.2084   0.2636  -0.0576  -0.1982  -0.0221   0.00    0.0
2020/11/02 05:44:19.000   1112776.9651  -4341475.8873   4522955.7938   6   8   0.1011   0.2084   0.2635  -0.0576  -0.1981  -0.0221   0.00    0.0
2020/11/02 05:44:20.000   1112776.9703  -4341475.8950   4522955.8104   6   8   0.1011   0.2083   0.2634  -0.0577  -0.1981  -0.0221   0.00    0.0
2020/11/02 05:44:21.000   1112776.9668  -4341475.8955   4522955.8080   6   8   0.1011   0.2083   0.2633  -0.0577  -0.1980  -0.0221   0.00    0.0
2020/11/02 05:44:22.000   1112776.9715  -4341475.8852   4522955.7944   6   8   0.1011   0.2082   0.2633  -0.0577  -0.1979  -0.0221   0.00    0.0
2020/11/02 05:44:23.000   1112776.9733  -4341475.8789   4522955.7896   6   8   0.1011   0.2082   0.2632  -0.0577  -0.1979  -0.0221   0.00    0.0
2020/11/02 05:44:24.000   1112776.9715  -4341475.8887   4522955.8004   6   8   0.1012   0.2082   0.2631  -0.0578  -0.1978  -0.0220   0.00    0.0
2020/11/02 05:44:25.000   1112776.9675  -4341475.8745   4522955.7838   6   8   0.1012   0.2081   0.2630  -0.0578  -0.1978  -0.0220   0.00    0.0
2020/11/02 05:44:26.000   1112776.9657  -4341475.8910   4522955.7984   6   8   0.1012   0.2081   0.2630  -0.0578  -0.1977  -0.0220   0.00    0.0
2020/11/02 05:44:27.000   1112776.9605  -4341475.8602   4522955.8777   6   8   0.1012   0.2080   0.2629  -0.0579  -0.1977  -0.0220   0.00    0.0
2020/11/02 05:44:28.000   1112776.9668  -4341475.8647   4522955.8835   6   8   0.1012   0.2080   0.2628  -0.0579  -0.1976  -0.0220   0.00    0.0
2020/11/02 05:44:29.000   1112776.9626  -4341475.8631   4522955.8833   6   8   0.1012   0.2080   0.2627  -0.0579  -0.1975  -0.0220   0.00    0.0
2020/11/02 05:44:30.000   1112776.9610  -4341475.8579   4522955.8615   6   8   0.1012   0.2079   0.2627  -0.0579  -0.1975  -0.0220   0.00    0.0
2020/11/02 05:44:31.000   1112776.9644  -4341475.8634   4522955.8564   6   8   0.1012   0.2079   0.2626  -0.0580  -0.1974  -0.0220   0.00    0.0
2020/11/02 05:44:32.000   1112776.9654  -4341475.8567   4522955.8537   6   8   0.1012   0.2079   0.2625  -0.0580  -0.1974  -0.0220   0.00    0.0
2020/11/02 05:44:33.000   1112776.9649  -4341475.8561   4522955.8635   6   8   0.1012   0.2078   0.2624  -0.0580  -0.1973  -0.0220   0.00    0.0
2020/11/02 05:44:34.000   1112776.9594  -4341475.8488   4522955.8578   6   8   0.1012   0.2078   0.2624  -0.0580  -0.1973  -0.0220   0.00    0.0
2020/11/02 05:44:35.000   1112776.9591  -4341475.8545   4522955.8604   6   8   0.1012   0.2078   0.2623  -0.0581  -0.1972  -0.0220   0.00    0.0
2020/11/02 05:44:36.000   1112776.9604  -4341475.8475   4522955.8671   6   8   0.1012   0.2077   0.2622  -0.0581  -0.1972  -0.0220   0.00    0.0
2020/11/02 05:44:37.000   1112776.9603  -4341475.8432   4522955.8536   6   8   0.1012   0.2077   0.2622  -0.0581  -0.1971  -0.0220   0.00    0.0
2020/11/02 05:44:38.000   1112776.9605  -4341475.8550   4522955.8466   6   8   0.1012   0.2077   0.2621  -0.0581  -0.1971  -0.0219   0.00    0.0
2020/11/02 05:44:39.000   1112776.9552  -4341475.8632   4522955.8588   6   8   0.1012   0.2076   0.2620  -0.0582  -0.1970  -0.0219   0.00    0.0
2020/11/02 05:44:40.000   1112776.9644  -4341475.8727   4522955.8641   6   8   0.1012   0.2076   0.2619  -0.0582  -0.1969  -0.0219   0.00    0.0
2020/11/02 05:44:41.000   1112776.9717  -4341475.8686   4522955.8599   6   8   0.1012   0.2076   0.2619  -0.0582  -0.1969  -0.0219   0.00    0.0
2020/11/02 05:44:42.000   1112776.9684  -4341475.8872   4522955.8560   6   8   0.1012   0.2075   0.2618  -0.0582  -0.1968  -0.0219   0.00    0.0
2020/11/02 05:44:43.000   1112776.9683  -4341475.8920   4522955.8701   6   8   0.1012   0.2075   0.2617  -0.0583  -0.1968  -0.0219   0.00    0.0
2020/11/02 05:44:44.000   1112776.9718  -4341475.8909   4522955.8659   6   8   0.1012   0.2075   0.2617  -0.0583  -0.1967  -0.0219   0.00    0.0
2020/11/02 05:44:45.000   1112776.9752  -4341475.9007   4522955.8745   6   8   0.1012   0.2074   0.2616  -0.0583  -0.1967  -0.0219   0.00    0.0
2020/11/02 05:44:46.000   1112776.9701  -4341475.8984   4522955.8570   6   8   0.1012   0.2074   0.2615  -0.0583  -0.1966  -0.0219   0.00    0.0
2020/11/02 05:44:47.000   1112776.9756  -4341475.8951   4522955.8469   6   8   0.1012   0.2074   0.2614  -0.0583  -0.1966  -0.0219   0.00    0.0
2020/11/02 05:44:48.000   1112776.9725  -4341475.8962   4522955.8518   6   8   0.1012   0.2073   0.2614  -0.0584  -0.1965  -0.0219   0.00    0.0
2020/11/02 05:44:49.000   1112776.9765  -4341475.9009   4522955.8621   6   8   0.1013   0.2073   0.2613  -0.0584  -0.1965  -0.0219   0.00    0.0
2020/11/02 05:44:50.000   1112776.9833  -4341475.9164   4522955.8614   6   8   0.1013   0.2073   0.2612  -0.0584  -0.1964  -0.0219   0.00    0.0
2020/11/02 05:44:51.000   1112776.9800  -4341475.9095   4522955.8579   6   8   0.1013   0.2072   0.2612  -0.0584  -0.1964  -0.0219   0.00    0.0
2020/11/02 05:44:52.000   1112776.9800  -4341475.9176   4522955.8655   6   8   0.1013   0.2072   0.2611  -0.0585  -0.1963  -0.0219   0.00    0.0
2020/11/02 05:44:53.000   1112776.9725  -4341475.9194   4522955.8666   6   8   0.1013   0.2072   0.2610  -0.0585  -0.1963  -0.0219   0.00    0.0
2020/11/02 05:44:54.000   1112776.9736  -4341475.9684   4522955.9129   6   8   0.1013   0.2071   0.2609  -0.0585  -0.1962  -0.0219   0.00    0.0
2020/11/02 05:44:55.000   1112776.9789  -4341475.9615   4522955.9155   6   8   0.1013   0.2071   0.2609  -0.0585  -0.1962  -0.0219   0.00    0.0
2020/11/02 05:44:56.000   1112776.9783  -4341475.9645   4522955.9000   6   8   0.1013   0.2071   0.2608  -0.0585  -0.1961  -0.0219   0.00    0.0
2020/11/02 05:44:57.000   1112776.9789  -4341475.9552   4522955.8745   6   8   0.1013   0.2070   0.2607  -0.0586  -0.1961  -0.0219   0.00    0.0
2020/11/02 05:44:58.000   1112776.9777  -4341475.9556   4522955.8669   6   8   0.1013   0.2070   0.2607  -0.0586  -0.1960  -0.0219   0.00    0.0
2020/11/02 05:44:59.000   1112776.9769  -4341475.9597   4522955.8663   6   8   0.1013   0.2070   0.2606  -0.0586  -0.1960  -0.0219   0.00    0.0
2020/11/02 05:45:00.000   1112776.9763  -4341475.9632   4522955.8751   6   8   0.1013   0.2070   0.2605  -0.0586  -0.1959  -0.0219   0.00    0.0
2020/11/02 05:45:01.000   1112776.9710  -4341475.9640   4522955.8843   6   8   0.1013   0.2069   0.2605  -0.0587  -0.1959  -0.0219   0.00    0.0
2020/11/02 05:45:02.000   1112776.9631  -4341475.9573   4522955.8718   6   8   0.1013   0.2069   0.2604  -0.0587  -0.1958  -0.0219   0.00    0.0
2020/11/02 05:45:03.000   1112776.9702  -4341475.9539   4522955.8650   6   8   0.1013   0.2069   0.2603  -0.0587  -0.1958  -0.0219   0.00    0.0
2020/11/02 05:45:04.000   1112776.9691  -4341475.9530   4522955.8631   6   8   0.1013   0.2068   0.2603  -0.0587  -0.1957  -0.0219   0.00    0.0
