%  GPST                      x-ecef(m)      y-ecef(m)      z-ecef(m)   Q  ns   sdx(m)   sdy(m)   sdz(m)  sdxy(m)  sdyz(m)  sdzx(m) age(s)  ratio
2020/10/22 08:24:27.000   1112776.9459  -4341475.9071   4522955.8833   6   8   0.0001   0.0001   0.0001  -0.0000  -0.0000   0.0000   0.00    0.0
2020/10/22 08:24:28.000   1112776.9459  -4341475.9071   4522955.8833   6   8   0.0001   0.0001   0.0001  -0.0000  -0.0000   0.0000   0.00    0.0
2020/10/22 08:24:29.000   1112776.9459  -4341475.9071   4522955.8833   6   8   0.0001   0.0001   0.0001  -0.0000  -0.0000   0.0000   0.00    0.0
2020/10/22 08:24:30.000   1112776.9459  -4341475.9071   4522955.8833   6   8   0.0001   0.0001   0.0001  -0.0000  -0.0000   0.0000   0.00    0.0
2020/10/22 08:24:31.000   1112776.9459  -4341475.9071   4522955.8833   6   8   0.0001   0.0001   0.0001  -0.0000  -0.0000   0.0000   0.00    0.0
2020/10/22 08:24:32.000   1112776.9459  -4341475.9071   4522955.8833   6   8   0.0001   0.0001   0.0001  -0.0000  -0.0000   0.0000   0.00    0.0
2020/10/22 08:24:33.000   1112776.9459  -4341475.9071   4522955.8833   6   8   0.0001   0.0001   0.0001  -0.0000  -0.0000   0.0000   0.00    0.0
2020/10/22 08:24:34.000   1112776.9459  -4341475.9071   4522955.8833   6   8   0.0001   0.0001   0.0001  -0.0000  -0.0000   0.0000   0.00    0.0
2020/10/22 08:24:35.000   1112776.9459  -4341475.9071   4522955.8833   6   8   0.0001   0.0001   0.0001  -0.0000  -0.0000   0.0000   0.00    0.0
2020/10/22 08:24:36.000   1112776.9459  -4341475.9071   4522955.8833   6   8   0.0001   0.0001   0.0001  -0.0000  -0.0000   0.0000   0.00    0.0
2020/10/22 08:24:37.000   1112776.9459  -4341475.9071   4522955.8833   6   8   0.0001   0.0001   0.0001  -0.0000  -0.0000   0.0000   0.00    0.0
2020/10/22 08:24:38.000   1112776.9459  -4341475.9071   4522955.8833   6   8   0.0001   0.0001   0.0001  -0.0000  -0.0000   0.0000   0.00    0.0
2020/10/22 08:24:39.000   1112776.9459  -4341475.9071   4522955.8833   6   8   0.0001   0.0001   0.0001  -0.0000  -0.0000   0.0000   0.00    0.0
2020/10/22 08:24:40.000   1112776.9459  -4341475.9071   4522955.8833   6   8   0.0001   0.0001   0.0001  -0.0000  -0.0000   0.0000   0.00    0.0
2020/10/22 08:24:41.000   1112776.9459  -4341475.9071   4522955.8833   6   8   0.0001   0.0001   0.0001  -0.0000  -0.0000   0.0000   0.00    0.0
2020/10/22 08:24:42.000   1112776.9459  -4341475.9071   4522955.8833   6   8   0.0001   0.0001   0.0001  -0.0000  -0.0000   0.0000   0.00    0.0
2020/10/22 08:24:43.000   1112776.9459  -4341475.9071   4522955.8833   6   8   0.0001   0.0001   0.0001  -0.0000  -0.0000   0.0000   0.00    0.0
2020/10/22 08:24:44.000   1112776.9459  -4341475.9071   4522955.8833   6   8   0.0001   0.0001   0.0001  -0.0000  -0.0000   0.0000   0.00    0.0
2020/10/22 08:24:45.000   1112776.9459  -4341475.9071   4522955.8833   6   8   0.0001   0.0001   0.0001  -0.0000  -0.0000   0.0000   0.00    0.0
2020/10/22 08:24:46.000   1112776.9459  -4341475.9071   4522955.8833   6   8   0.0001   0.0001   0.0001  -0.0000  -0.0000   0.0000   0.00    0.0
2020/10/22 08:24:47.000   1112776.9459  -4341475.9071   4522955.8833   6   8   0.0001   0.0001   0.0001  -0.0000  -0.0000   0.0000   0.00    0.0
2020/10/22 08:24:48.000   1112776.9459  -4341475.9071   4522955.8833   6   8   0.0001   0.0001   0.0001  -0.0000  -0.0000   0.0000   0.00    0.0
2020/10/22 08:24:49.000   1112776.9459  -4341475.9071   4522955.8833   6   8   0.0001   0.0001   0.0001  -0.0000  -0.0000   0.0000   0.00    0.0
2020/10/22 08:24:50.000   1112776.9459  -4341475.9071   4522955.8833   6   8   0.0001   0.0001   0.0001  -0.0000  -0.0000   0.0000   0.00    0.0
2020/10/22 08:24:51.000   1112776.9459  -4341475.9071   4522955.8833   6   8   0.0001   0.0001   0.0001  -0.0000  -0.0000   0.0000   0.00    0.0
2020/10/22 08:24:52.000   1112776.9459  -4341475.9071   4522955.8833   6   8   0.0001   0.0001   0.0001  -0.0000  -0.0000   0.0000   0.00    0.0
2020/10/22 08:24:53.000   1112776.9459  -4341475.9071   4522955.8833   6   8   0.0001   0.0001   0.0001  -0.0000  -0.0000   0.0000   0.00    0.0
2020/10/22 08:24:54.000   1112776.9459  -4341475.9071   4522955.8833   6   8   0.0001   0.0001   0.0001  -0.0000  -0.0000   0.0000   0.00    0.0
2020/10/22 08:24:55.000   1112776.9459  -4341475.9071   4522955.8833   6   8   0.0001   0.0001   0.0001  -0.0000  -0.0000   0.0000   0.00    0.0
2020/10/22 08:24:56.000   1112776.9459  -4341475.9071   4522955.8833   6   8   0.0001   0.0001   0.0001  -0.0000  -0.0000   0.0000   0.00    0.0
2020/10/22 08:24:57.000   1112776.9459  -4341475.9071   4522955.8833   6   8   0.0001   0.0001   0.0001  -0.0000  -0.0000   0.0000   0.00    0.0
2020/10/22 08:24:58.000   1112776.9239  -4341475.8961   4522955.8745   6   8   0.1001   0.1803   0.2513  -0.0859  -0.1642   0.0807   0.00    0.0
2020/10/22 08:24:59.000   1112776.9290  -4341475.9006   4522955.8882   6   8   0.1001   0.1803   0.2514  -0.0860  -0.1642   0.0807   0.00    0.0
2020/10/22 08:25:00.000   1112776.9220  -4341475.8909   4522955.8845   6   8   0.1001   0.1803   0.2514  -0.0860  -0.1643   0.0807   0.00    0.0
2020/10/22 08:25:01.000   1112776.9237  -4341475.8939   4522955.8783   6   8   0.1001   0.1803   0.2515  -0.0860  -0.1643   0.0807   0.00    0.0
2020/10/22 08:25:02.000   1112776.9151  -4341475.8977   4522955.7853   6   8   0.1001   0.1803   0.2515  -0.0860  -0.1643   0.0807   0.00    0.0
2020/10/22 08:25:03.000   1112776.9128  -4341475.9086   4522955.7887   6   8   0.1001   0.1803   0.2516  -0.0860  -0.1643   0.0807   0.00    0.0
2020/10/22 08:25:04.000   1112776.9108  -4341475.9014   4522955.7826   6   8   0.1001   0.1802   0.2516  -0.0860  -0.1643   0.0808   0.00    0.0
2020/10/22 08:25:05.000   1112776.9143  -4341475.9028   4522955.7837   6   8   0.1002   0.1802   0.2517  -0.0860  -0.1643   0.0808   0.00    0.0
2020/10/22 08:25:06.000   1112776.9120  -4341475.9041   4522955.7921   6   8   0.1002   0.1802   0.2517  -0.0860  -0.1644   0.0808   0.00    0.0
2020/10/22 08:25:07.000   1112776.9188  -4341475.8618   4522955.8685   6   8   0.1002   0.1802   0.2517  -0.0860  -0.1644   0.0808   0.00    0.0
2020/10/22 08:25:08.000   1112776.9174  -4341475.8702   4522955.8588   6   8   0.1002   0.1802   0.2518  -0.0860  -0.1644   0.0808   0.00    0.0
2020/10/22 08:25:09.000   1112776.9194  -4341475.8591   4522955.8616   6   8   0.1002   0.1802   0.2518  -0.0860  -0.1644   0.0808   0.00    0.0
2020/10/22 08:25:10.000   1112776.9152  -4341475.8608   4522955.8668   6   8   0.1002   0.1802   0.2519  -0.0860  -0.1644   0.0808   0.00    0.0
2020/10/22 08:25:11.000   1112776.9057  -4341475.8600   4522955.8617   6   8   0.1002   0.1802   0.2519  -0.0860  -0.1644   0.0808   0.00    0.0
2020/10/22 08:25:12.000   1112776.9246  -4341475.9052   4522955.9086   6   8   0.1002   0.1802   0.2520  -0.0860  -0.1645   0.0809   0.00    0.0
2020/10/22 08:25:13.000   1112776.9216  -4341475.9122   4522955.9114   6   8   0.1002   0.1802   0.2520  -0.0860  -0.1645   0.0809   0.00    0.0
2020/10/22 08:25:14.000   1112776.9232  -4341475.9064   4522955.9139   6   8   0.1002   0.1802   0.2521  -0.0860  -0.1645   0.0809   0.00    0.0
2020/10/22 08:25:15.000   1112776.9192  -4341475.9013   4522955.8977   6   8   0.1002   0.1802   0.2521  -0.0861  -0.1645   0.0809   0.00    0.0
2020/10/22 08:25:16.000   1112776.9205  -4341475.9020   4522955.8984   6   8   0.1002   0.1802   0.2522  -0.0861  -0.1645   0.0809   0.00    0.0
2020/10/22 08:25:17.000   1112776.9242  -4341475.9097   4522955.8943   6   8   0.1002   0.1802   0.2522  -0.0861  -0.1645   0.0809   0.00    0.0
