%  GPST                      x-ecef(m)      y-ecef(m)      z-ecef(m)   Q  ns   sdx(m)   sdy(m)   sdz(m)  sdxy(m)  sdyz(m)  sdzx(m) age(s)  ratio
2020/10/22 09:02:29.000   1112776.9459  -4341475.9071   4522955.8833   6   8   0.0001   0.0001   0.0001  -0.0000  -0.0000   0.0000   0.00    0.0
2020/10/22 09:02:30.000   1112776.9459  -4341475.9071   4522955.8833   6   8   0.0001   0.0001   0.0001  -0.0000  -0.0000  -0.0000   0.00    0.0
2020/10/22 09:02:31.000   1112776.9459  -4341475.9071   4522955.8833   6   8   0.0001   0.0001   0.0001  -0.0000  -0.0000  -0.0000   0.00    0.0
2020/10/22 09:02:32.000   1112776.9459  -4341475.9071   4522955.8833   6   8   0.0001   0.0001   0.0001  -0.0000  -0.0000  -0.0000   0.00    0.0
2020/10/22 09:02:33.000   1112776.9459  -4341475.9071   4522955.8833   6   8   0.0001   0.0001   0.0001  -0.0000  -0.0000  -0.0000   0.00    0.0
2020/10/22 09:02:34.000   1112776.9459  -4341475.9071   4522955.8833   6   8   0.0001   0.0001   0.0001  -0.0000  -0.0000  -0.0000   0.00    0.0
2020/10/22 09:02:35.000   1112776.9459  -4341475.9071   4522955.8833   6   8   0.0001   0.0001   0.0001  -0.0000  -0.0000  -0.0000   0.00    0.0
2020/10/22 09:02:36.000   1112776.9459  -4341475.9071   4522955.8833   6   8   0.0001   0.0001   0.0001  -0.0000  -0.0000  -0.0000   0.00    0.0
2020/10/22 09:02:37.000   1112776.9459  -4341475.9071   4522955.8833   6   8   0.0001   0.0001   0.0001  -0.0000  -0.0000  -0.0000   0.00    0.0
2020/10/22 09:02:38.000   1112776.9459  -4341475.9071   4522955.8833   6   8   0.0001   0.0001   0.0001  -0.0000  -0.0000  -0.0000   0.00    0.0
2020/10/22 09:02:39.000   1112776.9459  -4341475.9071   4522955.8833   6   8   0.0001   0.0001   0.0001  -0.0000  -0.0000  -0.0000   0.00    0.0
2020/10/22 09:02:40.000   1112776.9459  -4341475.9071   4522955.8833   6   8   0.0001   0.0001   0.0001  -0.0000  -0.0000  -0.0000   0.00    0.0
2020/10/22 09:02:41.000   1112776.9459  -4341475.9071   4522955.8833   6   8   0.0001   0.0001   0.0001  -0.0000  -0.0000  -0.0000   0.00    0.0
2020/10/22 09:02:42.000   1112776.9459  -4341475.9071   4522955.8833   6   8   0.0001   0.0001   0.0001  -0.0000  -0.0000  -0.0000   0.00    0.0
2020/10/22 09:02:43.000   1112776.9459  -4341475.9071   4522955.8833   6   8   0.0001   0.0001   0.0001  -0.0000  -0.0000  -0.0000   0.00    0.0
2020/10/22 09:02:44.000   1112776.9459  -4341475.9071   4522955.8833   6   8   0.0001   0.0001   0.0001  -0.0000  -0.0000  -0.0000   0.00    0.0
2020/10/22 09:02:45.000   1112776.9459  -4341475.9071   4522955.8833   6   8   0.0001   0.0001   0.0001  -0.0000  -0.0000  -0.0000   0.00    0.0
2020/10/22 09:02:46.000   1112776.9459  -4341475.9071   4522955.8833   6   8   0.0001   0.0001   0.0001  -0.0000  -0.0000  -0.0000   0.00    0.0
2020/10/22 09:02:47.000   1112776.9459  -4341475.9071   4522955.8833   6   8   0.0001   0.0001   0.0001  -0.0000  -0.0000  -0.0000   0.00    0.0
2020/10/22 09:02:48.000   1112776.9459  -4341475.9071   4522955.8833   6   8   0.0001   0.0001   0.0001  -0.0000  -0.0000  -0.0000   0.00    0.0
2020/10/22 09:02:49.000   1112776.9459  -4341475.9071   4522955.8833   6   8   0.0001   0.0001   0.0001  -0.0000  -0.0000  -0.0000   0.00    0.0
2020/10/22 09:02:50.000   1112776.9459  -4341475.9071   4522955.8833   6   8   0.0001   0.0001   0.0001  -0.0000  -0.0000  -0.0000   0.00    0.0
2020/10/22 09:02:51.000   1112776.9459  -4341475.9071   4522955.8833   6   8   0.0001   0.0001   0.0001  -0.0000  -0.0000  -0.0000   0.00    0.0
2020/10/22 09:02:52.000   1112776.9459  -4341475.9071   4522955.8833   6   8   0.0001   0.0001   0.0001  -0.0000  -0.0000  -0.0000   0.00    0.0
2020/10/22 09:02:53.000   1112776.9459  -4341475.9071   4522955.8833   6   8   0.0001   0.0001   0.0001  -0.0000  -0.0000  -0.0000   0.00    0.0
2020/10/22 09:02:54.000   1112776.9459  -4341475.9071   4522955.8833   6   8   0.0001   0.0001   0.0001  -0.0000  -0.0000  -0.0000   0.00    0.0
2020/10/22 09:02:55.000   1112776.9459  -4341475.9071   4522955.8833   6   8   0.0001   0.0001   0.0001  -0.0000  -0.0000  -0.0000   0.00    0.0
2020/10/22 09:02:56.000   1112776.9459  -4341475.9071   4522955.8833   6   8   0.0001   0.0001   0.0001  -0.0000  -0.0000  -0.0000   0.00    0.0
2020/10/22 09:02:57.000   1112776.9459  -4341475.9071   4522955.8833   6   8   0.0001   0.0001   0.0001  -0.0000  -0.0000  -0.0000   0.00    0.0
2020/10/22 09:02:58.000   1112776.9459  -4341475.9071   4522955.8833   6   8   0.0001   0.0001   0.0001  -0.0000  -0.0000  -0.0000   0.00    0.0
2020/10/22 09:02:59.000   1112776.9459  -4341475.9071   4522955.8833   6   8   0.0001   0.0001   0.0001  -0.0000  -0.0000  -0.0000   0.00    0.0
2020/10/22 09:03:00.000   1112776.9459  -4341475.9071   4522955.8833   6   8   0.0001   0.0001   0.0001  -0.0000  -0.0000  -0.0000   0.00    0.0
2020/10/22 09:03:01.000   1112776.9459  -4341475.9071   4522955.8833   6   8   0.0001   0.0001   0.0001  -0.0000  -0.0000  -0.0000   0.00    0.0
2020/10/22 09:03:02.000   1112776.9459  -4341475.9071   4522955.8833   6   8   0.0001   0.0001   0.0001  -0.0000  -0.0000  -0.0000   0.00    0.0
2020/10/22 09:03:03.000   1112776.9351  -4341475.9198   4522955.9699   6   8   0.1121   0.1524   0.2845  -0.0879  -0.1498   0.0798   0.00    0.0
2020/10/22 09:03:04.000   1112776.9437  -4341475.9319   4522955.9854   6   8   0.1121   0.1524   0.2844  -0.0879  -0.1498   0.0797   0.00    0.0
2020/10/22 09:03:05.000   1112776.9341  -4341475.9273   4522955.9864   6   8   0.1121   0.1524   0.2844  -0.0879  -0.1498   0.0797   0.00    0.0
2020/10/22 09:03:06.000   1112776.9323  -4341475.9199   4522955.9841   6   8   0.1121   0.1524   0.2844  -0.0879  -0.1497   0.0797   0.00    0.0
2020/10/22 09:03:07.000   1112776.9349  -4341475.9230   4522955.9940   6   8   0.1121   0.1524   0.2843  -0.0879  -0.1497   0.0797   0.00    0.0
2020/10/22 09:03:08.000   1112776.9380  -4341475.9258   4522956.0141   6   8   0.1121   0.1524   0.2843  -0.0879  -0.1497   0.0797   0.00    0.0
2020/10/22 09:03:09.000   1112776.9414  -4341475.9188   4522956.0002   6   8   0.1121   0.1523   0.2843  -0.0879  -0.1496   0.0796   0.00    0.0
2020/10/22 09:03:10.000   1112776.9388  -4341475.9301   4522955.9995   6   8   0.1121   0.1523   0.2842  -0.0878  -0.1496   0.0796   0.00    0.0
2020/10/22 09:03:11.000   1112776.9418  -4341475.9400   4522956.0202   6   8   0.1121   0.1523   0.2842  -0.0878  -0.1496   0.0796   0.00    0.0
2020/10/22 09:03:12.000   1112776.9380  -4341475.9296   4522956.0285   6   8   0.1121   0.1523   0.2842  -0.0878  -0.1495   0.0796   0.00    0.0
2020/10/22 09:03:13.000   1112776.9359  -4341475.9282   4522956.0186   6   8   0.1121   0.1523   0.2841  -0.0878  -0.1495   0.0796   0.00    0.0
2020/10/22 09:03:14.000   1112776.9352  -4341475.9228   4522956.0105   6   8   0.1121   0.1523   0.2841  -0.0878  -0.1495   0.0796   0.00    0.0
2020/10/22 09:03:15.000   1112776.9372  -4341475.9379   4522956.0304   6   8   0.1121   0.1522   0.2841  -0.0878  -0.1494   0.0795   0.00    0.0
2020/10/22 09:03:16.000   1112776.9400  -4341475.9350   4522956.0235   6   8   0.1121   0.1522   0.2840  -0.0878  -0.1494   0.0795   0.00    0.0
2020/10/22 09:03:17.000   1112776.9377  -4341475.9320   4522956.0210   6   8   0.1121   0.1522   0.2840  -0.0878  -0.1494   0.0795   0.00    0.0
2020/10/22 09:03:18.000   1112776.9433  -4341475.9375   4522956.0232   6   8   0.1121   0.1522   0.2840  -0.0878  -0.1493   0.0795   0.00    0.0
2020/10/22 09:03:19.000   1112776.9422  -4341475.9360   4522956.0128   6   8   0.1121   0.1522   0.2839  -0.0878  -0.1493   0.0795   0.00    0.0
2020/10/22 09:03:20.000   1112776.9431  -4341475.9321   4522956.0146   6   8   0.1121   0.1522   0.2839  -0.0878  -0.1493   0.0794   0.00    0.0
2020/10/22 09:03:21.000   1112776.9403  -4341475.9406   4522956.0254   6   8   0.1121   0.1521   0.2838  -0.0878  -0.1493   0.0794   0.00    0.0
2020/10/22 09:03:22.000   1112776.9431  -4341475.9484   4522956.0185   6   8   0.1121   0.1521   0.2838  -0.0878  -0.1492   0.0794   0.00    0.0
2020/10/22 09:03:23.000   1112776.9387  -4341475.9425   4522956.0162   6   8   0.1121   0.1521   0.2838  -0.0878  -0.1492   0.0794   0.00    0.0
2020/10/22 09:03:24.000   1112776.9288  -4341476.0034   4522956.0371   6   8   0.1121   0.1521   0.2837  -0.0878  -0.1492   0.0794   0.00    0.0
2020/10/22 09:03:25.000   1112776.9308  -4341476.0009   4522956.0410   6   8   0.1121   0.1521   0.2837  -0.0878  -0.1491   0.0793   0.00    0.0
2020/10/22 09:03:26.000   1112776.9296  -4341476.0041   4522956.0381   6   8   0.1121   0.1521   0.2837  -0.0878  -0.1491   0.0793   0.00    0.0
2020/10/22 09:03:27.000   1112776.9366  -4341476.0097   4522956.0404   6   8   0.1122   0.1521   0.2836  -0.0878  -0.1491   0.0793   0.00    0.0
2020/10/22 09:03:28.000   1112776.9256  -4341476.0028   4522956.0378   6   8   0.1122   0.1520   0.2836  -0.0878  -0.1490   0.0793   0.00    0.0
2020/10/22 09:03:29.000   1112776.9425  -4341475.9675   4522956.1007   6   8   0.1122   0.1520   0.2836  -0.0878  -0.1490   0.0793   0.00    0.0
2020/10/22 09:03:30.000   1112776.9437  -4341475.9758   4522956.1202   6   8   0.1122   0.1520   0.2835  -0.0878  -0.1490   0.0792   0.00    0.0
2020/10/22 09:03:31.000   1112776.9377  -4341475.9691   4522956.1087   6   8   0.1122   0.1520   0.2835  -0.0878  -0.1489   0.0792   0.00    0.0
2020/10/22 09:03:32.000   1112776.9302  -4341475.9539   4522956.0904   6   8   0.1122   0.1520   0.2835  -0.0878  -0.1489   0.0792   0.00    0.0
2020/10/22 09:03:33.000   1112776.9300  -4341475.9592   4522956.0765   6   8   0.1122   0.1520   0.2834  -0.0877  -0.1489   0.0792   0.00    0.0
2020/10/22 09:03:34.000   1112776.9204  -4341475.9174   4522955.9639   6   8   0.1122   0.1519   0.2834  -0.0877  -0.1488   0.0792   0.00    0.0
2020/10/22 09:03:35.000   1112776.9186  -4341475.9143   4522955.9657   6   8   0.1122   0.1519   0.2834  -0.0877  -0.1488   0.0791   0.00    0.0
2020/10/22 09:03:36.000   1112776.9221  -4341475.9243   4522955.9772   6   8   0.1122   0.1519   0.2833  -0.0877  -0.1488   0.0791   0.00    0.0
2020/10/22 09:03:37.000   1112776.9227  -4341475.9323   4522955.9814   6   8   0.1122   0.1519   0.2833  -0.0877  -0.1488   0.0791   0.00    0.0
2020/10/22 09:03:38.000   1112776.9195  -4341475.9213   4522955.9605   6   8   0.1122   0.1519   0.2833  -0.0877  -0.1487   0.0791   0.00    0.0
2020/10/22 09:03:39.000   1112776.9171  -4341475.9161   4522955.9327   6   8   0.1122   0.1519   0.2832  -0.0877  -0.1487   0.0791   0.00    0.0
2020/10/22 09:03:40.000   1112776.9150  -4341475.9145   4522955.9357   6   8   0.1122   0.1519   0.2832  -0.0877  -0.1487   0.0791   0.00    0.0
2020/10/22 09:03:41.000   1112776.9101  -4341475.9222   4522955.9380   6   8   0.1122   0.1518   0.2832  -0.0877  -0.1486   0.0790   0.00    0.0
2020/10/22 09:03:42.000   1112776.9071  -4341475.9062   4522955.9237   6   8   0.1122   0.1518   0.2831  -0.0877  -0.1486   0.0790   0.00    0.0
2020/10/22 09:03:43.000   1112776.9123  -4341475.9106   4522955.9293   6   8   0.1122   0.1518   0.2831  -0.0877  -0.1486   0.0790   0.00    0.0
2020/10/22 09:03:44.000   1112777.0219  -4341475.9601   4522955.8846   6   8   0.1122   0.1518   0.2831  -0.0877  -0.1485   0.0790   0.00    0.0
2020/10/22 09:03:45.000   1112777.0215  -4341475.9642   4522955.9052   6   8   0.1122   0.1518   0.2830  -0.0877  -0.1485   0.0790   0.00    0.0
2020/10/22 09:03:46.000   1112777.0129  -4341475.9426   4522955.8623   6   8   0.1122   0.1518   0.2830  -0.0877  -0.1485   0.0789   0.00    0.0
2020/10/22 09:03:47.000   1112777.0173  -4341475.9570   4522955.8793   6   8   0.1122   0.1517   0.2830  -0.0877  -0.1484   0.0789   0.00    0.0
2020/10/22 09:03:48.000   1112777.0227  -4341475.9547   4522955.8749   6   8   0.1122   0.1517   0.2829  -0.0877  -0.1484   0.0789   0.00    0.0
2020/10/22 09:03:49.000   1112776.9107  -4341475.9068   4522955.9002   6   8   0.1122   0.1517   0.2829  -0.0877  -0.1484   0.0789   0.00    0.0
2020/10/22 09:03:50.000   1112776.9032  -4341475.9035   4522955.8883   6   8   0.1122   0.1517   0.2828  -0.0877  -0.1483   0.0789   0.00    0.0
2020/10/22 09:03:51.000   1112776.9122  -4341475.9081   4522955.8899   6   8   0.1122   0.1517   0.2828  -0.0877  -0.1483   0.0788   0.00    0.0
2020/10/22 09:03:52.000   1112776.9070  -4341475.9033   4522955.8944   6   8   0.1122   0.1517   0.2828  -0.0877  -0.1483   0.0788   0.00    0.0
2020/10/22 09:03:53.000   1112776.9064  -4341475.9035   4522955.8800   6   8   0.1123   0.1517   0.2827  -0.0877  -0.1483   0.0788   0.00    0.0
2020/10/22 09:03:54.000   1112776.9060  -4341475.9028   4522955.8745   6   8   0.1123   0.1516   0.2827  -0.0877  -0.1482   0.0788   0.00    0.0
2020/10/22 09:03:55.000   1112776.9103  -4341475.8967   4522955.8867   6   8   0.1123   0.1516   0.2827  -0.0876  -0.1482   0.0788   0.00    0.0
2020/10/22 09:03:56.000   1112776.9037  -4341475.9010   4522955.8759   6   8   0.1123   0.1516   0.2826  -0.0876  -0.1482   0.0787   0.00    0.0
2020/10/22 09:03:57.000   1112776.9035  -4341475.9018   4522955.8862   6   8   0.1123   0.1516   0.2826  -0.0876  -0.1481   0.0787   0.00    0.0
2020/10/22 09:03:58.000   1112776.9108  -4341475.9067   4522955.8994   6   8   0.1123   0.1516   0.2826  -0.0876  -0.1481   0.0787   0.00    0.0
2020/10/22 09:03:59.000   1112776.9095  -4341475.9075   4522955.8841   6   8   0.1123   0.1516   0.2825  -0.0876  -0.1481   0.0787   0.00    0.0
2020/10/22 09:04:00.000   1112776.9074  -4341475.9094   4522955.8958   6   8   0.1123   0.1515   0.2825  -0.0876  -0.1480   0.0787   0.00    0.0
2020/10/22 09:04:01.000   1112776.9082  -4341475.9134   4522955.8975   6   8   0.1123   0.1515   0.2825  -0.0876  -0.1480   0.0786   0.00    0.0
2020/10/22 09:04:02.000   1112776.9058  -4341475.9120   4522955.8958   6   8   0.1123   0.1515   0.2824  -0.0876  -0.1480   0.0786   0.00    0.0
2020/10/22 09:04:03.000   1112776.9080  -4341475.9144   4522955.9075   6   8   0.1123   0.1515   0.2824  -0.0876  -0.1479   0.0786   0.00    0.0
2020/10/22 09:04:04.000   1112776.9231  -4341475.9241   4522955.9084   6   8   0.1123   0.1515   0.2824  -0.0876  -0.1479   0.0786   0.00    0.0
2020/10/22 09:04:05.000   1112776.9263  -4341475.9307   4522955.9298   6   8   0.1123   0.1515   0.2823  -0.0876  -0.1479   0.0786   0.00    0.0
2020/10/22 09:04:06.000   1112776.9273  -4341475.9318   4522955.9161   6   8   0.1123   0.1515   0.2823  -0.0876  -0.1479   0.0785   0.00    0.0
2020/10/22 09:04:07.000   1112776.9202  -4341475.9269   4522955.9167   6   8   0.1123   0.1514   0.2822  -0.0876  -0.1478   0.0785   0.00    0.0
2020/10/22 09:04:08.000   1112776.9271  -4341475.9338   4522955.9312   6   8   0.1123   0.1514   0.2822  -0.0876  -0.1478   0.0785   0.00    0.0
2020/10/22 09:04:09.000   1112776.9295  -4341475.9237   4522955.9115   6   8   0.1123   0.1514   0.2822  -0.0876  -0.1478   0.0785   0.00    0.0
2020/10/22 09:04:10.000   1112776.9267  -4341475.9289   4522955.9277   6   8   0.1123   0.1514   0.2821  -0.0876  -0.1477   0.0785   0.00    0.0
2020/10/22 09:04:11.000   1112776.9378  -4341475.9398   4522955.9251   6   8   0.1123   0.1514   0.2821  -0.0876  -0.1477   0.0784   0.00    0.0
2020/10/22 09:04:12.000   1112776.9276  -4341475.9286   4522955.9151   6   8   0.1123   0.1514   0.2821  -0.0876  -0.1477   0.0784   0.00    0.0
2020/10/22 09:04:13.000   1112776.9356  -4341475.9416   4522955.9344   6   8   0.1123   0.1514   0.2820  -0.0876  -0.1476   0.0784   0.00    0.0
2020/10/22 09:04:14.000   1112776.9399  -4341475.9471   4522955.9453   6   8   0.1123   0.1513   0.2820  -0.0876  -0.1476   0.0784   0.00    0.0
2020/10/22 09:04:15.000   1112776.9411  -4341475.9524   4522955.9416   6   8   0.1123   0.1513   0.2820  -0.0876  -0.1476   0.0784   0.00    0.0
2020/10/22 09:04:16.000   1112776.9453  -4341475.9462   4522955.9506   6   8   0.1123   0.1513   0.2819  -0.0876  -0.1475   0.0783   0.00    0.0
2020/10/22 09:04:17.000   1112776.9458  -4341475.9489   4522955.9518   6   8   0.1123   0.1513   0.2819  -0.0875  -0.1475   0.0783   0.00    0.0
2020/10/22 09:04:18.000   1112776.9425  -4341475.9514   4522955.9506   6   8   0.1124   0.1513   0.2819  -0.0875  -0.1475   0.0783   0.00    0.0
2020/10/22 09:04:19.000   1112776.9386  -4341475.9393   4522955.9606   6   8   0.1124   0.1513   0.2818  -0.0875  -0.1474   0.0783   0.00    0.0
2020/10/22 09:04:20.000   1112776.9352  -4341475.9398   4522955.9502   6   8   0.1124   0.1513   0.2818  -0.0875  -0.1474   0.0783   0.00    0.0
2020/10/22 09:04:21.000   1112776.9319  -4341475.9346   4522955.9614   6   8   0.1124   0.1512   0.2818  -0.0875  -0.1474   0.0782   0.00    0.0
2020/10/22 09:04:22.000   1112776.9322  -4341475.9319   4522955.9591   6   8   0.1124   0.1512   0.2817  -0.0875  -0.1474   0.0782   0.00    0.0
2020/10/22 09:04:23.000   1112776.9311  -4341475.9320   4522955.9512   6   8   0.1124   0.1512   0.2817  -0.0875  -0.1473   0.0782   0.00    0.0
2020/10/22 09:04:24.000   1112776.9236  -4341475.9288   4522955.9640   6   8   0.1124   0.1512   0.2816  -0.0875  -0.1473   0.0782   0.00    0.0
2020/10/22 09:04:25.000   1112776.9276  -4341475.9233   4522955.9725   6   8   0.1124   0.1512   0.2816  -0.0875  -0.1473   0.0782   0.00    0.0
2020/10/22 09:04:26.000   1112776.9283  -4341475.9311   4522955.9668   6   8   0.1124   0.1512   0.2816  -0.0875  -0.1472   0.0781   0.00    0.0
2020/10/22 09:04:27.000   1112776.9286  -4341475.9262   4522955.9850   6   8   0.1124   0.1512   0.2815  -0.0875  -0.1472   0.0781   0.00    0.0
2020/10/22 09:04:28.000   1112776.9308  -4341475.9270   4522955.9657   6   8   0.1124   0.1511   0.2815  -0.0875  -0.1472   0.0781   0.00    0.0
2020/10/22 09:04:29.000   1112776.9313  -4341475.9286   4522955.9696   6   8   0.1124   0.1511   0.2815  -0.0875  -0.1471   0.0781   0.00    0.0
2020/10/22 09:04:30.000   1112776.9279  -4341475.9289   4522955.9636   6   8   0.1124   0.1511   0.2814  -0.0875  -0.1471   0.0781   0.00    0.0
2020/10/22 09:04:31.000   1112776.9279  -4341475.9326   4522955.9651   6   8   0.1124   0.1511   0.2814  -0.0875  -0.1471   0.0780   0.00    0.0
2020/10/22 09:04:32.000   1112776.9307  -4341475.9314   4522955.9757   6   8   0.1124   0.1511   0.2814  -0.0875  -0.1470   0.0780   0.00    0.0
2020/10/22 09:04:33.000   1112776.9327  -4341475.9387   4522955.9870   6   8   0.1124   0.1511   0.2813  -0.0875  -0.1470   0.0780   0.00    0.0
2020/10/22 09:04:34.000   1112776.9326  -4341475.9417   4522955.9788   6   8   0.1124   0.1510   0.2813  -0.0875  -0.1470   0.0780   0.00    0.0
2020/10/22 09:04:35.000   1112776.9391  -4341475.9451   4522955.9872   6   8   0.1124   0.1510   0.2813  -0.0875  -0.1470   0.0780   0.00    0.0
2020/10/22 09:04:36.000   1112776.9399  -4341475.9535   4522955.9967   6   8   0.1124   0.1510   0.2812  -0.0875  -0.1469   0.0779   0.00    0.0
2020/10/22 09:04:37.000   1112776.9429  -4341475.9509   4522955.9816   6   8   0.1124   0.1510   0.2812  -0.0875  -0.1469   0.0779   0.00    0.0
2020/10/22 09:04:38.000   1112776.9454  -4341475.9598   4522955.9903   6   8   0.1124   0.1510   0.2811  -0.0875  -0.1469   0.0779   0.00    0.0
2020/10/22 09:04:39.000   1112776.9414  -4341475.9510   4522955.9622   6   8   0.1124   0.1510   0.2811  -0.0874  -0.1468   0.0779   0.00    0.0
2020/10/22 09:04:40.000   1112776.9421  -4341475.9503   4522955.9908   6   8   0.1124   0.1510   0.2811  -0.0874  -0.1468   0.0779   0.00    0.0
2020/10/22 09:04:41.000   1112776.9555  -4341475.9580   4522955.9925   6   8   0.1124   0.1509   0.2810  -0.0874  -0.1468   0.0778   0.00    0.0
2020/10/22 09:04:42.000   1112776.9523  -4341475.9652   4522956.0008   6   8   0.1124   0.1509   0.2810  -0.0874  -0.1467   0.0778   0.00    0.0
2020/10/22 09:04:43.000   1112776.9542  -4341475.9582   4522956.0046   6   8   0.1124   0.1509   0.2810  -0.0874  -0.1467   0.0778   0.00    0.0
2020/10/22 09:04:44.000   1112776.9512  -4341475.9533   4522955.9965   6   8   0.1125   0.1509   0.2809  -0.0874  -0.1467   0.0778   0.00    0.0
2020/10/22 09:04:45.000   1112776.9403  -4341475.9424   4522955.9804   6   8   0.1125   0.1509   0.2809  -0.0874  -0.1466   0.0778   0.00    0.0
2020/10/22 09:04:46.000   1112776.9427  -4341475.9460   4522955.9721   6   8   0.1125   0.1509   0.2809  -0.0874  -0.1466   0.0777   0.00    0.0
2020/10/22 09:04:47.000   1112776.9405  -4341475.9510   4522955.9753   6   8   0.1125   0.1509   0.2808  -0.0874  -0.1466   0.0777   0.00    0.0
2020/10/22 09:04:48.000   1112776.9434  -4341475.9480   4522955.9921   6   8   0.1125   0.1508   0.2808  -0.0874  -0.1465   0.0777   0.00    0.0
2020/10/22 09:04:49.000   1112776.9483  -4341475.9524   4522955.9774   6   8   0.1125   0.1508   0.2807  -0.0874  -0.1465   0.0777   0.00    0.0
2020/10/22 09:04:50.000   1112776.9494  -4341475.9460   4522955.9682   6   8   0.1125   0.1508   0.2807  -0.0874  -0.1465   0.0777   0.00    0.0
