%  GPST                      x-ecef(m)      y-ecef(m)      z-ecef(m)   Q  ns   sdx(m)   sdy(m)   sdz(m)  sdxy(m)  sdyz(m)  sdzx(m) age(s)  ratio
2020/10/20 08:12:45.000   1112776.9461  -4341475.9071   4522955.8833   6   6   0.0001   0.0001   0.0001  -0.0000  -0.0000  -0.0000   0.00    0.0
2020/10/20 08:12:46.000   1112776.9461  -4341475.9071   4522955.8833   6   6   0.0001   0.0001   0.0001  -0.0000  -0.0000   0.0000   0.00    0.0
2020/10/20 08:12:47.000   1112776.9461  -4341475.9071   4522955.8833   6   8   0.0001   0.0001   0.0001  -0.0000  -0.0000   0.0000   0.00    0.0
2020/10/20 08:12:48.000   1112776.9461  -4341475.9071   4522955.8833   6   8   0.0001   0.0001   0.0001  -0.0000  -0.0000   0.0000   0.00    0.0
2020/10/20 08:12:49.000   1112776.9461  -4341475.9071   4522955.8833   6   8   0.0001   0.0001   0.0001  -0.0000  -0.0000  -0.0000   0.00    0.0
2020/10/20 08:12:50.000   1112776.9461  -4341475.9071   4522955.8833   6   8   0.0001   0.0001   0.0001  -0.0000  -0.0000  -0.0000   0.00    0.0
2020/10/20 08:12:51.000   1112776.9461  -4341475.9071   4522955.8833   6   8   0.0001   0.0001   0.0001  -0.0000  -0.0000  -0.0000   0.00    0.0
2020/10/20 08:12:52.000   1112776.9461  -4341475.9071   4522955.8833   6   8   0.0001   0.0001   0.0001  -0.0000  -0.0000  -0.0000   0.00    0.0
2020/10/20 08:12:53.000   1112776.9461  -4341475.9071   4522955.8833   6   8   0.0001   0.0001   0.0001  -0.0000  -0.0000  -0.0000   0.00    0.0
2020/10/20 08:12:54.000   1112776.9461  -4341475.9071   4522955.8833   6   8   0.0001   0.0001   0.0001  -0.0000  -0.0000  -0.0000   0.00    0.0
2020/10/20 08:12:55.000   1112776.9461  -4341475.9071   4522955.8833   6   8   0.0001   0.0001   0.0001  -0.0000  -0.0000  -0.0000   0.00    0.0
2020/10/20 08:12:56.000   1112776.9535  -4341475.8822   4522955.8906   6   8   0.1069   0.1603   0.1735  -0.0852  -0.1177   0.0617   0.00    0.0
2020/10/20 08:12:57.000   1112776.9443  -4341475.8884   4522955.8693   6   8   0.1069   0.1603   0.1734  -0.0852  -0.1177   0.0617   0.00    0.0
2020/10/20 08:12:58.000   1112776.9436  -4341475.8978   4522955.8832   6   8   0.1069   0.1603   0.1734  -0.0852  -0.1177   0.0617   0.00    0.0
2020/10/20 08:12:59.000   1112776.9414  -4341475.8886   4522955.8753   6   8   0.1069   0.1603   0.1734  -0.0852  -0.1177   0.0617   0.00    0.0
2020/10/20 08:13:00.000   1112776.9386  -4341475.8873   4522955.8780   6   8   0.1069   0.1603   0.1734  -0.0852  -0.1177   0.0617   0.00    0.0
2020/10/20 08:13:01.000   1112776.9371  -4341475.8818   4522955.8733   6   8   0.1069   0.1603   0.1734  -0.0852  -0.1177   0.0617   0.00    0.0
2020/10/20 08:13:02.000   1112776.9354  -4341475.8727   4522955.8684   6   8   0.1069   0.1603   0.1733  -0.0852  -0.1176   0.0617   0.00    0.0
2020/10/20 08:13:03.000   1112776.9340  -4341475.8788   4522955.8777   6   8   0.1069   0.1603   0.1733  -0.0852  -0.1176   0.0617   0.00    0.0
2020/10/20 08:13:04.000   1112776.9366  -4341475.8793   4522955.8710   6   8   0.1069   0.1603   0.1733  -0.0852  -0.1176   0.0617   0.00    0.0
2020/10/20 08:13:05.000   1112776.9318  -4341475.8402   4522955.8733   6   8   0.1069   0.1603   0.1733  -0.0852  -0.1176   0.0617   0.00    0.0
2020/10/20 08:13:06.000   1112776.9384  -4341475.8491   4522955.8779   6   8   0.1069   0.1603   0.1733  -0.0852  -0.1176   0.0617   0.00    0.0
2020/10/20 08:13:07.000   1112776.9233  -4341475.8437   4522955.8832   6   8   0.1069   0.1603   0.1733  -0.0852  -0.1176   0.0617   0.00    0.0
2020/10/20 08:13:08.000   1112776.9249  -4341475.8415   4522955.8896   6   8   0.1069   0.1603   0.1732  -0.0853  -0.1176   0.0617   0.00    0.0
2020/10/20 08:13:09.000   1112776.9223  -4341475.8288   4522955.8700   6   8   0.1069   0.1603   0.1732  -0.0853  -0.1175   0.0617   0.00    0.0
2020/10/20 08:13:10.000   1112776.9258  -4341475.8358   4522955.8717   6   8   0.1069   0.1603   0.1732  -0.0853  -0.1175   0.0617   0.00    0.0
2020/10/20 08:13:11.000   1112776.9278  -4341475.8370   4522955.8657   6   8   0.1069   0.1602   0.1732  -0.0853  -0.1175   0.0617   0.00    0.0
2020/10/20 08:13:12.000   1112776.9370  -4341475.8416   4522955.8705   6   8   0.1069   0.1602   0.1732  -0.0853  -0.1175   0.0617   0.00    0.0
2020/10/20 08:13:13.000   1112776.9316  -4341475.8408   4522955.8741   6   8   0.1069   0.1602   0.1732  -0.0853  -0.1175   0.0617   0.00    0.0
2020/10/20 08:13:14.000   1112776.9357  -4341475.8303   4522955.8626   6   8   0.1069   0.1602   0.1731  -0.0853  -0.1175   0.0617   0.00    0.0
2020/10/20 08:13:15.000   1112776.9355  -4341475.8266   4522955.8740   6   8   0.1069   0.1602   0.1731  -0.0853  -0.1175   0.0617   0.00    0.0
2020/10/20 08:13:16.000   1112776.9350  -4341475.8246   4522955.8695   6   8   0.1069   0.1602   0.1731  -0.0853  -0.1175   0.0617   0.00    0.0
